$GPGGA,092120.678,2838.605,N,07713.181,E,1,12,1.0,0.0,M,0.0,M,,*67
$GPGSA,A,3,01,02,03,04,05,06,07,08,09,10,11,12,1.0,1.0,1.0*30
$GPRMC,092120.678,A,2838.605,N,07713.181,E,000.2,131.3,190224,000.0,W*7D
$GPGGA,092121.678,2838.605,N,07713.181,E,1,12,1.0,0.0,M,0.0,M,,*66
$GPGSA,A,3,01,02,03,04,05,06,07,08,09,10,11,12,1.0,1.0,1.0*30
$GPRMC,092121.678,A,2838.605,N,07713.181,E,000.2,000.0,190224,000.0,W*7C
$GPGGA,092122.678,2838.605,N,07713.181,E,1,12,1.0,0.0,M,0.0,M,,*65
$GPGSA,A,3,01,02,03,04,05,06,07,08,09,10,11,12,1.0,1.0,1.0*30
$GPRMC,092122.678,A,2838.605,N,07713.181,E,000.0,000.0,190224,000.0,W*7D
$GPGGA,092123.678,2838.605,N,07713.181,E,1,12,1.0,0.0,M,0.0,M,,*64
$GPGSA,A,3,01,02,03,04,05,06,07,08,09,10,11,12,1.0,1.0,1.0*30
$GPRMC,092123.678,A,2838.605,N,07713.181,E,000.0,000.0,190224,000.0,W*7C
$GPGGA,092124.678,2838.605,N,07713.181,E,1,12,1.0,0.0,M,0.0,M,,*63
$GPGSA,A,3,01,02,03,04,05,06,07,08,09,10,11,12,1.0,1.0,1.0*30
$GPRMC,092124.678,A,2838.605,N,07713.181,E,000.0,000.0,190224,000.0,W*7B
$GPGGA,092125.678,2838.605,N,07713.181,E,1,12,1.0,0.0,M,0.0,M,,*62
$GPGSA,A,3,01,02,03,04,05,06,07,08,09,10,11,12,1.0,1.0,1.0*30
$GPRMC,092125.678,A,2838.605,N,07713.181,E,000.0,000.0,190224,000.0,W*7A
$GPGGA,092126.678,2838.605,N,07713.181,E,1,12,1.0,0.0,M,0.0,M,,*61
$GPGSA,A,3,01,02,03,04,05,06,07,08,09,10,11,12,1.0,1.0,1.0*30
$GPRMC,092126.678,A,2838.605,N,07713.181,E,000.0,000.0,190224,000.0,W*79
$GPGGA,092127.678,2838.605,N,07713.181,E,1,12,1.0,0.0,M,0.0,M,,*60
$GPGSA,A,3,01,02,03,04,05,06,07,08,09,10,11,12,1.0,1.0,1.0*30
$GPRMC,092127.678,A,2838.605,N,07713.181,E,000.0,000.0,190224,000.0,W*78
$GPGGA,092128.678,2838.605,N,07713.181,E,1,12,1.0,0.0,M,0.0,M,,*6F
$GPGSA,A,3,01,02,03,04,05,06,07,08,09,10,11,12,1.0,1.0,1.0*30
$GPRMC,092128.678,A,2838.605,N,07713.181,E,000.0,000.0,190224,000.0,W*77
$GPGGA,092129.678,2838.605,N,07713.181,E,1,12,1.0,0.0,M,0.0,M,,*6E
$GPGSA,A,3,01,02,03,04,05,06,07,08,09,10,11,12,1.0,1.0,1.0*30
$GPRMC,092129.678,A,2838.605,N,07713.181,E,000.0,000.0,190224,000.0,W*76
$GPGGA,092130.678,2838.605,N,07713.181,E,1,12,1.0,0.0,M,0.0,M,,*66
$GPGSA,A,3,01,02,03,04,05,06,07,08,09,10,11,12,1.0,1.0,1.0*30
$GPRMC,092130.678,A,2838.605,N,07713.181,E,000.0,000.0,190224,000.0,W*7E
$GPGGA,092131.678,2838.605,N,07713.181,E,1,12,1.0,0.0,M,0.0,M,,*67
$GPGSA,A,3,01,02,03,04,05,06,07,08,09,10,11,12,1.0,1.0,1.0*30
$GPRMC,092131.678,A,2838.605,N,07713.181,E,000.0,000.0,190224,000.0,W*7F
$GPGGA,092132.678,2838.605,N,07713.181,E,1,12,1.0,0.0,M,0.0,M,,*64
$GPGSA,A,3,01,02,03,04,05,06,07,08,09,10,11,12,1.0,1.0,1.0*30
$GPRMC,092132.678,A,2838.605,N,07713.181,E,000.0,000.0,190224,000.0,W*7C
$GPGGA,092133.678,2838.605,N,07713.181,E,1,12,1.0,0.0,M,0.0,M,,*65
$GPGSA,A,3,01,02,03,04,05,06,07,08,09,10,11,12,1.0,1.0,1.0*30
$GPRMC,092133.678,A,2838.605,N,07713.181,E,000.0,000.0,190224,000.0,W*7D
$GPGGA,092134.678,2838.605,N,07713.181,E,1,12,1.0,0.0,M,0.0,M,,*62
$GPGSA,A,3,01,02,03,04,05,06,07,08,09,10,11,12,1.0,1.0,1.0*30
$GPRMC,092134.678,A,2838.605,N,07713.181,E,000.0,000.0,190224,000.0,W*7A
$GPGGA,092135.678,2838.605,N,07713.181,E,1,12,1.0,0.0,M,0.0,M,,*63
$GPGSA,A,3,01,02,03,04,05,06,07,08,09,10,11,12,1.0,1.0,1.0*30
$GPRMC,092135.678,A,2838.605,N,07713.181,E,000.0,000.0,190224,000.0,W*7B
$GPGGA,092136.678,2838.605,N,07713.181,E,1,12,1.0,0.0,M,0.0,M,,*60
$GPGSA,A,3,01,02,03,04,05,06,07,08,09,10,11,12,1.0,1.0,1.0*30
$GPRMC,092136.678,A,2838.605,N,07713.181,E,000.0,000.0,190224,000.0,W*78
$GPGGA,092137.678,2838.605,N,07713.181,E,1,12,1.0,0.0,M,0.0,M,,*61
$GPGSA,A,3,01,02,03,04,05,06,07,08,09,10,11,12,1.0,1.0,1.0*30
$GPRMC,092137.678,A,2838.605,N,07713.181,E,000.0,000.0,190224,000.0,W*79
$GPGGA,092138.678,2838.605,N,07713.181,E,1,12,1.0,0.0,M,0.0,M,,*6E
$GPGSA,A,3,01,02,03,04,05,06,07,08,09,10,11,12,1.0,1.0,1.0*30
$GPRMC,092138.678,A,2838.605,N,07713.181,E,000.0,000.0,190224,000.0,W*76
$GPGGA,092139.678,2838.605,N,07713.181,E,1,12,1.0,0.0,M,0.0,M,,*6F
$GPGSA,A,3,01,02,03,04,05,06,07,08,09,10,11,12,1.0,1.0,1.0*30
$GPRMC,092139.678,A,2838.605,N,07713.181,E,000.0,000.0,190224,000.0,W*77
$GPGGA,092140.678,2838.605,N,07713.181,E,1,12,1.0,0.0,M,0.0,M,,*61
$GPGSA,A,3,01,02,03,04,05,06,07,08,09,10,11,12,1.0,1.0,1.0*30
$GPRMC,092140.678,A,2838.605,N,07713.181,E,000.0,000.0,190224,000.0,W*79
$GPGGA,092141.678,2838.605,N,07713.181,E,1,12,1.0,0.0,M,0.0,M,,*60
$GPGSA,A,3,01,02,03,04,05,06,07,08,09,10,11,12,1.0,1.0,1.0*30
$GPRMC,092141.678,A,2838.605,N,07713.181,E,000.0,000.0,190224,000.0,W*78
$GPGGA,092142.678,2838.605,N,07713.181,E,1,12,1.0,0.0,M,0.0,M,,*63
$GPGSA,A,3,01,02,03,04,05,06,07,08,09,10,11,12,1.0,1.0,1.0*30
$GPRMC,092142.678,A,2838.605,N,07713.181,E,000.0,000.0,190224,000.0,W*7B
$GPGGA,092143.678,2838.605,N,07713.181,E,1,12,1.0,0.0,M,0.0,M,,*62
$GPGSA,A,3,01,02,03,04,05,06,07,08,09,10,11,12,1.0,1.0,1.0*30
$GPRMC,092143.678,A,2838.605,N,07713.181,E,000.0,000.0,190224,000.0,W*7A
$GPGGA,092144.678,2838.605,N,07713.181,E,1,12,1.0,0.0,M,0.0,M,,*65
$GPGSA,A,3,01,02,03,04,05,06,07,08,09,10,11,12,1.0,1.0,1.0*30
$GPRMC,092144.678,A,2838.605,N,07713.181,E,000.0,000.0,190224,000.0,W*7D
$GPGGA,092145.678,2838.605,N,07713.181,E,1,12,1.0,0.0,M,0.0,M,,*64
$GPGSA,A,3,01,02,03,04,05,06,07,08,09,10,11,12,1.0,1.0,1.0*30
$GPRMC,092145.678,A,2838.605,N,07713.181,E,000.0,000.0,190224,000.0,W*7C
$GPGGA,092146.678,2838.605,N,07713.181,E,1,12,1.0,0.0,M,0.0,M,,*67
$GPGSA,A,3,01,02,03,04,05,06,07,08,09,10,11,12,1.0,1.0,1.0*30
$GPRMC,092146.678,A,2838.605,N,07713.181,E,000.0,000.0,190224,000.0,W*7F
$GPGGA,092147.678,2838.605,N,07713.181,E,1,12,1.0,0.0,M,0.0,M,,*66
$GPGSA,A,3,01,02,03,04,05,06,07,08,09,10,11,12,1.0,1.0,1.0*30
$GPRMC,092147.678,A,2838.605,N,07713.181,E,000.0,000.0,190224,000.0,W*7E
$GPGGA,092148.678,2838.605,N,07713.181,E,1,12,1.0,0.0,M,0.0,M,,*69
$GPGSA,A,3,01,02,03,04,05,06,07,08,09,10,11,12,1.0,1.0,1.0*30
$GPRMC,092148.678,A,2838.605,N,07713.181,E,000.0,000.0,190224,000.0,W*71
$GPGGA,092149.678,2838.605,N,07713.181,E,1,12,1.0,0.0,M,0.0,M,,*68
$GPGSA,A,3,01,02,03,04,05,06,07,08,09,10,11,12,1.0,1.0,1.0*30
$GPRMC,092149.678,A,2838.605,N,07713.181,E,000.0,000.0,190224,000.0,W*70
$GPGGA,092150.678,2838.605,N,07713.181,E,1,12,1.0,0.0,M,0.0,M,,*60
$GPGSA,A,3,01,02,03,04,05,06,07,08,09,10,11,12,1.0,1.0,1.0*30
$GPRMC,092150.678,A,2838.605,N,07713.181,E,000.0,000.0,190224,000.0,W*78
$GPGGA,092151.678,2838.605,N,07713.181,E,1,12,1.0,0.0,M,0.0,M,,*61
$GPGSA,A,3,01,02,03,04,05,06,07,08,09,10,11,12,1.0,1.0,1.0*30
$GPRMC,092151.678,A,2838.605,N,07713.181,E,000.0,000.0,190224,000.0,W*79
$GPGGA,092152.678,2838.605,N,07713.181,E,1,12,1.0,0.0,M,0.0,M,,*62
$GPGSA,A,3,01,02,03,04,05,06,07,08,09,10,11,12,1.0,1.0,1.0*30
$GPRMC,092152.678,A,2838.605,N,07713.181,E,000.0,000.0,190224,000.0,W*7A
$GPGGA,092153.678,2838.605,N,07713.181,E,1,12,1.0,0.0,M,0.0,M,,*63
$GPGSA,A,3,01,02,03,04,05,06,07,08,09,10,11,12,1.0,1.0,1.0*30
$GPRMC,092153.678,A,2838.605,N,07713.181,E,000.0,000.0,190224,000.0,W*7B
$GPGGA,092154.678,2838.605,N,07713.181,E,1,12,1.0,0.0,M,0.0,M,,*64
$GPGSA,A,3,01,02,03,04,05,06,07,08,09,10,11,12,1.0,1.0,1.0*30
$GPRMC,092154.678,A,2838.605,N,07713.181,E,000.0,000.0,190224,000.0,W*7C
$GPGGA,092155.678,2838.605,N,07713.181,E,1,12,1.0,0.0,M,0.0,M,,*65
$GPGSA,A,3,01,02,03,04,05,06,07,08,09,10,11,12,1.0,1.0,1.0*30
$GPRMC,092155.678,A,2838.605,N,07713.181,E,000.0,000.0,190224,000.0,W*7D
$GPGGA,092156.678,2838.605,N,07713.181,E,1,12,1.0,0.0,M,0.0,M,,*66
$GPGSA,A,3,01,02,03,04,05,06,07,08,09,10,11,12,1.0,1.0,1.0*30
$GPRMC,092156.678,A,2838.605,N,07713.181,E,000.0,000.0,190224,000.0,W*7E
$GPGGA,092157.678,2838.605,N,07713.181,E,1,12,1.0,0.0,M,0.0,M,,*67
$GPGSA,A,3,01,02,03,04,05,06,07,08,09,10,11,12,1.0,1.0,1.0*30
$GPRMC,092157.678,A,2838.605,N,07713.181,E,000.0,000.0,190224,000.0,W*7F
$GPGGA,092158.678,2838.605,N,07713.181,E,1,12,1.0,0.0,M,0.0,M,,*68
$GPGSA,A,3,01,02,03,04,05,06,07,08,09,10,11,12,1.0,1.0,1.0*30
$GPRMC,092158.678,A,2838.605,N,07713.181,E,000.0,000.0,190224,000.0,W*70
$GPGGA,092159.678,2838.605,N,07713.181,E,1,12,1.0,0.0,M,0.0,M,,*69
$GPGSA,A,3,01,02,03,04,05,06,07,08,09,10,11,12,1.0,1.0,1.0*30
$GPRMC,092159.678,A,2838.605,N,07713.181,E,000.0,000.0,190224,000.0,W*71
$GPGGA,092200.678,2838.605,N,07713.181,E,1,12,1.0,0.0,M,0.0,M,,*66
$GPGSA,A,3,01,02,03,04,05,06,07,08,09,10,11,12,1.0,1.0,1.0*30
$GPRMC,092200.678,A,2838.605,N,07713.181,E,000.0,000.0,190224,000.0,W*7E
$GPGGA,092201.678,2838.605,N,07713.181,E,1,12,1.0,0.0,M,0.0,M,,*67
$GPGSA,A,3,01,02,03,04,05,06,07,08,09,10,11,12,1.0,1.0,1.0*30
$GPRMC,092201.678,A,2838.605,N,07713.181,E,000.0,000.0,190224,000.0,W*7F
$GPGGA,092202.678,2838.605,N,07713.181,E,1,12,1.0,0.0,M,0.0,M,,*64
$GPGSA,A,3,01,02,03,04,05,06,07,08,09,10,11,12,1.0,1.0,1.0*30
$GPRMC,092202.678,A,2838.605,N,07713.181,E,000.0,000.0,190224,000.0,W*7C
$GPGGA,092203.678,2838.605,N,07713.181,E,1,12,1.0,0.0,M,0.0,M,,*65
$GPGSA,A,3,01,02,03,04,05,06,07,08,09,10,11,12,1.0,1.0,1.0*30
$GPRMC,092203.678,A,2838.605,N,07713.181,E,000.0,000.0,190224,000.0,W*7D
$GPGGA,092204.678,2838.605,N,07713.181,E,1,12,1.0,0.0,M,0.0,M,,*62
$GPGSA,A,3,01,02,03,04,05,06,07,08,09,10,11,12,1.0,1.0,1.0*30
$GPRMC,092204.678,A,2838.605,N,07713.181,E,000.0,000.0,190224,000.0,W*7A
$GPGGA,092205.678,2838.605,N,07713.181,E,1,12,1.0,0.0,M,0.0,M,,*63
$GPGSA,A,3,01,02,03,04,05,06,07,08,09,10,11,12,1.0,1.0,1.0*30
$GPRMC,092205.678,A,2838.605,N,07713.181,E,000.0,000.0,190224,000.0,W*7B
$GPGGA,092206.678,2838.605,N,07713.181,E,1,12,1.0,0.0,M,0.0,M,,*60
$GPGSA,A,3,01,02,03,04,05,06,07,08,09,10,11,12,1.0,1.0,1.0*30
$GPRMC,092206.678,A,2838.605,N,07713.181,E,000.0,000.0,190224,000.0,W*78
$GPGGA,092207.678,2838.605,N,07713.181,E,1,12,1.0,0.0,M,0.0,M,,*61
$GPGSA,A,3,01,02,03,04,05,06,07,08,09,10,11,12,1.0,1.0,1.0*30
$GPRMC,092207.678,A,2838.605,N,07713.181,E,000.0,000.0,190224,000.0,W*79
$GPGGA,092208.678,2838.605,N,07713.181,E,1,12,1.0,0.0,M,0.0,M,,*6E
$GPGSA,A,3,01,02,03,04,05,06,07,08,09,10,11,12,1.0,1.0,1.0*30
$GPRMC,092208.678,A,2838.605,N,07713.181,E,000.0,000.0,190224,000.0,W*76
$GPGGA,092209.678,2838.605,N,07713.181,E,1,12,1.0,0.0,M,0.0,M,,*6F
$GPGSA,A,3,01,02,03,04,05,06,07,08,09,10,11,12,1.0,1.0,1.0*30
$GPRMC,092209.678,A,2838.605,N,07713.181,E,000.0,000.0,190224,000.0,W*77
$GPGGA,092210.678,2838.605,N,07713.181,E,1,12,1.0,0.0,M,0.0,M,,*67
$GPGSA,A,3,01,02,03,04,05,06,07,08,09,10,11,12,1.0,1.0,1.0*30
$GPRMC,092210.678,A,2838.605,N,07713.181,E,000.0,000.0,190224,000.0,W*7F
$GPGGA,092211.678,2838.605,N,07713.181,E,1,12,1.0,0.0,M,0.0,M,,*66
$GPGSA,A,3,01,02,03,04,05,06,07,08,09,10,11,12,1.0,1.0,1.0*30
$GPRMC,092211.678,A,2838.605,N,07713.181,E,000.0,000.0,190224,000.0,W*7E
$GPGGA,092212.678,2838.605,N,07713.181,E,1,12,1.0,0.0,M,0.0,M,,*65
$GPGSA,A,3,01,02,03,04,05,06,07,08,09,10,11,12,1.0,1.0,1.0*30
$GPRMC,092212.678,A,2838.605,N,07713.181,E,000.0,000.0,190224,000.0,W*7D
$GPGGA,092213.678,2838.605,N,07713.181,E,1,12,1.0,0.0,M,0.0,M,,*64
$GPGSA,A,3,01,02,03,04,05,06,07,08,09,10,11,12,1.0,1.0,1.0*30
$GPRMC,092213.678,A,2838.605,N,07713.181,E,000.0,000.0,190224,000.0,W*7C
$GPGGA,092214.678,2838.605,N,07713.181,E,1,12,1.0,0.0,M,0.0,M,,*63
$GPGSA,A,3,01,02,03,04,05,06,07,08,09,10,11,12,1.0,1.0,1.0*30
$GPRMC,092214.678,A,2838.605,N,07713.181,E,000.0,000.0,190224,000.0,W*7B
$GPGGA,092215.678,2838.605,N,07713.181,E,1,12,1.0,0.0,M,0.0,M,,*62
$GPGSA,A,3,01,02,03,04,05,06,07,08,09,10,11,12,1.0,1.0,1.0*30
$GPRMC,092215.678,A,2838.605,N,07713.181,E,000.0,000.0,190224,000.0,W*7A
$GPGGA,092216.678,2838.605,N,07713.181,E,1,12,1.0,0.0,M,0.0,M,,*61
$GPGSA,A,3,01,02,03,04,05,06,07,08,09,10,11,12,1.0,1.0,1.0*30
$GPRMC,092216.678,A,2838.605,N,07713.181,E,000.0,000.0,190224,000.0,W*79
$GPGGA,092217.678,2838.605,N,07713.181,E,1,12,1.0,0.0,M,0.0,M,,*60
$GPGSA,A,3,01,02,03,04,05,06,07,08,09,10,11,12,1.0,1.0,1.0*30
$GPRMC,092217.678,A,2838.605,N,07713.181,E,000.0,000.0,190224,000.0,W*78
$GPGGA,092218.678,2838.605,N,07713.181,E,1,12,1.0,0.0,M,0.0,M,,*6F
$GPGSA,A,3,01,02,03,04,05,06,07,08,09,10,11,12,1.0,1.0,1.0*30
$GPRMC,092218.678,A,2838.605,N,07713.181,E,000.0,000.0,190224,000.0,W*77
$GPGGA,092219.678,2838.605,N,07713.181,E,1,12,1.0,0.0,M,0.0,M,,*6E
$GPGSA,A,3,01,02,03,04,05,06,07,08,09,10,11,12,1.0,1.0,1.0*30
$GPRMC,092219.678,A,2838.605,N,07713.181,E,000.0,000.0,190224,000.0,W*76
$GPGGA,092220.678,2838.605,N,07713.181,E,1,12,1.0,0.0,M,0.0,M,,*64
$GPGSA,A,3,01,02,03,04,05,06,07,08,09,10,11,12,1.0,1.0,1.0*30
$GPRMC,092220.678,A,2838.605,N,07713.181,E,000.0,000.0,190224,000.0,W*7C
$GPGGA,092221.678,2838.605,N,07713.181,E,1,12,1.0,0.0,M,0.0,M,,*65
$GPGSA,A,3,01,02,03,04,05,06,07,08,09,10,11,12,1.0,1.0,1.0*30
$GPRMC,092221.678,A,2838.605,N,07713.181,E,000.0,000.0,190224,000.0,W*7D
$GPGGA,092222.678,2838.605,N,07713.181,E,1,12,1.0,0.0,M,0.0,M,,*66
$GPGSA,A,3,01,02,03,04,05,06,07,08,09,10,11,12,1.0,1.0,1.0*30
$GPRMC,092222.678,A,2838.605,N,07713.181,E,000.0,000.0,190224,000.0,W*7E
$GPGGA,092223.678,2838.605,N,07713.181,E,1,12,1.0,0.0,M,0.0,M,,*67
$GPGSA,A,3,01,02,03,04,05,06,07,08,09,10,11,12,1.0,1.0,1.0*30
$GPRMC,092223.678,A,2838.605,N,07713.181,E,000.0,000.0,190224,000.0,W*7F
$GPGGA,092224.678,2838.605,N,07713.181,E,1,12,1.0,0.0,M,0.0,M,,*60
$GPGSA,A,3,01,02,03,04,05,06,07,08,09,10,11,12,1.0,1.0,1.0*30
$GPRMC,092224.678,A,2838.605,N,07713.181,E,000.0,000.0,190224,000.0,W*78
$GPGGA,092225.678,2838.605,N,07713.181,E,1,12,1.0,0.0,M,0.0,M,,*61
$GPGSA,A,3,01,02,03,04,05,06,07,08,09,10,11,12,1.0,1.0,1.0*30
$GPRMC,092225.678,A,2838.605,N,07713.181,E,000.0,000.0,190224,000.0,W*79
$GPGGA,092226.678,2838.605,N,07713.181,E,1,12,1.0,0.0,M,0.0,M,,*62
$GPGSA,A,3,01,02,03,04,05,06,07,08,09,10,11,12,1.0,1.0,1.0*30
$GPRMC,092226.678,A,2838.605,N,07713.181,E,000.0,000.0,190224,000.0,W*7A
$GPGGA,092227.678,2838.605,N,07713.181,E,1,12,1.0,0.0,M,0.0,M,,*63
$GPGSA,A,3,01,02,03,04,05,06,07,08,09,10,11,12,1.0,1.0,1.0*30
$GPRMC,092227.678,A,2838.605,N,07713.181,E,000.0,000.0,190224,000.0,W*7B
$GPGGA,092228.678,2838.605,N,07713.181,E,1,12,1.0,0.0,M,0.0,M,,*6C
$GPGSA,A,3,01,02,03,04,05,06,07,08,09,10,11,12,1.0,1.0,1.0*30
$GPRMC,092228.678,A,2838.605,N,07713.181,E,000.0,000.0,190224,000.0,W*74
$GPGGA,092229.678,2838.605,N,07713.181,E,1,12,1.0,0.0,M,0.0,M,,*6D
$GPGSA,A,3,01,02,03,04,05,06,07,08,09,10,11,12,1.0,1.0,1.0*30
$GPRMC,092229.678,A,2838.605,N,07713.181,E,000.0,000.0,190224,000.0,W*75
$GPGGA,092230.678,2838.605,N,07713.181,E,1,12,1.0,0.0,M,0.0,M,,*65
$GPGSA,A,3,01,02,03,04,05,06,07,08,09,10,11,12,1.0,1.0,1.0*30
$GPRMC,092230.678,A,2838.605,N,07713.181,E,000.0,000.0,190224,000.0,W*7D
$GPGGA,092231.678,2838.605,N,07713.181,E,1,12,1.0,0.0,M,0.0,M,,*64
$GPGSA,A,3,01,02,03,04,05,06,07,08,09,10,11,12,1.0,1.0,1.0*30
$GPRMC,092231.678,A,2838.605,N,07713.181,E,000.0,000.0,190224,000.0,W*7C
$GPGGA,092232.678,2838.605,N,07713.181,E,1,12,1.0,0.0,M,0.0,M,,*67
$GPGSA,A,3,01,02,03,04,05,06,07,08,09,10,11,12,1.0,1.0,1.0*30
$GPRMC,092232.678,A,2838.605,N,07713.181,E,000.0,000.0,190224,000.0,W*7F
$GPGGA,092233.678,2838.605,N,07713.181,E,1,12,1.0,0.0,M,0.0,M,,*66
$GPGSA,A,3,01,02,03,04,05,06,07,08,09,10,11,12,1.0,1.0,1.0*30
$GPRMC,092233.678,A,2838.605,N,07713.181,E,000.0,000.0,190224,000.0,W*7E
$GPGGA,092234.678,2838.605,N,07713.181,E,1,12,1.0,0.0,M,0.0,M,,*61
$GPGSA,A,3,01,02,03,04,05,06,07,08,09,10,11,12,1.0,1.0,1.0*30
$GPRMC,092234.678,A,2838.605,N,07713.181,E,000.0,000.0,190224,000.0,W*79
$GPGGA,092235.678,2838.605,N,07713.181,E,1,12,1.0,0.0,M,0.0,M,,*60
$GPGSA,A,3,01,02,03,04,05,06,07,08,09,10,11,12,1.0,1.0,1.0*30
$GPRMC,092235.678,A,2838.605,N,07713.181,E,000.0,000.0,190224,000.0,W*78
$GPGGA,092236.678,2838.605,N,07713.181,E,1,12,1.0,0.0,M,0.0,M,,*63
$GPGSA,A,3,01,02,03,04,05,06,07,08,09,10,11,12,1.0,1.0,1.0*30
$GPRMC,092236.678,A,2838.605,N,07713.181,E,000.0,000.0,190224,000.0,W*7B
$GPGGA,092237.678,2838.605,N,07713.181,E,1,12,1.0,0.0,M,0.0,M,,*62
$GPGSA,A,3,01,02,03,04,05,06,07,08,09,10,11,12,1.0,1.0,1.0*30
$GPRMC,092237.678,A,2838.605,N,07713.181,E,000.0,000.0,190224,000.0,W*7A
$GPGGA,092238.678,2838.605,N,07713.181,E,1,12,1.0,0.0,M,0.0,M,,*6D
$GPGSA,A,3,01,02,03,04,05,06,07,08,09,10,11,12,1.0,1.0,1.0*30
$GPRMC,092238.678,A,2838.605,N,07713.181,E,000.0,000.0,190224,000.0,W*75
$GPGGA,092239.678,2838.605,N,07713.181,E,1,12,1.0,0.0,M,0.0,M,,*6C
$GPGSA,A,3,01,02,03,04,05,06,07,08,09,10,11,12,1.0,1.0,1.0*30
$GPRMC,092239.678,A,2838.605,N,07713.181,E,000.0,000.0,190224,000.0,W*74
$GPGGA,092240.678,2838.605,N,07713.181,E,1,12,1.0,0.0,M,0.0,M,,*62
$GPGSA,A,3,01,02,03,04,05,06,07,08,09,10,11,12,1.0,1.0,1.0*30
$GPRMC,092240.678,A,2838.605,N,07713.181,E,000.0,000.0,190224,000.0,W*7A
$GPGGA,092241.678,2838.605,N,07713.181,E,1,12,1.0,0.0,M,0.0,M,,*63
$GPGSA,A,3,01,02,03,04,05,06,07,08,09,10,11,12,1.0,1.0,1.0*30
$GPRMC,092241.678,A,2838.605,N,07713.181,E,000.0,000.0,190224,000.0,W*7B
$GPGGA,092242.678,2838.605,N,07713.181,E,1,12,1.0,0.0,M,0.0,M,,*60
$GPGSA,A,3,01,02,03,04,05,06,07,08,09,10,11,12,1.0,1.0,1.0*30
$GPRMC,092242.678,A,2838.605,N,07713.181,E,000.0,000.0,190224,000.0,W*78
$GPGGA,092243.678,2838.605,N,07713.181,E,1,12,1.0,0.0,M,0.0,M,,*61
$GPGSA,A,3,01,02,03,04,05,06,07,08,09,10,11,12,1.0,1.0,1.0*30
$GPRMC,092243.678,A,2838.605,N,07713.181,E,000.0,000.0,190224,000.0,W*79
$GPGGA,092244.678,2838.605,N,07713.181,E,1,12,1.0,0.0,M,0.0,M,,*66
$GPGSA,A,3,01,02,03,04,05,06,07,08,09,10,11,12,1.0,1.0,1.0*30
$GPRMC,092244.678,A,2838.605,N,07713.181,E,000.0,000.0,190224,000.0,W*7E
$GPGGA,092245.678,2838.605,N,07713.181,E,1,12,1.0,0.0,M,0.0,M,,*67
$GPGSA,A,3,01,02,03,04,05,06,07,08,09,10,11,12,1.0,1.0,1.0*30
$GPRMC,092245.678,A,2838.605,N,07713.181,E,000.0,000.0,190224,000.0,W*7F
$GPGGA,092246.678,2838.605,N,07713.181,E,1,12,1.0,0.0,M,0.0,M,,*64
$GPGSA,A,3,01,02,03,04,05,06,07,08,09,10,11,12,1.0,1.0,1.0*30
$GPRMC,092246.678,A,2838.605,N,07713.181,E,000.0,000.0,190224,000.0,W*7C
$GPGGA,092247.678,2838.605,N,07713.181,E,1,12,1.0,0.0,M,0.0,M,,*65
$GPGSA,A,3,01,02,03,04,05,06,07,08,09,10,11,12,1.0,1.0,1.0*30
$GPRMC,092247.678,A,2838.605,N,07713.181,E,000.0,000.0,190224,000.0,W*7D
$GPGGA,092248.678,2838.605,N,07713.181,E,1,12,1.0,0.0,M,0.0,M,,*6A
$GPGSA,A,3,01,02,03,04,05,06,07,08,09,10,11,12,1.0,1.0,1.0*30
$GPRMC,092248.678,A,2838.605,N,07713.181,E,000.0,000.0,190224,000.0,W*72
$GPGGA,092249.678,2838.605,N,07713.181,E,1,12,1.0,0.0,M,0.0,M,,*6B
$GPGSA,A,3,01,02,03,04,05,06,07,08,09,10,11,12,1.0,1.0,1.0*30
$GPRMC,092249.678,A,2838.605,N,07713.181,E,000.0,000.0,190224,000.0,W*73
$GPGGA,092250.678,2838.605,N,07713.181,E,1,12,1.0,0.0,M,0.0,M,,*63
$GPGSA,A,3,01,02,03,04,05,06,07,08,09,10,11,12,1.0,1.0,1.0*30
$GPRMC,092250.678,A,2838.605,N,07713.181,E,000.0,000.0,190224,000.0,W*7B
$GPGGA,092251.678,2838.605,N,07713.181,E,1,12,1.0,0.0,M,0.0,M,,*62
$GPGSA,A,3,01,02,03,04,05,06,07,08,09,10,11,12,1.0,1.0,1.0*30
$GPRMC,092251.678,A,2838.605,N,07713.181,E,000.0,000.0,190224,000.0,W*7A
$GPGGA,092252.678,2838.605,N,07713.181,E,1,12,1.0,0.0,M,0.0,M,,*61
$GPGSA,A,3,01,02,03,04,05,06,07,08,09,10,11,12,1.0,1.0,1.0*30
$GPRMC,092252.678,A,2838.605,N,07713.181,E,000.0,000.0,190224,000.0,W*79
$GPGGA,092253.678,2838.605,N,07713.181,E,1,12,1.0,0.0,M,0.0,M,,*60
$GPGSA,A,3,01,02,03,04,05,06,07,08,09,10,11,12,1.0,1.0,1.0*30
$GPRMC,092253.678,A,2838.605,N,07713.181,E,000.0,000.0,190224,000.0,W*78
$GPGGA,092254.678,2838.605,N,07713.181,E,1,12,1.0,0.0,M,0.0,M,,*67
$GPGSA,A,3,01,02,03,04,05,06,07,08,09,10,11,12,1.0,1.0,1.0*30
$GPRMC,092254.678,A,2838.605,N,07713.181,E,000.0,000.0,190224,000.0,W*7F
$GPGGA,092255.678,2838.605,N,07713.181,E,1,12,1.0,0.0,M,0.0,M,,*66
$GPGSA,A,3,01,02,03,04,05,06,07,08,09,10,11,12,1.0,1.0,1.0*30
$GPRMC,092255.678,A,2838.605,N,07713.181,E,000.0,000.0,190224,000.0,W*7E
$GPGGA,092256.678,2838.605,N,07713.181,E,1,12,1.0,0.0,M,0.0,M,,*65
$GPGSA,A,3,01,02,03,04,05,06,07,08,09,10,11,12,1.0,1.0,1.0*30
$GPRMC,092256.678,A,2838.605,N,07713.181,E,000.0,000.0,190224,000.0,W*7D
$GPGGA,092257.678,2838.605,N,07713.181,E,1,12,1.0,0.0,M,0.0,M,,*64
$GPGSA,A,3,01,02,03,04,05,06,07,08,09,10,11,12,1.0,1.0,1.0*30
$GPRMC,092257.678,A,2838.605,N,07713.181,E,000.0,000.0,190224,000.0,W*7C
$GPGGA,092258.678,2838.605,N,07713.181,E,1,12,1.0,0.0,M,0.0,M,,*6B
$GPGSA,A,3,01,02,03,04,05,06,07,08,09,10,11,12,1.0,1.0,1.0*30
$GPRMC,092258.678,A,2838.605,N,07713.181,E,000.0,000.0,190224,000.0,W*73
$GPGGA,092259.678,2838.605,N,07713.181,E,1,12,1.0,0.0,M,0.0,M,,*6A
$GPGSA,A,3,01,02,03,04,05,06,07,08,09,10,11,12,1.0,1.0,1.0*30
$GPRMC,092259.678,A,2838.605,N,07713.181,E,038.9,167.8,190224,000.0,W*78
$GPGGA,092300.678,2838.594,N,07713.183,E,1,12,1.0,0.0,M,0.0,M,,*6E
$GPGSA,A,3,01,02,03,04,05,06,07,08,09,10,11,12,1.0,1.0,1.0*30
$GPRMC,092300.678,A,2838.594,N,07713.183,E,038.9,167.8,190224,000.0,W*7C
$GPGGA,092301.678,2838.584,N,07713.186,E,1,12,1.0,0.0,M,0.0,M,,*6B
$GPGSA,A,3,01,02,03,04,05,06,07,08,09,10,11,12,1.0,1.0,1.0*30
$GPRMC,092301.678,A,2838.584,N,07713.186,E,038.9,167.8,190224,000.0,W*79
$GPGGA,092302.678,2838.573,N,07713.188,E,1,12,1.0,0.0,M,0.0,M,,*6E
$GPGSA,A,3,01,02,03,04,05,06,07,08,09,10,11,12,1.0,1.0,1.0*30
$GPRMC,092302.678,A,2838.573,N,07713.188,E,038.9,167.8,190224,000.0,W*7C
$GPGGA,092303.678,2838.563,N,07713.190,E,1,12,1.0,0.0,M,0.0,M,,*67
$GPGSA,A,3,01,02,03,04,05,06,07,08,09,10,11,12,1.0,1.0,1.0*30
$GPRMC,092303.678,A,2838.563,N,07713.190,E,038.9,167.8,190224,000.0,W*75
$GPGGA,092304.678,2838.552,N,07713.193,E,1,12,1.0,0.0,M,0.0,M,,*61
$GPGSA,A,3,01,02,03,04,05,06,07,08,09,10,11,12,1.0,1.0,1.0*30
$GPRMC,092304.678,A,2838.552,N,07713.193,E,038.9,167.8,190224,000.0,W*73
$GPGGA,092305.678,2838.541,N,07713.195,E,1,12,1.0,0.0,M,0.0,M,,*64
$GPGSA,A,3,01,02,03,04,05,06,07,08,09,10,11,12,1.0,1.0,1.0*30
$GPRMC,092305.678,A,2838.541,N,07713.195,E,038.9,167.8,190224,000.0,W*76
$GPGGA,092306.678,2838.531,N,07713.197,E,1,12,1.0,0.0,M,0.0,M,,*62
$GPGSA,A,3,01,02,03,04,05,06,07,08,09,10,11,12,1.0,1.0,1.0*30
$GPRMC,092306.678,A,2838.531,N,07713.197,E,038.9,167.8,190224,000.0,W*70
$GPGGA,092307.678,2838.520,N,07713.200,E,1,12,1.0,0.0,M,0.0,M,,*6E
$GPGSA,A,3,01,02,03,04,05,06,07,08,09,10,11,12,1.0,1.0,1.0*30
$GPRMC,092307.678,A,2838.520,N,07713.200,E,038.9,167.8,190224,000.0,W*7C
$GPGGA,092308.678,2838.510,N,07713.202,E,1,12,1.0,0.0,M,0.0,M,,*60
$GPGSA,A,3,01,02,03,04,05,06,07,08,09,10,11,12,1.0,1.0,1.0*30
$GPRMC,092308.678,A,2838.510,N,07713.202,E,038.9,167.8,190224,000.0,W*72
$GPGGA,092309.678,2838.499,N,07713.204,E,1,12,1.0,0.0,M,0.0,M,,*67
$GPGSA,A,3,01,02,03,04,05,06,07,08,09,10,11,12,1.0,1.0,1.0*30
$GPRMC,092309.678,A,2838.499,N,07713.204,E,038.9,167.8,190224,000.0,W*75
$GPGGA,092310.678,2838.488,N,07713.206,E,1,12,1.0,0.0,M,0.0,M,,*6D
$GPGSA,A,3,01,02,03,04,05,06,07,08,09,10,11,12,1.0,1.0,1.0*30
$GPRMC,092310.678,A,2838.488,N,07713.206,E,038.9,167.8,190224,000.0,W*7F
$GPGGA,092311.678,2838.478,N,07713.209,E,1,12,1.0,0.0,M,0.0,M,,*6C
$GPGSA,A,3,01,02,03,04,05,06,07,08,09,10,11,12,1.0,1.0,1.0*30
$GPRMC,092311.678,A,2838.478,N,07713.209,E,038.9,167.8,190224,000.0,W*7E
$GPGGA,092312.678,2838.467,N,07713.211,E,1,12,1.0,0.0,M,0.0,M,,*68
$GPGSA,A,3,01,02,03,04,05,06,07,08,09,10,11,12,1.0,1.0,1.0*30
$GPRMC,092312.678,A,2838.467,N,07713.211,E,038.9,167.8,190224,000.0,W*7A
$GPGGA,092313.678,2838.457,N,07713.213,E,1,12,1.0,0.0,M,0.0,M,,*68
$GPGSA,A,3,01,02,03,04,05,06,07,08,09,10,11,12,1.0,1.0,1.0*30
$GPRMC,092313.678,A,2838.457,N,07713.213,E,038.9,167.8,190224,000.0,W*7A
$GPGGA,092314.678,2838.446,N,07713.216,E,1,12,1.0,0.0,M,0.0,M,,*6A
$GPGSA,A,3,01,02,03,04,05,06,07,08,09,10,11,12,1.0,1.0,1.0*30
$GPRMC,092314.678,A,2838.446,N,07713.216,E,038.9,167.8,190224,000.0,W*78
$GPGGA,092315.678,2838.435,N,07713.218,E,1,12,1.0,0.0,M,0.0,M,,*61
$GPGSA,A,3,01,02,03,04,05,06,07,08,09,10,11,12,1.0,1.0,1.0*30
$GPRMC,092315.678,A,2838.435,N,07713.218,E,038.9,167.8,190224,000.0,W*73
$GPGGA,092316.678,2838.425,N,07713.220,E,1,12,1.0,0.0,M,0.0,M,,*68
$GPGSA,A,3,01,02,03,04,05,06,07,08,09,10,11,12,1.0,1.0,1.0*30
$GPRMC,092316.678,A,2838.425,N,07713.220,E,038.9,167.8,190224,000.0,W*7A
$GPGGA,092317.678,2838.414,N,07713.223,E,1,12,1.0,0.0,M,0.0,M,,*68
$GPGSA,A,3,01,02,03,04,05,06,07,08,09,10,11,12,1.0,1.0,1.0*30
$GPRMC,092317.678,A,2838.414,N,07713.223,E,038.9,178.7,190224,000.0,W*7B
$GPGGA,092318.678,2838.403,N,07713.223,E,1,12,1.0,0.0,M,0.0,M,,*61
$GPGSA,A,3,01,02,03,04,05,06,07,08,09,10,11,12,1.0,1.0,1.0*30
$GPRMC,092318.678,A,2838.403,N,07713.223,E,038.9,164.5,190224,000.0,W*7D
$GPGGA,092319.678,2838.393,N,07713.226,E,1,12,1.0,0.0,M,0.0,M,,*6B
$GPGSA,A,3,01,02,03,04,05,06,07,08,09,10,11,12,1.0,1.0,1.0*30
$GPRMC,092319.678,A,2838.393,N,07713.226,E,038.9,164.5,190224,000.0,W*77
$GPGGA,092320.678,2838.382,N,07713.229,E,1,12,1.0,0.0,M,0.0,M,,*6E
$GPGSA,A,3,01,02,03,04,05,06,07,08,09,10,11,12,1.0,1.0,1.0*30
$GPRMC,092320.678,A,2838.382,N,07713.229,E,038.9,164.5,190224,000.0,W*72
$GPGGA,092321.678,2838.372,N,07713.232,E,1,12,1.0,0.0,M,0.0,M,,*6A
$GPGSA,A,3,01,02,03,04,05,06,07,08,09,10,11,12,1.0,1.0,1.0*30
$GPRMC,092321.678,A,2838.372,N,07713.232,E,038.9,164.5,190224,000.0,W*76
$GPGGA,092322.678,2838.361,N,07713.234,E,1,12,1.0,0.0,M,0.0,M,,*6D
$GPGSA,A,3,01,02,03,04,05,06,07,08,09,10,11,12,1.0,1.0,1.0*30
$GPRMC,092322.678,A,2838.361,N,07713.234,E,038.9,152.6,190224,000.0,W*77
$GPGGA,092323.678,2838.352,N,07713.240,E,1,12,1.0,0.0,M,0.0,M,,*6F
$GPGSA,A,3,01,02,03,04,05,06,07,08,09,10,11,12,1.0,1.0,1.0*30
$GPRMC,092323.678,A,2838.352,N,07713.240,E,038.9,152.6,190224,000.0,W*75
$GPGGA,092324.678,2838.342,N,07713.245,E,1,12,1.0,0.0,M,0.0,M,,*6C
$GPGSA,A,3,01,02,03,04,05,06,07,08,09,10,11,12,1.0,1.0,1.0*30
$GPRMC,092324.678,A,2838.342,N,07713.245,E,038.9,152.6,190224,000.0,W*76
$GPGGA,092325.678,2838.332,N,07713.250,E,1,12,1.0,0.0,M,0.0,M,,*6E
$GPGSA,A,3,01,02,03,04,05,06,07,08,09,10,11,12,1.0,1.0,1.0*30
$GPRMC,092325.678,A,2838.332,N,07713.250,E,038.9,152.6,190224,000.0,W*74
$GPGGA,092326.678,2838.322,N,07713.255,E,1,12,1.0,0.0,M,0.0,M,,*69
$GPGSA,A,3,01,02,03,04,05,06,07,08,09,10,11,12,1.0,1.0,1.0*30
$GPRMC,092326.678,A,2838.322,N,07713.255,E,038.9,152.6,190224,000.0,W*73
$GPGGA,092327.678,2838.312,N,07713.260,E,1,12,1.0,0.0,M,0.0,M,,*6D
$GPGSA,A,3,01,02,03,04,05,06,07,08,09,10,11,12,1.0,1.0,1.0*30
$GPRMC,092327.678,A,2838.312,N,07713.260,E,038.9,147.2,190224,000.0,W*77
$GPGGA,092328.678,2838.303,N,07713.266,E,1,12,1.0,0.0,M,0.0,M,,*64
$GPGSA,A,3,01,02,03,04,05,06,07,08,09,10,11,12,1.0,1.0,1.0*30
$GPRMC,092328.678,A,2838.303,N,07713.266,E,038.9,147.2,190224,000.0,W*7E
$GPGGA,092329.678,2838.294,N,07713.272,E,1,12,1.0,0.0,M,0.0,M,,*6F
$GPGSA,A,3,01,02,03,04,05,06,07,08,09,10,11,12,1.0,1.0,1.0*30
$GPRMC,092329.678,A,2838.294,N,07713.272,E,038.9,147.2,190224,000.0,W*75
$GPGGA,092330.678,2838.284,N,07713.278,E,1,12,1.0,0.0,M,0.0,M,,*6C
$GPGSA,A,3,01,02,03,04,05,06,07,08,09,10,11,12,1.0,1.0,1.0*30
$GPRMC,092330.678,A,2838.284,N,07713.278,E,038.9,147.2,190224,000.0,W*76
$GPGGA,092331.678,2838.275,N,07713.284,E,1,12,1.0,0.0,M,0.0,M,,*60
$GPGSA,A,3,01,02,03,04,05,06,07,08,09,10,11,12,1.0,1.0,1.0*30
$GPRMC,092331.678,A,2838.275,N,07713.284,E,038.9,147.2,190224,000.0,W*7A
$GPGGA,092332.678,2838.265,N,07713.290,E,1,12,1.0,0.0,M,0.0,M,,*67
$GPGSA,A,3,01,02,03,04,05,06,07,08,09,10,11,12,1.0,1.0,1.0*30
$GPRMC,092332.678,A,2838.265,N,07713.290,E,038.9,147.2,190224,000.0,W*7D
$GPGGA,092333.678,2838.256,N,07713.296,E,1,12,1.0,0.0,M,0.0,M,,*60
$GPGSA,A,3,01,02,03,04,05,06,07,08,09,10,11,12,1.0,1.0,1.0*30
$GPRMC,092333.678,A,2838.256,N,07713.296,E,038.9,147.2,190224,000.0,W*7A
$GPGGA,092334.678,2838.247,N,07713.302,E,1,12,1.0,0.0,M,0.0,M,,*6B
$GPGSA,A,3,01,02,03,04,05,06,07,08,09,10,11,12,1.0,1.0,1.0*30
$GPRMC,092334.678,A,2838.247,N,07713.302,E,038.9,147.2,190224,000.0,W*71
$GPGGA,092335.678,2838.237,N,07713.308,E,1,12,1.0,0.0,M,0.0,M,,*67
$GPGSA,A,3,01,02,03,04,05,06,07,08,09,10,11,12,1.0,1.0,1.0*30
$GPRMC,092335.678,A,2838.237,N,07713.308,E,038.9,147.2,190224,000.0,W*7D
$GPGGA,092336.678,2838.228,N,07713.315,E,1,12,1.0,0.0,M,0.0,M,,*66
$GPGSA,A,3,01,02,03,04,05,06,07,08,09,10,11,12,1.0,1.0,1.0*30
$GPRMC,092336.678,A,2838.228,N,07713.315,E,038.9,147.2,190224,000.0,W*7C
$GPGGA,092337.678,2838.219,N,07713.321,E,1,12,1.0,0.0,M,0.0,M,,*62
$GPGSA,A,3,01,02,03,04,05,06,07,08,09,10,11,12,1.0,1.0,1.0*30
$GPRMC,092337.678,A,2838.219,N,07713.321,E,038.9,147.2,190224,000.0,W*78
$GPGGA,092338.678,2838.209,N,07713.327,E,1,12,1.0,0.0,M,0.0,M,,*6A
$GPGSA,A,3,01,02,03,04,05,06,07,08,09,10,11,12,1.0,1.0,1.0*30
$GPRMC,092338.678,A,2838.209,N,07713.327,E,038.9,143.4,190224,000.0,W*72
$GPGGA,092339.678,2838.200,N,07713.333,E,1,12,1.0,0.0,M,0.0,M,,*67
$GPGSA,A,3,01,02,03,04,05,06,07,08,09,10,11,12,1.0,1.0,1.0*30
$GPRMC,092339.678,A,2838.200,N,07713.333,E,038.9,143.4,190224,000.0,W*7F
$GPGGA,092340.678,2838.191,N,07713.340,E,1,12,1.0,0.0,M,0.0,M,,*66
$GPGSA,A,3,01,02,03,04,05,06,07,08,09,10,11,12,1.0,1.0,1.0*30
$GPRMC,092340.678,A,2838.191,N,07713.340,E,038.9,143.4,190224,000.0,W*7E
$GPGGA,092341.678,2838.182,N,07713.347,E,1,12,1.0,0.0,M,0.0,M,,*62
$GPGSA,A,3,01,02,03,04,05,06,07,08,09,10,11,12,1.0,1.0,1.0*30
$GPRMC,092341.678,A,2838.182,N,07713.347,E,038.9,143.4,190224,000.0,W*7A
$GPGGA,092342.678,2838.173,N,07713.353,E,1,12,1.0,0.0,M,0.0,M,,*6A
$GPGSA,A,3,01,02,03,04,05,06,07,08,09,10,11,12,1.0,1.0,1.0*30
$GPRMC,092342.678,A,2838.173,N,07713.353,E,038.9,143.4,190224,000.0,W*72
$GPGGA,092343.678,2838.164,N,07713.360,E,1,12,1.0,0.0,M,0.0,M,,*6D
$GPGSA,A,3,01,02,03,04,05,06,07,08,09,10,11,12,1.0,1.0,1.0*30
$GPRMC,092343.678,A,2838.164,N,07713.360,E,038.9,143.4,190224,000.0,W*75
$GPGGA,092344.678,2838.155,N,07713.367,E,1,12,1.0,0.0,M,0.0,M,,*6F
$GPGSA,A,3,01,02,03,04,05,06,07,08,09,10,11,12,1.0,1.0,1.0*30
$GPRMC,092344.678,A,2838.155,N,07713.367,E,038.9,143.4,190224,000.0,W*77
$GPGGA,092345.678,2838.146,N,07713.374,E,1,12,1.0,0.0,M,0.0,M,,*6E
$GPGSA,A,3,01,02,03,04,05,06,07,08,09,10,11,12,1.0,1.0,1.0*30
$GPRMC,092345.678,A,2838.146,N,07713.374,E,038.9,143.4,190224,000.0,W*76
$GPGGA,092346.678,2838.137,N,07713.380,E,1,12,1.0,0.0,M,0.0,M,,*60
$GPGSA,A,3,01,02,03,04,05,06,07,08,09,10,11,12,1.0,1.0,1.0*30
$GPRMC,092346.678,A,2838.137,N,07713.380,E,038.9,143.4,190224,000.0,W*78
$GPGGA,092347.678,2838.128,N,07713.387,E,1,12,1.0,0.0,M,0.0,M,,*68
$GPGSA,A,3,01,02,03,04,05,06,07,08,09,10,11,12,1.0,1.0,1.0*30
$GPRMC,092347.678,A,2838.128,N,07713.387,E,038.9,128.9,190224,000.0,W*70
$GPGGA,092348.678,2838.120,N,07713.396,E,1,12,1.0,0.0,M,0.0,M,,*6F
$GPGSA,A,3,01,02,03,04,05,06,07,08,09,10,11,12,1.0,1.0,1.0*30
$GPRMC,092348.678,A,2838.120,N,07713.396,E,038.9,128.9,190224,000.0,W*77
$GPGGA,092349.678,2838.113,N,07713.405,E,1,12,1.0,0.0,M,0.0,M,,*63
$GPGSA,A,3,01,02,03,04,05,06,07,08,09,10,11,12,1.0,1.0,1.0*30
$GPRMC,092349.678,A,2838.113,N,07713.405,E,038.9,128.9,190224,000.0,W*7B
$GPGGA,092350.678,2838.106,N,07713.414,E,1,12,1.0,0.0,M,0.0,M,,*6F
$GPGSA,A,3,01,02,03,04,05,06,07,08,09,10,11,12,1.0,1.0,1.0*30
$GPRMC,092350.678,A,2838.106,N,07713.414,E,038.9,128.9,190224,000.0,W*77
$GPGGA,092351.678,2838.099,N,07713.423,E,1,12,1.0,0.0,M,0.0,M,,*6D
$GPGSA,A,3,01,02,03,04,05,06,07,08,09,10,11,12,1.0,1.0,1.0*30
$GPRMC,092351.678,A,2838.099,N,07713.423,E,038.9,128.9,190224,000.0,W*75
$GPGGA,092352.678,2838.091,N,07713.432,E,1,12,1.0,0.0,M,0.0,M,,*66
$GPGSA,A,3,01,02,03,04,05,06,07,08,09,10,11,12,1.0,1.0,1.0*30
$GPRMC,092352.678,A,2838.091,N,07713.432,E,038.9,128.9,190224,000.0,W*7E
$GPGGA,092353.678,2838.084,N,07713.441,E,1,12,1.0,0.0,M,0.0,M,,*67
$GPGSA,A,3,01,02,03,04,05,06,07,08,09,10,11,12,1.0,1.0,1.0*30
$GPRMC,092353.678,A,2838.084,N,07713.441,E,038.9,128.9,190224,000.0,W*7F
$GPGGA,092354.678,2838.077,N,07713.450,E,1,12,1.0,0.0,M,0.0,M,,*6C
$GPGSA,A,3,01,02,03,04,05,06,07,08,09,10,11,12,1.0,1.0,1.0*30
$GPRMC,092354.678,A,2838.077,N,07713.450,E,038.9,128.9,190224,000.0,W*74
$GPGGA,092355.678,2838.069,N,07713.459,E,1,12,1.0,0.0,M,0.0,M,,*6B
$GPGSA,A,3,01,02,03,04,05,06,07,08,09,10,11,12,1.0,1.0,1.0*30
$GPRMC,092355.678,A,2838.069,N,07713.459,E,038.9,116.1,190224,000.0,W*76
$GPGGA,092356.678,2838.064,N,07713.470,E,1,12,1.0,0.0,M,0.0,M,,*6E
$GPGSA,A,3,01,02,03,04,05,06,07,08,09,10,11,12,1.0,1.0,1.0*30
$GPRMC,092356.678,A,2838.064,N,07713.470,E,038.9,116.1,190224,000.0,W*73
$GPGGA,092357.678,2838.059,N,07713.481,E,1,12,1.0,0.0,M,0.0,M,,*6F
$GPGSA,A,3,01,02,03,04,05,06,07,08,09,10,11,12,1.0,1.0,1.0*30
$GPRMC,092357.678,A,2838.059,N,07713.481,E,038.9,116.1,190224,000.0,W*72
$GPGGA,092358.678,2838.054,N,07713.492,E,1,12,1.0,0.0,M,0.0,M,,*6F
$GPGSA,A,3,01,02,03,04,05,06,07,08,09,10,11,12,1.0,1.0,1.0*30
$GPRMC,092358.678,A,2838.054,N,07713.492,E,038.9,116.1,190224,000.0,W*72
$GPGGA,092359.678,2838.048,N,07713.502,E,1,12,1.0,0.0,M,0.0,M,,*6B
$GPGSA,A,3,01,02,03,04,05,06,07,08,09,10,11,12,1.0,1.0,1.0*30
$GPRMC,092359.678,A,2838.048,N,07713.502,E,038.9,116.1,190224,000.0,W*76
$GPGGA,092400.678,2838.043,N,07713.513,E,1,12,1.0,0.0,M,0.0,M,,*6B
$GPGSA,A,3,01,02,03,04,05,06,07,08,09,10,11,12,1.0,1.0,1.0*30
$GPRMC,092400.678,A,2838.043,N,07713.513,E,038.9,116.1,190224,000.0,W*76
$GPGGA,092401.678,2838.038,N,07713.524,E,1,12,1.0,0.0,M,0.0,M,,*62
$GPGSA,A,3,01,02,03,04,05,06,07,08,09,10,11,12,1.0,1.0,1.0*30
$GPRMC,092401.678,A,2838.038,N,07713.524,E,038.9,116.1,190224,000.0,W*7F
$GPGGA,092402.678,2838.032,N,07713.535,E,1,12,1.0,0.0,M,0.0,M,,*6B
$GPGSA,A,3,01,02,03,04,05,06,07,08,09,10,11,12,1.0,1.0,1.0*30
$GPRMC,092402.678,A,2838.032,N,07713.535,E,038.9,116.1,190224,000.0,W*76
$GPGGA,092403.678,2838.027,N,07713.545,E,1,12,1.0,0.0,M,0.0,M,,*69
$GPGSA,A,3,01,02,03,04,05,06,07,08,09,10,11,12,1.0,1.0,1.0*30
$GPRMC,092403.678,A,2838.027,N,07713.545,E,038.9,116.1,190224,000.0,W*74
$GPGGA,092404.678,2838.022,N,07713.556,E,1,12,1.0,0.0,M,0.0,M,,*69
$GPGSA,A,3,01,02,03,04,05,06,07,08,09,10,11,12,1.0,1.0,1.0*30
$GPRMC,092404.678,A,2838.022,N,07713.556,E,038.9,116.1,190224,000.0,W*74
$GPGGA,092405.678,2838.017,N,07713.567,E,1,12,1.0,0.0,M,0.0,M,,*6C
$GPGSA,A,3,01,02,03,04,05,06,07,08,09,10,11,12,1.0,1.0,1.0*30
$GPRMC,092405.678,A,2838.017,N,07713.567,E,038.9,116.1,190224,000.0,W*71
$GPGGA,092406.678,2838.011,N,07713.578,E,1,12,1.0,0.0,M,0.0,M,,*67
$GPGSA,A,3,01,02,03,04,05,06,07,08,09,10,11,12,1.0,1.0,1.0*30
$GPRMC,092406.678,A,2838.011,N,07713.578,E,038.9,116.1,190224,000.0,W*7A
$GPGGA,092407.678,2838.006,N,07713.588,E,1,12,1.0,0.0,M,0.0,M,,*6F
$GPGSA,A,3,01,02,03,04,05,06,07,08,09,10,11,12,1.0,1.0,1.0*30
$GPRMC,092407.678,A,2838.006,N,07713.588,E,038.9,116.1,190224,000.0,W*72
$GPGGA,092408.678,2838.001,N,07713.599,E,1,12,1.0,0.0,M,0.0,M,,*67
$GPGSA,A,3,01,02,03,04,05,06,07,08,09,10,11,12,1.0,1.0,1.0*30
$GPRMC,092408.678,A,2838.001,N,07713.599,E,038.9,116.1,190224,000.0,W*7A
$GPGGA,092409.678,2837.996,N,07713.610,E,1,12,1.0,0.0,M,0.0,M,,*6C
$GPGSA,A,3,01,02,03,04,05,06,07,08,09,10,11,12,1.0,1.0,1.0*30
$GPRMC,092409.678,A,2837.996,N,07713.610,E,038.9,116.1,190224,000.0,W*71
$GPGGA,092410.678,2837.990,N,07713.621,E,1,12,1.0,0.0,M,0.0,M,,*60
$GPGSA,A,3,01,02,03,04,05,06,07,08,09,10,11,12,1.0,1.0,1.0*30
$GPRMC,092410.678,A,2837.990,N,07713.621,E,038.9,116.1,190224,000.0,W*7D
$GPGGA,092411.678,2837.985,N,07713.631,E,1,12,1.0,0.0,M,0.0,M,,*64
$GPGSA,A,3,01,02,03,04,05,06,07,08,09,10,11,12,1.0,1.0,1.0*30
$GPRMC,092411.678,A,2837.985,N,07713.631,E,038.9,116.1,190224,000.0,W*79
$GPGGA,092412.678,2837.980,N,07713.642,E,1,12,1.0,0.0,M,0.0,M,,*66
$GPGSA,A,3,01,02,03,04,05,06,07,08,09,10,11,12,1.0,1.0,1.0*30
$GPRMC,092412.678,A,2837.980,N,07713.642,E,038.9,116.1,190224,000.0,W*7B
$GPGGA,092413.678,2837.975,N,07713.653,E,1,12,1.0,0.0,M,0.0,M,,*6D
$GPGSA,A,3,01,02,03,04,05,06,07,08,09,10,11,12,1.0,1.0,1.0*30
$GPRMC,092413.678,A,2837.975,N,07713.653,E,038.9,115.8,190224,000.0,W*7A
$GPGGA,092414.678,2837.969,N,07713.664,E,1,12,1.0,0.0,M,0.0,M,,*63
$GPGSA,A,3,01,02,03,04,05,06,07,08,09,10,11,12,1.0,1.0,1.0*30
$GPRMC,092414.678,A,2837.969,N,07713.664,E,038.9,115.8,190224,000.0,W*74
$GPGGA,092415.678,2837.964,N,07713.674,E,1,12,1.0,0.0,M,0.0,M,,*6E
$GPGSA,A,3,01,02,03,04,05,06,07,08,09,10,11,12,1.0,1.0,1.0*30
$GPRMC,092415.678,A,2837.964,N,07713.674,E,038.9,115.8,190224,000.0,W*79
$GPGGA,092416.678,2837.959,N,07713.685,E,1,12,1.0,0.0,M,0.0,M,,*6D
$GPGSA,A,3,01,02,03,04,05,06,07,08,09,10,11,12,1.0,1.0,1.0*30
$GPRMC,092416.678,A,2837.959,N,07713.685,E,038.9,115.8,190224,000.0,W*7A
$GPGGA,092417.678,2837.954,N,07713.696,E,1,12,1.0,0.0,M,0.0,M,,*63
$GPGSA,A,3,01,02,03,04,05,06,07,08,09,10,11,12,1.0,1.0,1.0*30
$GPRMC,092417.678,A,2837.954,N,07713.696,E,038.9,115.8,190224,000.0,W*74
$GPGGA,092418.678,2837.949,N,07713.707,E,1,12,1.0,0.0,M,0.0,M,,*69
$GPGSA,A,3,01,02,03,04,05,06,07,08,09,10,11,12,1.0,1.0,1.0*30
$GPRMC,092418.678,A,2837.949,N,07713.707,E,038.9,115.8,190224,000.0,W*7E
$GPGGA,092419.678,2837.943,N,07713.717,E,1,12,1.0,0.0,M,0.0,M,,*63
$GPGSA,A,3,01,02,03,04,05,06,07,08,09,10,11,12,1.0,1.0,1.0*30
$GPRMC,092419.678,A,2837.943,N,07713.717,E,038.9,115.8,190224,000.0,W*74
$GPGGA,092420.678,2837.938,N,07713.728,E,1,12,1.0,0.0,M,0.0,M,,*69
$GPGSA,A,3,01,02,03,04,05,06,07,08,09,10,11,12,1.0,1.0,1.0*30
$GPRMC,092420.678,A,2837.938,N,07713.728,E,038.9,115.8,190224,000.0,W*7E
$GPGGA,092421.678,2837.933,N,07713.739,E,1,12,1.0,0.0,M,0.0,M,,*63
$GPGSA,A,3,01,02,03,04,05,06,07,08,09,10,11,12,1.0,1.0,1.0*30
$GPRMC,092421.678,A,2837.933,N,07713.739,E,038.9,115.8,190224,000.0,W*74
$GPGGA,092422.678,2837.928,N,07713.750,E,1,12,1.0,0.0,M,0.0,M,,*65
$GPGSA,A,3,01,02,03,04,05,06,07,08,09,10,11,12,1.0,1.0,1.0*30
$GPRMC,092422.678,A,2837.928,N,07713.750,E,038.9,115.8,190224,000.0,W*72
$GPGGA,092423.678,2837.923,N,07713.760,E,1,12,1.0,0.0,M,0.0,M,,*6C
$GPGSA,A,3,01,02,03,04,05,06,07,08,09,10,11,12,1.0,1.0,1.0*30
$GPRMC,092423.678,A,2837.923,N,07713.760,E,038.9,115.8,190224,000.0,W*7B
$GPGGA,092424.678,2837.917,N,07713.771,E,1,12,1.0,0.0,M,0.0,M,,*6C
$GPGSA,A,3,01,02,03,04,05,06,07,08,09,10,11,12,1.0,1.0,1.0*30
$GPRMC,092424.678,A,2837.917,N,07713.771,E,038.9,115.8,190224,000.0,W*7B
$GPGGA,092425.678,2837.912,N,07713.782,E,1,12,1.0,0.0,M,0.0,M,,*64
$GPGSA,A,3,01,02,03,04,05,06,07,08,09,10,11,12,1.0,1.0,1.0*30
$GPRMC,092425.678,A,2837.912,N,07713.782,E,038.9,115.8,190224,000.0,W*73
$GPGGA,092426.678,2837.907,N,07713.793,E,1,12,1.0,0.0,M,0.0,M,,*63
$GPGSA,A,3,01,02,03,04,05,06,07,08,09,10,11,12,1.0,1.0,1.0*30
$GPRMC,092426.678,A,2837.907,N,07713.793,E,038.9,115.8,190224,000.0,W*74
$GPGGA,092427.678,2837.902,N,07713.804,E,1,12,1.0,0.0,M,0.0,M,,*66
$GPGSA,A,3,01,02,03,04,05,06,07,08,09,10,11,12,1.0,1.0,1.0*30
$GPRMC,092427.678,A,2837.902,N,07713.804,E,038.9,115.8,190224,000.0,W*71
$GPGGA,092428.678,2837.897,N,07713.814,E,1,12,1.0,0.0,M,0.0,M,,*65
$GPGSA,A,3,01,02,03,04,05,06,07,08,09,10,11,12,1.0,1.0,1.0*30
$GPRMC,092428.678,A,2837.897,N,07713.814,E,038.9,115.8,190224,000.0,W*72
$GPGGA,092429.678,2837.891,N,07713.825,E,1,12,1.0,0.0,M,0.0,M,,*60
$GPGSA,A,3,01,02,03,04,05,06,07,08,09,10,11,12,1.0,1.0,1.0*30
$GPRMC,092429.678,A,2837.891,N,07713.825,E,038.9,115.8,190224,000.0,W*77
$GPGGA,092430.678,2837.886,N,07713.836,E,1,12,1.0,0.0,M,0.0,M,,*6C
$GPGSA,A,3,01,02,03,04,05,06,07,08,09,10,11,12,1.0,1.0,1.0*30
$GPRMC,092430.678,A,2837.886,N,07713.836,E,038.9,115.8,190224,000.0,W*7B
$GPGGA,092431.678,2837.881,N,07713.847,E,1,12,1.0,0.0,M,0.0,M,,*6C
$GPGSA,A,3,01,02,03,04,05,06,07,08,09,10,11,12,1.0,1.0,1.0*30
$GPRMC,092431.678,A,2837.881,N,07713.847,E,038.9,115.8,190224,000.0,W*7B
$GPGGA,092432.678,2837.876,N,07713.857,E,1,12,1.0,0.0,M,0.0,M,,*66
$GPGSA,A,3,01,02,03,04,05,06,07,08,09,10,11,12,1.0,1.0,1.0*30
$GPRMC,092432.678,A,2837.876,N,07713.857,E,038.9,115.8,190224,000.0,W*71
$GPGGA,092433.678,2837.871,N,07713.868,E,1,12,1.0,0.0,M,0.0,M,,*6C
$GPGSA,A,3,01,02,03,04,05,06,07,08,09,10,11,12,1.0,1.0,1.0*30
$GPRMC,092433.678,A,2837.871,N,07713.868,E,038.9,115.8,190224,000.0,W*7B
$GPGGA,092434.678,2837.865,N,07713.879,E,1,12,1.0,0.0,M,0.0,M,,*6E
$GPGSA,A,3,01,02,03,04,05,06,07,08,09,10,11,12,1.0,1.0,1.0*30
$GPRMC,092434.678,A,2837.865,N,07713.879,E,038.9,115.8,190224,000.0,W*79
$GPGGA,092435.678,2837.860,N,07713.890,E,1,12,1.0,0.0,M,0.0,M,,*6D
$GPGSA,A,3,01,02,03,04,05,06,07,08,09,10,11,12,1.0,1.0,1.0*30
$GPRMC,092435.678,A,2837.860,N,07713.890,E,038.9,115.8,190224,000.0,W*7A
$GPGGA,092436.678,2837.855,N,07713.901,E,1,12,1.0,0.0,M,0.0,M,,*61
$GPGSA,A,3,01,02,03,04,05,06,07,08,09,10,11,12,1.0,1.0,1.0*30
$GPRMC,092436.678,A,2837.855,N,07713.901,E,038.9,115.8,190224,000.0,W*76
$GPGGA,092437.678,2837.850,N,07713.911,E,1,12,1.0,0.0,M,0.0,M,,*64
$GPGSA,A,3,01,02,03,04,05,06,07,08,09,10,11,12,1.0,1.0,1.0*30
$GPRMC,092437.678,A,2837.850,N,07713.911,E,038.9,115.8,190224,000.0,W*73
$GPGGA,092438.678,2837.845,N,07713.922,E,1,12,1.0,0.0,M,0.0,M,,*6F
$GPGSA,A,3,01,02,03,04,05,06,07,08,09,10,11,12,1.0,1.0,1.0*30
$GPRMC,092438.678,A,2837.845,N,07713.922,E,038.9,115.8,190224,000.0,W*78
$GPGGA,092439.678,2837.839,N,07713.933,E,1,12,1.0,0.0,M,0.0,M,,*65
$GPGSA,A,3,01,02,03,04,05,06,07,08,09,10,11,12,1.0,1.0,1.0*30
$GPRMC,092439.678,A,2837.839,N,07713.933,E,038.9,115.8,190224,000.0,W*72
$GPGGA,092440.678,2837.834,N,07713.944,E,1,12,1.0,0.0,M,0.0,M,,*66
$GPGSA,A,3,01,02,03,04,05,06,07,08,09,10,11,12,1.0,1.0,1.0*30
$GPRMC,092440.678,A,2837.834,N,07713.944,E,038.9,115.8,190224,000.0,W*71
$GPGGA,092441.678,2837.829,N,07713.954,E,1,12,1.0,0.0,M,0.0,M,,*6A
$GPGSA,A,3,01,02,03,04,05,06,07,08,09,10,11,12,1.0,1.0,1.0*30
$GPRMC,092441.678,A,2837.829,N,07713.954,E,038.9,115.8,190224,000.0,W*7D
$GPGGA,092442.678,2837.824,N,07713.965,E,1,12,1.0,0.0,M,0.0,M,,*66
$GPGSA,A,3,01,02,03,04,05,06,07,08,09,10,11,12,1.0,1.0,1.0*30
$GPRMC,092442.678,A,2837.824,N,07713.965,E,038.9,115.8,190224,000.0,W*71
$GPGGA,092443.678,2837.819,N,07713.976,E,1,12,1.0,0.0,M,0.0,M,,*6B
$GPGSA,A,3,01,02,03,04,05,06,07,08,09,10,11,12,1.0,1.0,1.0*30
$GPRMC,092443.678,A,2837.819,N,07713.976,E,038.9,115.8,190224,000.0,W*7C
$GPGGA,092444.678,2837.813,N,07713.987,E,1,12,1.0,0.0,M,0.0,M,,*68
$GPGSA,A,3,01,02,03,04,05,06,07,08,09,10,11,12,1.0,1.0,1.0*30
$GPRMC,092444.678,A,2837.813,N,07713.987,E,038.9,115.8,190224,000.0,W*7F
$GPGGA,092445.678,2837.808,N,07713.997,E,1,12,1.0,0.0,M,0.0,M,,*62
$GPGSA,A,3,01,02,03,04,05,06,07,08,09,10,11,12,1.0,1.0,1.0*30
$GPRMC,092445.678,A,2837.808,N,07713.997,E,038.9,115.8,190224,000.0,W*75
$GPGGA,092446.678,2837.803,N,07714.008,E,1,12,1.0,0.0,M,0.0,M,,*62
$GPGSA,A,3,01,02,03,04,05,06,07,08,09,10,11,12,1.0,1.0,1.0*30
$GPRMC,092446.678,A,2837.803,N,07714.008,E,038.9,115.8,190224,000.0,W*75
$GPGGA,092447.678,2837.798,N,07714.019,E,1,12,1.0,0.0,M,0.0,M,,*6E
$GPGSA,A,3,01,02,03,04,05,06,07,08,09,10,11,12,1.0,1.0,1.0*30
$GPRMC,092447.678,A,2837.798,N,07714.019,E,038.9,115.8,190224,000.0,W*79
$GPGGA,092448.678,2837.793,N,07714.030,E,1,12,1.0,0.0,M,0.0,M,,*61
$GPGSA,A,3,01,02,03,04,05,06,07,08,09,10,11,12,1.0,1.0,1.0*30
$GPRMC,092448.678,A,2837.793,N,07714.030,E,038.9,115.8,190224,000.0,W*76
$GPGGA,092449.678,2837.787,N,07714.041,E,1,12,1.0,0.0,M,0.0,M,,*63
$GPGSA,A,3,01,02,03,04,05,06,07,08,09,10,11,12,1.0,1.0,1.0*30
$GPRMC,092449.678,A,2837.787,N,07714.041,E,038.9,115.8,190224,000.0,W*74
$GPGGA,092450.678,2837.782,N,07714.051,E,1,12,1.0,0.0,M,0.0,M,,*6F
$GPGSA,A,3,01,02,03,04,05,06,07,08,09,10,11,12,1.0,1.0,1.0*30
$GPRMC,092450.678,A,2837.782,N,07714.051,E,038.9,115.8,190224,000.0,W*78
$GPGGA,092451.678,2837.777,N,07714.062,E,1,12,1.0,0.0,M,0.0,M,,*64
$GPGSA,A,3,01,02,03,04,05,06,07,08,09,10,11,12,1.0,1.0,1.0*30
$GPRMC,092451.678,A,2837.777,N,07714.062,E,038.9,115.8,190224,000.0,W*73
$GPGGA,092452.678,2837.772,N,07714.073,E,1,12,1.0,0.0,M,0.0,M,,*62
$GPGSA,A,3,01,02,03,04,05,06,07,08,09,10,11,12,1.0,1.0,1.0*30
$GPRMC,092452.678,A,2837.772,N,07714.073,E,038.9,115.8,190224,000.0,W*75
$GPGGA,092453.678,2837.767,N,07714.084,E,1,12,1.0,0.0,M,0.0,M,,*6F
$GPGSA,A,3,01,02,03,04,05,06,07,08,09,10,11,12,1.0,1.0,1.0*30
$GPRMC,092453.678,A,2837.767,N,07714.084,E,038.9,115.8,190224,000.0,W*78
$GPGGA,092454.678,2837.761,N,07714.094,E,1,12,1.0,0.0,M,0.0,M,,*6F
$GPGSA,A,3,01,02,03,04,05,06,07,08,09,10,11,12,1.0,1.0,1.0*30
$GPRMC,092454.678,A,2837.761,N,07714.094,E,038.9,115.8,190224,000.0,W*78
$GPGGA,092455.678,2837.756,N,07714.105,E,1,12,1.0,0.0,M,0.0,M,,*63
$GPGSA,A,3,01,02,03,04,05,06,07,08,09,10,11,12,1.0,1.0,1.0*30
$GPRMC,092455.678,A,2837.756,N,07714.105,E,038.9,122.6,190224,000.0,W*7E
$GPGGA,092456.678,2837.750,N,07714.115,E,1,12,1.0,0.0,M,0.0,M,,*67
$GPGSA,A,3,01,02,03,04,05,06,07,08,09,10,11,12,1.0,1.0,1.0*30
$GPRMC,092456.678,A,2837.750,N,07714.115,E,038.9,122.6,190224,000.0,W*7A
$GPGGA,092457.678,2837.744,N,07714.125,E,1,12,1.0,0.0,M,0.0,M,,*60
$GPGSA,A,3,01,02,03,04,05,06,07,08,09,10,11,12,1.0,1.0,1.0*30
$GPRMC,092457.678,A,2837.744,N,07714.125,E,038.9,122.6,190224,000.0,W*7D
$GPGGA,092458.678,2837.737,N,07714.135,E,1,12,1.0,0.0,M,0.0,M,,*6A
$GPGSA,A,3,01,02,03,04,05,06,07,08,09,10,11,12,1.0,1.0,1.0*30
$GPRMC,092458.678,A,2837.737,N,07714.135,E,038.9,122.6,190224,000.0,W*77
$GPGGA,092459.678,2837.731,N,07714.145,E,1,12,1.0,0.0,M,0.0,M,,*6A
$GPGSA,A,3,01,02,03,04,05,06,07,08,09,10,11,12,1.0,1.0,1.0*30
$GPRMC,092459.678,A,2837.731,N,07714.145,E,038.9,122.6,190224,000.0,W*77
$GPGGA,092500.678,2837.724,N,07714.155,E,1,12,1.0,0.0,M,0.0,M,,*62
$GPGSA,A,3,01,02,03,04,05,06,07,08,09,10,11,12,1.0,1.0,1.0*30
$GPRMC,092500.678,A,2837.724,N,07714.155,E,038.9,122.6,190224,000.0,W*7F
$GPGGA,092501.678,2837.718,N,07714.165,E,1,12,1.0,0.0,M,0.0,M,,*6F
$GPGSA,A,3,01,02,03,04,05,06,07,08,09,10,11,12,1.0,1.0,1.0*30
$GPRMC,092501.678,A,2837.718,N,07714.165,E,038.9,119.8,190224,000.0,W*74
$GPGGA,092502.678,2837.712,N,07714.175,E,1,12,1.0,0.0,M,0.0,M,,*67
$GPGSA,A,3,01,02,03,04,05,06,07,08,09,10,11,12,1.0,1.0,1.0*30
$GPRMC,092502.678,A,2837.712,N,07714.175,E,038.9,119.8,190224,000.0,W*7C
$GPGGA,092503.678,2837.706,N,07714.185,E,1,12,1.0,0.0,M,0.0,M,,*6C
$GPGSA,A,3,01,02,03,04,05,06,07,08,09,10,11,12,1.0,1.0,1.0*30
$GPRMC,092503.678,A,2837.706,N,07714.185,E,038.9,119.8,190224,000.0,W*77
$GPGGA,092504.678,2837.700,N,07714.196,E,1,12,1.0,0.0,M,0.0,M,,*6F
$GPGSA,A,3,01,02,03,04,05,06,07,08,09,10,11,12,1.0,1.0,1.0*30
$GPRMC,092504.678,A,2837.700,N,07714.196,E,038.9,119.8,190224,000.0,W*74
$GPGGA,092505.678,2837.695,N,07714.206,E,1,12,1.0,0.0,M,0.0,M,,*69
$GPGSA,A,3,01,02,03,04,05,06,07,08,09,10,11,12,1.0,1.0,1.0*30
$GPRMC,092505.678,A,2837.695,N,07714.206,E,038.9,119.8,190224,000.0,W*72
$GPGGA,092506.678,2837.689,N,07714.216,E,1,12,1.0,0.0,M,0.0,M,,*66
$GPGSA,A,3,01,02,03,04,05,06,07,08,09,10,11,12,1.0,1.0,1.0*30
$GPRMC,092506.678,A,2837.689,N,07714.216,E,038.9,119.8,190224,000.0,W*7D
$GPGGA,092507.678,2837.683,N,07714.227,E,1,12,1.0,0.0,M,0.0,M,,*6F
$GPGSA,A,3,01,02,03,04,05,06,07,08,09,10,11,12,1.0,1.0,1.0*30
$GPRMC,092507.678,A,2837.683,N,07714.227,E,038.9,119.8,190224,000.0,W*74
$GPGGA,092508.678,2837.677,N,07714.237,E,1,12,1.0,0.0,M,0.0,M,,*6A
$GPGSA,A,3,01,02,03,04,05,06,07,08,09,10,11,12,1.0,1.0,1.0*30
$GPRMC,092508.678,A,2837.677,N,07714.237,E,038.9,119.8,190224,000.0,W*71
$GPGGA,092509.678,2837.671,N,07714.247,E,1,12,1.0,0.0,M,0.0,M,,*6A
$GPGSA,A,3,01,02,03,04,05,06,07,08,09,10,11,12,1.0,1.0,1.0*30
$GPRMC,092509.678,A,2837.671,N,07714.247,E,038.9,119.8,190224,000.0,W*71
$GPGGA,092510.678,2837.665,N,07714.258,E,1,12,1.0,0.0,M,0.0,M,,*69
$GPGSA,A,3,01,02,03,04,05,06,07,08,09,10,11,12,1.0,1.0,1.0*30
$GPRMC,092510.678,A,2837.665,N,07714.258,E,038.9,119.8,190224,000.0,W*72
$GPGGA,092511.678,2837.659,N,07714.268,E,1,12,1.0,0.0,M,0.0,M,,*64
$GPGSA,A,3,01,02,03,04,05,06,07,08,09,10,11,12,1.0,1.0,1.0*30
$GPRMC,092511.678,A,2837.659,N,07714.268,E,038.9,119.8,190224,000.0,W*7F
$GPGGA,092512.678,2837.653,N,07714.278,E,1,12,1.0,0.0,M,0.0,M,,*6C
$GPGSA,A,3,01,02,03,04,05,06,07,08,09,10,11,12,1.0,1.0,1.0*30
$GPRMC,092512.678,A,2837.653,N,07714.278,E,038.9,119.8,190224,000.0,W*77
$GPGGA,092513.678,2837.647,N,07714.289,E,1,12,1.0,0.0,M,0.0,M,,*66
$GPGSA,A,3,01,02,03,04,05,06,07,08,09,10,11,12,1.0,1.0,1.0*30
$GPRMC,092513.678,A,2837.647,N,07714.289,E,038.9,119.8,190224,000.0,W*7D
$GPGGA,092514.678,2837.642,N,07714.299,E,1,12,1.0,0.0,M,0.0,M,,*65
$GPGSA,A,3,01,02,03,04,05,06,07,08,09,10,11,12,1.0,1.0,1.0*30
$GPRMC,092514.678,A,2837.642,N,07714.299,E,038.9,119.8,190224,000.0,W*7E
$GPGGA,092515.678,2837.636,N,07714.309,E,1,12,1.0,0.0,M,0.0,M,,*6F
$GPGSA,A,3,01,02,03,04,05,06,07,08,09,10,11,12,1.0,1.0,1.0*30
$GPRMC,092515.678,A,2837.636,N,07714.309,E,038.9,119.8,190224,000.0,W*74
$GPGGA,092516.678,2837.630,N,07714.319,E,1,12,1.0,0.0,M,0.0,M,,*6B
$GPGSA,A,3,01,02,03,04,05,06,07,08,09,10,11,12,1.0,1.0,1.0*30
$GPRMC,092516.678,A,2837.630,N,07714.319,E,038.9,119.8,190224,000.0,W*70
$GPGGA,092517.678,2837.624,N,07714.330,E,1,12,1.0,0.0,M,0.0,M,,*64
$GPGSA,A,3,01,02,03,04,05,06,07,08,09,10,11,12,1.0,1.0,1.0*30
$GPRMC,092517.678,A,2837.624,N,07714.330,E,038.9,118.5,190224,000.0,W*73
$GPGGA,092518.678,2837.618,N,07714.340,E,1,12,1.0,0.0,M,0.0,M,,*63
$GPGSA,A,3,01,02,03,04,05,06,07,08,09,10,11,12,1.0,1.0,1.0*30
$GPRMC,092518.678,A,2837.618,N,07714.340,E,038.9,118.5,190224,000.0,W*74
$GPGGA,092519.678,2837.613,N,07714.351,E,1,12,1.0,0.0,M,0.0,M,,*69
$GPGSA,A,3,01,02,03,04,05,06,07,08,09,10,11,12,1.0,1.0,1.0*30
$GPRMC,092519.678,A,2837.613,N,07714.351,E,038.9,118.5,190224,000.0,W*7E
$GPGGA,092520.678,2837.607,N,07714.361,E,1,12,1.0,0.0,M,0.0,M,,*65
$GPGSA,A,3,01,02,03,04,05,06,07,08,09,10,11,12,1.0,1.0,1.0*30
$GPRMC,092520.678,A,2837.607,N,07714.361,E,038.9,118.5,190224,000.0,W*72
$GPGGA,092521.678,2837.601,N,07714.372,E,1,12,1.0,0.0,M,0.0,M,,*60
$GPGSA,A,3,01,02,03,04,05,06,07,08,09,10,11,12,1.0,1.0,1.0*30
$GPRMC,092521.678,A,2837.601,N,07714.372,E,038.9,118.5,190224,000.0,W*77
$GPGGA,092522.678,2837.596,N,07714.382,E,1,12,1.0,0.0,M,0.0,M,,*61
$GPGSA,A,3,01,02,03,04,05,06,07,08,09,10,11,12,1.0,1.0,1.0*30
$GPRMC,092522.678,A,2837.596,N,07714.382,E,038.9,118.5,190224,000.0,W*76
$GPGGA,092523.678,2837.590,N,07714.393,E,1,12,1.0,0.0,M,0.0,M,,*66
$GPGSA,A,3,01,02,03,04,05,06,07,08,09,10,11,12,1.0,1.0,1.0*30
$GPRMC,092523.678,A,2837.590,N,07714.393,E,038.9,118.5,190224,000.0,W*71
$GPGGA,092524.678,2837.584,N,07714.403,E,1,12,1.0,0.0,M,0.0,M,,*6A
$GPGSA,A,3,01,02,03,04,05,06,07,08,09,10,11,12,1.0,1.0,1.0*30
$GPRMC,092524.678,A,2837.584,N,07714.403,E,038.9,118.5,190224,000.0,W*7D
$GPGGA,092525.678,2837.579,N,07714.413,E,1,12,1.0,0.0,M,0.0,M,,*68
$GPGSA,A,3,01,02,03,04,05,06,07,08,09,10,11,12,1.0,1.0,1.0*30
$GPRMC,092525.678,A,2837.579,N,07714.413,E,038.9,118.5,190224,000.0,W*7F
$GPGGA,092526.678,2837.573,N,07714.424,E,1,12,1.0,0.0,M,0.0,M,,*65
$GPGSA,A,3,01,02,03,04,05,06,07,08,09,10,11,12,1.0,1.0,1.0*30
$GPRMC,092526.678,A,2837.573,N,07714.424,E,038.9,118.5,190224,000.0,W*72
$GPGGA,092527.678,2837.567,N,07714.434,E,1,12,1.0,0.0,M,0.0,M,,*60
$GPGSA,A,3,01,02,03,04,05,06,07,08,09,10,11,12,1.0,1.0,1.0*30
$GPRMC,092527.678,A,2837.567,N,07714.434,E,038.9,118.5,190224,000.0,W*77
$GPGGA,092528.678,2837.562,N,07714.445,E,1,12,1.0,0.0,M,0.0,M,,*6C
$GPGSA,A,3,01,02,03,04,05,06,07,08,09,10,11,12,1.0,1.0,1.0*30
$GPRMC,092528.678,A,2837.562,N,07714.445,E,038.9,118.5,190224,000.0,W*7B
$GPGGA,092529.678,2837.556,N,07714.455,E,1,12,1.0,0.0,M,0.0,M,,*6B
$GPGSA,A,3,01,02,03,04,05,06,07,08,09,10,11,12,1.0,1.0,1.0*30
$GPRMC,092529.678,A,2837.556,N,07714.455,E,038.9,118.5,190224,000.0,W*7C
$GPGGA,092530.678,2837.550,N,07714.466,E,1,12,1.0,0.0,M,0.0,M,,*65
$GPGSA,A,3,01,02,03,04,05,06,07,08,09,10,11,12,1.0,1.0,1.0*30
$GPRMC,092530.678,A,2837.550,N,07714.466,E,038.9,120.7,190224,000.0,W*7B
$GPGGA,092531.678,2837.544,N,07714.476,E,1,12,1.0,0.0,M,0.0,M,,*60
$GPGSA,A,3,01,02,03,04,05,06,07,08,09,10,11,12,1.0,1.0,1.0*30
$GPRMC,092531.678,A,2837.544,N,07714.476,E,038.9,120.7,190224,000.0,W*7E
$GPGGA,092532.678,2837.538,N,07714.486,E,1,12,1.0,0.0,M,0.0,M,,*67
$GPGSA,A,3,01,02,03,04,05,06,07,08,09,10,11,12,1.0,1.0,1.0*30
$GPRMC,092532.678,A,2837.538,N,07714.486,E,038.9,120.7,190224,000.0,W*79
$GPGGA,092533.678,2837.532,N,07714.496,E,1,12,1.0,0.0,M,0.0,M,,*6D
$GPGSA,A,3,01,02,03,04,05,06,07,08,09,10,11,12,1.0,1.0,1.0*30
$GPRMC,092533.678,A,2837.532,N,07714.496,E,038.9,120.7,190224,000.0,W*73
$GPGGA,092534.678,2837.526,N,07714.507,E,1,12,1.0,0.0,M,0.0,M,,*66
$GPGSA,A,3,01,02,03,04,05,06,07,08,09,10,11,12,1.0,1.0,1.0*30
$GPRMC,092534.678,A,2837.526,N,07714.507,E,038.9,120.7,190224,000.0,W*78
$GPGGA,092535.678,2837.520,N,07714.517,E,1,12,1.0,0.0,M,0.0,M,,*60
$GPGSA,A,3,01,02,03,04,05,06,07,08,09,10,11,12,1.0,1.0,1.0*30
$GPRMC,092535.678,A,2837.520,N,07714.517,E,038.9,120.7,190224,000.0,W*7E
$GPGGA,092536.678,2837.514,N,07714.527,E,1,12,1.0,0.0,M,0.0,M,,*67
$GPGSA,A,3,01,02,03,04,05,06,07,08,09,10,11,12,1.0,1.0,1.0*30
$GPRMC,092536.678,A,2837.514,N,07714.527,E,038.9,120.7,190224,000.0,W*79
$GPGGA,092537.678,2837.508,N,07714.537,E,1,12,1.0,0.0,M,0.0,M,,*6A
$GPGSA,A,3,01,02,03,04,05,06,07,08,09,10,11,12,1.0,1.0,1.0*30
$GPRMC,092537.678,A,2837.508,N,07714.537,E,038.9,120.7,190224,000.0,W*74
$GPGGA,092538.678,2837.502,N,07714.547,E,1,12,1.0,0.0,M,0.0,M,,*68
$GPGSA,A,3,01,02,03,04,05,06,07,08,09,10,11,12,1.0,1.0,1.0*30
$GPRMC,092538.678,A,2837.502,N,07714.547,E,038.9,132.1,190224,000.0,W*73
$GPGGA,092539.678,2837.494,N,07714.556,E,1,12,1.0,0.0,M,0.0,M,,*67
$GPGSA,A,3,01,02,03,04,05,06,07,08,09,10,11,12,1.0,1.0,1.0*30
$GPRMC,092539.678,A,2837.494,N,07714.556,E,038.9,132.1,190224,000.0,W*7C
$GPGGA,092540.678,2837.487,N,07714.564,E,1,12,1.0,0.0,M,0.0,M,,*6A
$GPGSA,A,3,01,02,03,04,05,06,07,08,09,10,11,12,1.0,1.0,1.0*30
$GPRMC,092540.678,A,2837.487,N,07714.564,E,038.9,132.1,190224,000.0,W*71
$GPGGA,092541.678,2837.479,N,07714.573,E,1,12,1.0,0.0,M,0.0,M,,*6C
$GPGSA,A,3,01,02,03,04,05,06,07,08,09,10,11,12,1.0,1.0,1.0*30
$GPRMC,092541.678,A,2837.479,N,07714.573,E,038.9,132.1,190224,000.0,W*77
$GPGGA,092542.678,2837.471,N,07714.582,E,1,12,1.0,0.0,M,0.0,M,,*69
$GPGSA,A,3,01,02,03,04,05,06,07,08,09,10,11,12,1.0,1.0,1.0*30
$GPRMC,092542.678,A,2837.471,N,07714.582,E,038.9,132.1,190224,000.0,W*72
$GPGGA,092543.678,2837.463,N,07714.590,E,1,12,1.0,0.0,M,0.0,M,,*68
$GPGSA,A,3,01,02,03,04,05,06,07,08,09,10,11,12,1.0,1.0,1.0*30
$GPRMC,092543.678,A,2837.463,N,07714.590,E,038.9,132.1,190224,000.0,W*73
$GPGGA,092544.678,2837.456,N,07714.599,E,1,12,1.0,0.0,M,0.0,M,,*60
$GPGSA,A,3,01,02,03,04,05,06,07,08,09,10,11,12,1.0,1.0,1.0*30
$GPRMC,092544.678,A,2837.456,N,07714.599,E,038.9,138.9,190224,000.0,W*79
$GPGGA,092545.678,2837.447,N,07714.606,E,1,12,1.0,0.0,M,0.0,M,,*64
$GPGSA,A,3,01,02,03,04,05,06,07,08,09,10,11,12,1.0,1.0,1.0*30
$GPRMC,092545.678,A,2837.447,N,07714.606,E,038.9,138.9,190224,000.0,W*7D
$GPGGA,092546.678,2837.438,N,07714.614,E,1,12,1.0,0.0,M,0.0,M,,*6C
$GPGSA,A,3,01,02,03,04,05,06,07,08,09,10,11,12,1.0,1.0,1.0*30
$GPRMC,092546.678,A,2837.438,N,07714.614,E,038.9,138.9,190224,000.0,W*75
$GPGGA,092547.678,2837.430,N,07714.621,E,1,12,1.0,0.0,M,0.0,M,,*63
$GPGSA,A,3,01,02,03,04,05,06,07,08,09,10,11,12,1.0,1.0,1.0*30
$GPRMC,092547.678,A,2837.430,N,07714.621,E,038.9,138.9,190224,000.0,W*7A
$GPGGA,092548.678,2837.421,N,07714.629,E,1,12,1.0,0.0,M,0.0,M,,*64
$GPGSA,A,3,01,02,03,04,05,06,07,08,09,10,11,12,1.0,1.0,1.0*30
$GPRMC,092548.678,A,2837.421,N,07714.629,E,038.9,138.9,190224,000.0,W*7D
$GPGGA,092549.678,2837.413,N,07714.636,E,1,12,1.0,0.0,M,0.0,M,,*6A
$GPGSA,A,3,01,02,03,04,05,06,07,08,09,10,11,12,1.0,1.0,1.0*30
$GPRMC,092549.678,A,2837.413,N,07714.636,E,038.9,138.9,190224,000.0,W*73
$GPGGA,092550.678,2837.404,N,07714.644,E,1,12,1.0,0.0,M,0.0,M,,*61
$GPGSA,A,3,01,02,03,04,05,06,07,08,09,10,11,12,1.0,1.0,1.0*30
$GPRMC,092550.678,A,2837.404,N,07714.644,E,038.9,138.9,190224,000.0,W*78
$GPGGA,092551.678,2837.396,N,07714.651,E,1,12,1.0,0.0,M,0.0,M,,*68
$GPGSA,A,3,01,02,03,04,05,06,07,08,09,10,11,12,1.0,1.0,1.0*30
$GPRMC,092551.678,A,2837.396,N,07714.651,E,038.9,138.9,190224,000.0,W*71
$GPGGA,092552.678,2837.387,N,07714.659,E,1,12,1.0,0.0,M,0.0,M,,*63
$GPGSA,A,3,01,02,03,04,05,06,07,08,09,10,11,12,1.0,1.0,1.0*30
$GPRMC,092552.678,A,2837.387,N,07714.659,E,038.9,138.9,190224,000.0,W*7A
$GPGGA,092553.678,2837.378,N,07714.666,E,1,12,1.0,0.0,M,0.0,M,,*6E
$GPGSA,A,3,01,02,03,04,05,06,07,08,09,10,11,12,1.0,1.0,1.0*30
$GPRMC,092553.678,A,2837.378,N,07714.666,E,038.9,138.9,190224,000.0,W*77
$GPGGA,092554.678,2837.370,N,07714.674,E,1,12,1.0,0.0,M,0.0,M,,*62
$GPGSA,A,3,01,02,03,04,05,06,07,08,09,10,11,12,1.0,1.0,1.0*30
$GPRMC,092554.678,A,2837.370,N,07714.674,E,038.9,138.9,190224,000.0,W*7B
$GPGGA,092555.678,2837.361,N,07714.681,E,1,12,1.0,0.0,M,0.0,M,,*69
$GPGSA,A,3,01,02,03,04,05,06,07,08,09,10,11,12,1.0,1.0,1.0*30
$GPRMC,092555.678,A,2837.361,N,07714.681,E,038.9,138.9,190224,000.0,W*70
$GPGGA,092556.678,2837.353,N,07714.688,E,1,12,1.0,0.0,M,0.0,M,,*62
$GPGSA,A,3,01,02,03,04,05,06,07,08,09,10,11,12,1.0,1.0,1.0*30
$GPRMC,092556.678,A,2837.353,N,07714.688,E,038.9,138.9,190224,000.0,W*7B
$GPGGA,092557.678,2837.344,N,07714.696,E,1,12,1.0,0.0,M,0.0,M,,*6A
$GPGSA,A,3,01,02,03,04,05,06,07,08,09,10,11,12,1.0,1.0,1.0*30
$GPRMC,092557.678,A,2837.344,N,07714.696,E,038.9,150.7,190224,000.0,W*73
$GPGGA,092558.678,2837.335,N,07714.701,E,1,12,1.0,0.0,M,0.0,M,,*6C
$GPGSA,A,3,01,02,03,04,05,06,07,08,09,10,11,12,1.0,1.0,1.0*30
$GPRMC,092558.678,A,2837.335,N,07714.701,E,038.9,150.7,190224,000.0,W*75
$GPGGA,092559.678,2837.325,N,07714.707,E,1,12,1.0,0.0,M,0.0,M,,*6A
$GPGSA,A,3,01,02,03,04,05,06,07,08,09,10,11,12,1.0,1.0,1.0*30
$GPRMC,092559.678,A,2837.325,N,07714.707,E,038.9,150.7,190224,000.0,W*73
$GPGGA,092600.678,2837.315,N,07714.712,E,1,12,1.0,0.0,M,0.0,M,,*62
$GPGSA,A,3,01,02,03,04,05,06,07,08,09,10,11,12,1.0,1.0,1.0*30
$GPRMC,092600.678,A,2837.315,N,07714.712,E,038.9,150.7,190224,000.0,W*7B
$GPGGA,092601.678,2837.306,N,07714.718,E,1,12,1.0,0.0,M,0.0,M,,*6B
$GPGSA,A,3,01,02,03,04,05,06,07,08,09,10,11,12,1.0,1.0,1.0*30
$GPRMC,092601.678,A,2837.306,N,07714.718,E,038.9,150.7,190224,000.0,W*72
$GPGGA,092602.678,2837.296,N,07714.723,E,1,12,1.0,0.0,M,0.0,M,,*68
$GPGSA,A,3,01,02,03,04,05,06,07,08,09,10,11,12,1.0,1.0,1.0*30
$GPRMC,092602.678,A,2837.296,N,07714.723,E,038.9,150.7,190224,000.0,W*71
$GPGGA,092603.678,2837.286,N,07714.729,E,1,12,1.0,0.0,M,0.0,M,,*62
$GPGSA,A,3,01,02,03,04,05,06,07,08,09,10,11,12,1.0,1.0,1.0*30
$GPRMC,092603.678,A,2837.286,N,07714.729,E,038.9,150.7,190224,000.0,W*7B
$GPGGA,092604.678,2837.276,N,07714.734,E,1,12,1.0,0.0,M,0.0,M,,*66
$GPGSA,A,3,01,02,03,04,05,06,07,08,09,10,11,12,1.0,1.0,1.0*30
$GPRMC,092604.678,A,2837.276,N,07714.734,E,038.9,150.7,190224,000.0,W*7F
$GPGGA,092605.678,2837.267,N,07714.740,E,1,12,1.0,0.0,M,0.0,M,,*64
$GPGSA,A,3,01,02,03,04,05,06,07,08,09,10,11,12,1.0,1.0,1.0*30
$GPRMC,092605.678,A,2837.267,N,07714.740,E,038.9,150.7,190224,000.0,W*7D
$GPGGA,092606.678,2837.257,N,07714.745,E,1,12,1.0,0.0,M,0.0,M,,*61
$GPGSA,A,3,01,02,03,04,05,06,07,08,09,10,11,12,1.0,1.0,1.0*30
$GPRMC,092606.678,A,2837.257,N,07714.745,E,038.9,150.7,190224,000.0,W*78
$GPGGA,092607.678,2837.247,N,07714.750,E,1,12,1.0,0.0,M,0.0,M,,*65
$GPGSA,A,3,01,02,03,04,05,06,07,08,09,10,11,12,1.0,1.0,1.0*30
$GPRMC,092607.678,A,2837.247,N,07714.750,E,038.9,160.7,190224,000.0,W*7F
$GPGGA,092608.678,2837.237,N,07714.754,E,1,12,1.0,0.0,M,0.0,M,,*69
$GPGSA,A,3,01,02,03,04,05,06,07,08,09,10,11,12,1.0,1.0,1.0*30
$GPRMC,092608.678,A,2837.237,N,07714.754,E,038.9,160.7,190224,000.0,W*73
$GPGGA,092609.678,2837.227,N,07714.758,E,1,12,1.0,0.0,M,0.0,M,,*65
$GPGSA,A,3,01,02,03,04,05,06,07,08,09,10,11,12,1.0,1.0,1.0*30
$GPRMC,092609.678,A,2837.227,N,07714.758,E,038.9,160.7,190224,000.0,W*7F
$GPGGA,092610.678,2837.217,N,07714.761,E,1,12,1.0,0.0,M,0.0,M,,*64
$GPGSA,A,3,01,02,03,04,05,06,07,08,09,10,11,12,1.0,1.0,1.0*30
$GPRMC,092610.678,A,2837.217,N,07714.761,E,038.9,160.7,190224,000.0,W*7E
$GPGGA,092611.678,2837.206,N,07714.765,E,1,12,1.0,0.0,M,0.0,M,,*61
$GPGSA,A,3,01,02,03,04,05,06,07,08,09,10,11,12,1.0,1.0,1.0*30
$GPRMC,092611.678,A,2837.206,N,07714.765,E,038.9,160.7,190224,000.0,W*7B
$GPGGA,092612.678,2837.196,N,07714.768,E,1,12,1.0,0.0,M,0.0,M,,*65
$GPGSA,A,3,01,02,03,04,05,06,07,08,09,10,11,12,1.0,1.0,1.0*30
$GPRMC,092612.678,A,2837.196,N,07714.768,E,038.9,160.7,190224,000.0,W*7F
$GPGGA,092613.678,2837.186,N,07714.772,E,1,12,1.0,0.0,M,0.0,M,,*6E
$GPGSA,A,3,01,02,03,04,05,06,07,08,09,10,11,12,1.0,1.0,1.0*30
$GPRMC,092613.678,A,2837.186,N,07714.772,E,038.9,160.7,190224,000.0,W*74
$GPGGA,092614.678,2837.175,N,07714.776,E,1,12,1.0,0.0,M,0.0,M,,*61
$GPGSA,A,3,01,02,03,04,05,06,07,08,09,10,11,12,1.0,1.0,1.0*30
$GPRMC,092614.678,A,2837.175,N,07714.776,E,038.9,160.7,190224,000.0,W*7B
$GPGGA,092615.678,2837.165,N,07714.779,E,1,12,1.0,0.0,M,0.0,M,,*6E
$GPGSA,A,3,01,02,03,04,05,06,07,08,09,10,11,12,1.0,1.0,1.0*30
$GPRMC,092615.678,A,2837.165,N,07714.779,E,038.9,160.7,190224,000.0,W*74
$GPGGA,092616.678,2837.155,N,07714.783,E,1,12,1.0,0.0,M,0.0,M,,*6B
$GPGSA,A,3,01,02,03,04,05,06,07,08,09,10,11,12,1.0,1.0,1.0*30
$GPRMC,092616.678,A,2837.155,N,07714.783,E,038.9,162.5,190224,000.0,W*71
