$GPGGA,044954.790,2838.575,N,07713.203,E,1,12,1.0,0.0,M,0.0,M,,*6D
$GPGSA,A,3,01,02,03,04,05,06,07,08,09,10,11,12,1.0,1.0,1.0*30
$GPRMC,044954.790,A,2838.575,N,07713.203,E,000.0,000.0,280823,000.0,W*7A
$GPGGA,044955.790,2838.575,N,07713.203,E,1,12,1.0,0.0,M,0.0,M,,*6C
$GPGSA,A,3,01,02,03,04,05,06,07,08,09,10,11,12,1.0,1.0,1.0*30
$GPRMC,044955.790,A,2838.575,N,07713.203,E,000.0,000.0,280823,000.0,W*7B
$GPGGA,044956.790,2838.575,N,07713.203,E,1,12,1.0,0.0,M,0.0,M,,*6F
$GPGSA,A,3,01,02,03,04,05,06,07,08,09,10,11,12,1.0,1.0,1.0*30
$GPRMC,044956.790,A,2838.575,N,07713.203,E,000.0,000.0,280823,000.0,W*78
$GPGGA,044957.790,2838.575,N,07713.203,E,1,12,1.0,0.0,M,0.0,M,,*6E
$GPGSA,A,3,01,02,03,04,05,06,07,08,09,10,11,12,1.0,1.0,1.0*30
$GPRMC,044957.790,A,2838.575,N,07713.203,E,000.0,000.0,280823,000.0,W*79
$GPGGA,044958.790,2838.575,N,07713.203,E,1,12,1.0,0.0,M,0.0,M,,*61
$GPGSA,A,3,01,02,03,04,05,06,07,08,09,10,11,12,1.0,1.0,1.0*30
$GPRMC,044958.790,A,2838.575,N,07713.203,E,000.0,000.0,280823,000.0,W*76
$GPGGA,044959.790,2838.575,N,07713.203,E,1,12,1.0,0.0,M,0.0,M,,*60
$GPGSA,A,3,01,02,03,04,05,06,07,08,09,10,11,12,1.0,1.0,1.0*30
$GPRMC,044959.790,A,2838.575,N,07713.203,E,000.0,000.0,280823,000.0,W*77
$GPGGA,045000.790,2838.575,N,07713.203,E,1,12,1.0,0.0,M,0.0,M,,*64
$GPGSA,A,3,01,02,03,04,05,06,07,08,09,10,11,12,1.0,1.0,1.0*30
$GPRMC,045000.790,A,2838.575,N,07713.203,E,000.0,000.0,280823,000.0,W*73
$GPGGA,045001.790,2838.575,N,07713.203,E,1,12,1.0,0.0,M,0.0,M,,*65
$GPGSA,A,3,01,02,03,04,05,06,07,08,09,10,11,12,1.0,1.0,1.0*30
$GPRMC,045001.790,A,2838.575,N,07713.203,E,000.0,000.0,280823,000.0,W*72
$GPGGA,045002.790,2838.575,N,07713.203,E,1,12,1.0,0.0,M,0.0,M,,*66
$GPGSA,A,3,01,02,03,04,05,06,07,08,09,10,11,12,1.0,1.0,1.0*30
$GPRMC,045002.790,A,2838.575,N,07713.203,E,000.0,000.0,280823,000.0,W*71
$GPGGA,045003.790,2838.575,N,07713.203,E,1,12,1.0,0.0,M,0.0,M,,*67
$GPGSA,A,3,01,02,03,04,05,06,07,08,09,10,11,12,1.0,1.0,1.0*30
$GPRMC,045003.790,A,2838.575,N,07713.203,E,000.0,000.0,280823,000.0,W*70
$GPGGA,045004.790,2838.575,N,07713.203,E,1,12,1.0,0.0,M,0.0,M,,*60
$GPGSA,A,3,01,02,03,04,05,06,07,08,09,10,11,12,1.0,1.0,1.0*30
$GPRMC,045004.790,A,2838.575,N,07713.203,E,000.0,000.0,280823,000.0,W*77
$GPGGA,045005.790,2838.575,N,07713.203,E,1,12,1.0,0.0,M,0.0,M,,*61
$GPGSA,A,3,01,02,03,04,05,06,07,08,09,10,11,12,1.0,1.0,1.0*30
$GPRMC,045005.790,A,2838.575,N,07713.203,E,000.0,000.0,280823,000.0,W*76
$GPGGA,045006.790,2838.575,N,07713.203,E,1,12,1.0,0.0,M,0.0,M,,*62
$GPGSA,A,3,01,02,03,04,05,06,07,08,09,10,11,12,1.0,1.0,1.0*30
$GPRMC,045006.790,A,2838.575,N,07713.203,E,000.0,000.0,280823,000.0,W*75
$GPGGA,045007.790,2838.575,N,07713.203,E,1,12,1.0,0.0,M,0.0,M,,*63
$GPGSA,A,3,01,02,03,04,05,06,07,08,09,10,11,12,1.0,1.0,1.0*30
$GPRMC,045007.790,A,2838.575,N,07713.203,E,000.0,000.0,280823,000.0,W*74
$GPGGA,045008.790,2838.575,N,07713.203,E,1,12,1.0,0.0,M,0.0,M,,*6C
$GPGSA,A,3,01,02,03,04,05,06,07,08,09,10,11,12,1.0,1.0,1.0*30
$GPRMC,045008.790,A,2838.575,N,07713.203,E,000.0,000.0,280823,000.0,W*7B
$GPGGA,045009.790,2838.575,N,07713.203,E,1,12,1.0,0.0,M,0.0,M,,*6D
$GPGSA,A,3,01,02,03,04,05,06,07,08,09,10,11,12,1.0,1.0,1.0*30
$GPRMC,045009.790,A,2838.575,N,07713.203,E,000.0,000.0,280823,000.0,W*7A
$GPGGA,045010.790,2838.575,N,07713.203,E,1,12,1.0,0.0,M,0.0,M,,*65
$GPGSA,A,3,01,02,03,04,05,06,07,08,09,10,11,12,1.0,1.0,1.0*30
$GPRMC,045010.790,A,2838.575,N,07713.203,E,000.0,000.0,280823,000.0,W*72
$GPGGA,045011.790,2838.575,N,07713.203,E,1,12,1.0,0.0,M,0.0,M,,*64
$GPGSA,A,3,01,02,03,04,05,06,07,08,09,10,11,12,1.0,1.0,1.0*30
$GPRMC,045011.790,A,2838.575,N,07713.203,E,000.0,000.0,280823,000.0,W*73
$GPGGA,045012.790,2838.575,N,07713.203,E,1,12,1.0,0.0,M,0.0,M,,*67
$GPGSA,A,3,01,02,03,04,05,06,07,08,09,10,11,12,1.0,1.0,1.0*30
$GPRMC,045012.790,A,2838.575,N,07713.203,E,000.0,000.0,280823,000.0,W*70
$GPGGA,045013.790,2838.575,N,07713.203,E,1,12,1.0,0.0,M,0.0,M,,*66
$GPGSA,A,3,01,02,03,04,05,06,07,08,09,10,11,12,1.0,1.0,1.0*30
$GPRMC,045013.790,A,2838.575,N,07713.203,E,000.0,000.0,280823,000.0,W*71
$GPGGA,045014.790,2838.575,N,07713.203,E,1,12,1.0,0.0,M,0.0,M,,*61
$GPGSA,A,3,01,02,03,04,05,06,07,08,09,10,11,12,1.0,1.0,1.0*30
$GPRMC,045014.790,A,2838.575,N,07713.203,E,000.0,000.0,280823,000.0,W*76
$GPGGA,045015.790,2838.575,N,07713.203,E,1,12,1.0,0.0,M,0.0,M,,*60
$GPGSA,A,3,01,02,03,04,05,06,07,08,09,10,11,12,1.0,1.0,1.0*30
$GPRMC,045015.790,A,2838.575,N,07713.203,E,000.0,000.0,280823,000.0,W*77
$GPGGA,045016.790,2838.575,N,07713.203,E,1,12,1.0,0.0,M,0.0,M,,*63
$GPGSA,A,3,01,02,03,04,05,06,07,08,09,10,11,12,1.0,1.0,1.0*30
$GPRMC,045016.790,A,2838.575,N,07713.203,E,002.0,000.0,280823,000.0,W*76
$GPGGA,045017.790,2838.576,N,07713.203,E,1,12,1.0,0.0,M,0.0,M,,*61
$GPGSA,A,3,01,02,03,04,05,06,07,08,09,10,11,12,1.0,1.0,1.0*30
$GPRMC,045017.790,A,2838.576,N,07713.203,E,002.0,000.0,280823,000.0,W*74
$GPGGA,045018.790,2838.576,N,07713.203,E,1,12,1.0,0.0,M,0.0,M,,*6E
$GPGSA,A,3,01,02,03,04,05,06,07,08,09,10,11,12,1.0,1.0,1.0*30
$GPRMC,045018.790,A,2838.576,N,07713.203,E,000.0,000.0,280823,000.0,W*79
$GPGGA,045019.790,2838.576,N,07713.203,E,1,12,1.0,0.0,M,0.0,M,,*6F
$GPGSA,A,3,01,02,03,04,05,06,07,08,09,10,11,12,1.0,1.0,1.0*30
$GPRMC,045019.790,A,2838.576,N,07713.203,E,000.0,000.0,280823,000.0,W*78
$GPGGA,045020.790,2838.576,N,07713.203,E,1,12,1.0,0.0,M,0.0,M,,*65
$GPGSA,A,3,01,02,03,04,05,06,07,08,09,10,11,12,1.0,1.0,1.0*30
$GPRMC,045020.790,A,2838.576,N,07713.203,E,000.0,000.0,280823,000.0,W*72
$GPGGA,045021.790,2838.576,N,07713.203,E,1,12,1.0,0.0,M,0.0,M,,*64
$GPGSA,A,3,01,02,03,04,05,06,07,08,09,10,11,12,1.0,1.0,1.0*30
$GPRMC,045021.790,A,2838.576,N,07713.203,E,000.0,000.0,280823,000.0,W*73
$GPGGA,045022.790,2838.576,N,07713.203,E,1,12,1.0,0.0,M,0.0,M,,*67
$GPGSA,A,3,01,02,03,04,05,06,07,08,09,10,11,12,1.0,1.0,1.0*30
$GPRMC,045022.790,A,2838.576,N,07713.203,E,000.0,000.0,280823,000.0,W*70
$GPGGA,045023.790,2838.576,N,07713.203,E,1,12,1.0,0.0,M,0.0,M,,*66
$GPGSA,A,3,01,02,03,04,05,06,07,08,09,10,11,12,1.0,1.0,1.0*30
$GPRMC,045023.790,A,2838.576,N,07713.203,E,000.0,000.0,280823,000.0,W*71
$GPGGA,045024.790,2838.576,N,07713.203,E,1,12,1.0,0.0,M,0.0,M,,*61
$GPGSA,A,3,01,02,03,04,05,06,07,08,09,10,11,12,1.0,1.0,1.0*30
$GPRMC,045024.790,A,2838.576,N,07713.203,E,000.0,000.0,280823,000.0,W*76
$GPGGA,045025.790,2838.576,N,07713.203,E,1,12,1.0,0.0,M,0.0,M,,*60
$GPGSA,A,3,01,02,03,04,05,06,07,08,09,10,11,12,1.0,1.0,1.0*30
$GPRMC,045025.790,A,2838.576,N,07713.203,E,000.0,000.0,280823,000.0,W*77
$GPGGA,045026.790,2838.576,N,07713.203,E,1,12,1.0,0.0,M,0.0,M,,*63
$GPGSA,A,3,01,02,03,04,05,06,07,08,09,10,11,12,1.0,1.0,1.0*30
$GPRMC,045026.790,A,2838.576,N,07713.203,E,000.0,000.0,280823,000.0,W*74
$GPGGA,045027.790,2838.576,N,07713.203,E,1,12,1.0,0.0,M,0.0,M,,*62
$GPGSA,A,3,01,02,03,04,05,06,07,08,09,10,11,12,1.0,1.0,1.0*30
$GPRMC,045027.790,A,2838.576,N,07713.203,E,000.0,000.0,280823,000.0,W*75
$GPGGA,045028.790,2838.576,N,07713.203,E,1,12,1.0,0.0,M,0.0,M,,*6D
$GPGSA,A,3,01,02,03,04,05,06,07,08,09,10,11,12,1.0,1.0,1.0*30
$GPRMC,045028.790,A,2838.576,N,07713.203,E,000.0,000.0,280823,000.0,W*7A
$GPGGA,045029.790,2838.576,N,07713.203,E,1,12,1.0,0.0,M,0.0,M,,*6C
$GPGSA,A,3,01,02,03,04,05,06,07,08,09,10,11,12,1.0,1.0,1.0*30
$GPRMC,045029.790,A,2838.576,N,07713.203,E,000.0,000.0,280823,000.0,W*7B
$GPGGA,045030.790,2838.576,N,07713.203,E,1,12,1.0,0.0,M,0.0,M,,*64
$GPGSA,A,3,01,02,03,04,05,06,07,08,09,10,11,12,1.0,1.0,1.0*30
$GPRMC,045030.790,A,2838.576,N,07713.203,E,000.0,000.0,280823,000.0,W*73
$GPGGA,045031.790,2838.576,N,07713.203,E,1,12,1.0,0.0,M,0.0,M,,*65
$GPGSA,A,3,01,02,03,04,05,06,07,08,09,10,11,12,1.0,1.0,1.0*30
$GPRMC,045031.790,A,2838.576,N,07713.203,E,000.0,000.0,280823,000.0,W*72
$GPGGA,045032.790,2838.576,N,07713.203,E,1,12,1.0,0.0,M,0.0,M,,*66
$GPGSA,A,3,01,02,03,04,05,06,07,08,09,10,11,12,1.0,1.0,1.0*30
$GPRMC,045032.790,A,2838.576,N,07713.203,E,000.0,000.0,280823,000.0,W*71
$GPGGA,045033.790,2838.576,N,07713.203,E,1,12,1.0,0.0,M,0.0,M,,*67
$GPGSA,A,3,01,02,03,04,05,06,07,08,09,10,11,12,1.0,1.0,1.0*30
$GPRMC,045033.790,A,2838.576,N,07713.203,E,000.0,000.0,280823,000.0,W*70
$GPGGA,045034.790,2838.576,N,07713.203,E,1,12,1.0,0.0,M,0.0,M,,*60
$GPGSA,A,3,01,02,03,04,05,06,07,08,09,10,11,12,1.0,1.0,1.0*30
$GPRMC,045034.790,A,2838.576,N,07713.203,E,000.0,000.0,280823,000.0,W*77
$GPGGA,045035.790,2838.576,N,07713.203,E,1,12,1.0,0.0,M,0.0,M,,*61
$GPGSA,A,3,01,02,03,04,05,06,07,08,09,10,11,12,1.0,1.0,1.0*30
$GPRMC,045035.790,A,2838.576,N,07713.203,E,000.0,000.0,280823,000.0,W*76
$GPGGA,045036.790,2838.576,N,07713.203,E,1,12,1.0,0.0,M,0.0,M,,*62
$GPGSA,A,3,01,02,03,04,05,06,07,08,09,10,11,12,1.0,1.0,1.0*30
$GPRMC,045036.790,A,2838.576,N,07713.203,E,000.0,000.0,280823,000.0,W*75
$GPGGA,045037.790,2838.576,N,07713.203,E,1,12,1.0,0.0,M,0.0,M,,*63
$GPGSA,A,3,01,02,03,04,05,06,07,08,09,10,11,12,1.0,1.0,1.0*30
$GPRMC,045037.790,A,2838.576,N,07713.203,E,000.0,000.0,280823,000.0,W*74
$GPGGA,045038.790,2838.576,N,07713.203,E,1,12,1.0,0.0,M,0.0,M,,*6C
$GPGSA,A,3,01,02,03,04,05,06,07,08,09,10,11,12,1.0,1.0,1.0*30
$GPRMC,045038.790,A,2838.576,N,07713.203,E,000.0,000.0,280823,000.0,W*7B
$GPGGA,045039.790,2838.576,N,07713.203,E,1,12,1.0,0.0,M,0.0,M,,*6D
$GPGSA,A,3,01,02,03,04,05,06,07,08,09,10,11,12,1.0,1.0,1.0*30
$GPRMC,045039.790,A,2838.576,N,07713.203,E,000.0,000.0,280823,000.0,W*7A
$GPGGA,045040.790,2838.576,N,07713.203,E,1,12,1.0,0.0,M,0.0,M,,*63
$GPGSA,A,3,01,02,03,04,05,06,07,08,09,10,11,12,1.0,1.0,1.0*30
$GPRMC,045040.790,A,2838.576,N,07713.203,E,000.0,000.0,280823,000.0,W*74
$GPGGA,045041.790,2838.576,N,07713.203,E,1,12,1.0,0.0,M,0.0,M,,*62
$GPGSA,A,3,01,02,03,04,05,06,07,08,09,10,11,12,1.0,1.0,1.0*30
$GPRMC,045041.790,A,2838.576,N,07713.203,E,000.0,000.0,280823,000.0,W*75
$GPGGA,045042.790,2838.576,N,07713.203,E,1,12,1.0,0.0,M,0.0,M,,*61
$GPGSA,A,3,01,02,03,04,05,06,07,08,09,10,11,12,1.0,1.0,1.0*30
$GPRMC,045042.790,A,2838.576,N,07713.203,E,000.0,000.0,280823,000.0,W*76
$GPGGA,045043.790,2838.576,N,07713.203,E,1,12,1.0,0.0,M,0.0,M,,*60
$GPGSA,A,3,01,02,03,04,05,06,07,08,09,10,11,12,1.0,1.0,1.0*30
$GPRMC,045043.790,A,2838.576,N,07713.203,E,000.0,000.0,280823,000.0,W*77
$GPGGA,045044.790,2838.576,N,07713.203,E,1,12,1.0,0.0,M,0.0,M,,*67
$GPGSA,A,3,01,02,03,04,05,06,07,08,09,10,11,12,1.0,1.0,1.0*30
$GPRMC,045044.790,A,2838.576,N,07713.203,E,000.0,000.0,280823,000.0,W*70
$GPGGA,045045.790,2838.576,N,07713.203,E,1,12,1.0,0.0,M,0.0,M,,*66
$GPGSA,A,3,01,02,03,04,05,06,07,08,09,10,11,12,1.0,1.0,1.0*30
$GPRMC,045045.790,A,2838.576,N,07713.203,E,000.0,000.0,280823,000.0,W*71
$GPGGA,045046.790,2838.576,N,07713.203,E,1,12,1.0,0.0,M,0.0,M,,*65
$GPGSA,A,3,01,02,03,04,05,06,07,08,09,10,11,12,1.0,1.0,1.0*30
$GPRMC,045046.790,A,2838.576,N,07713.203,E,000.0,000.0,280823,000.0,W*72
$GPGGA,045047.790,2838.576,N,07713.203,E,1,12,1.0,0.0,M,0.0,M,,*64
$GPGSA,A,3,01,02,03,04,05,06,07,08,09,10,11,12,1.0,1.0,1.0*30
$GPRMC,045047.790,A,2838.576,N,07713.203,E,000.0,000.0,280823,000.0,W*73
$GPGGA,045048.790,2838.576,N,07713.203,E,1,12,1.0,0.0,M,0.0,M,,*6B
$GPGSA,A,3,01,02,03,04,05,06,07,08,09,10,11,12,1.0,1.0,1.0*30
$GPRMC,045048.790,A,2838.576,N,07713.203,E,000.0,000.0,280823,000.0,W*7C
$GPGGA,045049.790,2838.576,N,07713.203,E,1,12,1.0,0.0,M,0.0,M,,*6A
$GPGSA,A,3,01,02,03,04,05,06,07,08,09,10,11,12,1.0,1.0,1.0*30
$GPRMC,045049.790,A,2838.576,N,07713.203,E,000.0,000.0,280823,000.0,W*7D
$GPGGA,045050.790,2838.576,N,07713.203,E,1,12,1.0,0.0,M,0.0,M,,*62
$GPGSA,A,3,01,02,03,04,05,06,07,08,09,10,11,12,1.0,1.0,1.0*30
$GPRMC,045050.790,A,2838.576,N,07713.203,E,000.0,000.0,280823,000.0,W*75
$GPGGA,045051.790,2838.576,N,07713.203,E,1,12,1.0,0.0,M,0.0,M,,*63
$GPGSA,A,3,01,02,03,04,05,06,07,08,09,10,11,12,1.0,1.0,1.0*30
$GPRMC,045051.790,A,2838.576,N,07713.203,E,000.0,000.0,280823,000.0,W*74
$GPGGA,045052.790,2838.576,N,07713.203,E,1,12,1.0,0.0,M,0.0,M,,*60
$GPGSA,A,3,01,02,03,04,05,06,07,08,09,10,11,12,1.0,1.0,1.0*30
$GPRMC,045052.790,A,2838.576,N,07713.203,E,000.0,000.0,280823,000.0,W*77
$GPGGA,045053.790,2838.576,N,07713.203,E,1,12,1.0,0.0,M,0.0,M,,*61
$GPGSA,A,3,01,02,03,04,05,06,07,08,09,10,11,12,1.0,1.0,1.0*30
$GPRMC,045053.790,A,2838.576,N,07713.203,E,000.0,000.0,280823,000.0,W*76
$GPGGA,045054.790,2838.576,N,07713.203,E,1,12,1.0,0.0,M,0.0,M,,*66
$GPGSA,A,3,01,02,03,04,05,06,07,08,09,10,11,12,1.0,1.0,1.0*30
$GPRMC,045054.790,A,2838.576,N,07713.203,E,000.0,000.0,280823,000.0,W*71
$GPGGA,045055.790,2838.576,N,07713.203,E,1,12,1.0,0.0,M,0.0,M,,*67
$GPGSA,A,3,01,02,03,04,05,06,07,08,09,10,11,12,1.0,1.0,1.0*30
$GPRMC,045055.790,A,2838.576,N,07713.203,E,004.6,293.7,280823,000.0,W*7D
$GPGGA,045056.790,2838.576,N,07713.202,E,1,12,1.0,0.0,M,0.0,M,,*65
$GPGSA,A,3,01,02,03,04,05,06,07,08,09,10,11,12,1.0,1.0,1.0*30
$GPRMC,045056.790,A,2838.576,N,07713.202,E,004.6,000.0,280823,000.0,W*70
$GPGGA,045057.790,2838.576,N,07713.202,E,1,12,1.0,0.0,M,0.0,M,,*64
$GPGSA,A,3,01,02,03,04,05,06,07,08,09,10,11,12,1.0,1.0,1.0*30
$GPRMC,045057.790,A,2838.576,N,07713.202,E,000.0,000.0,280823,000.0,W*73
$GPGGA,045058.790,2838.576,N,07713.202,E,1,12,1.0,0.0,M,0.0,M,,*6B
$GPGSA,A,3,01,02,03,04,05,06,07,08,09,10,11,12,1.0,1.0,1.0*30
$GPRMC,045058.790,A,2838.576,N,07713.202,E,000.0,000.0,280823,000.0,W*7C
$GPGGA,045059.790,2838.576,N,07713.202,E,1,12,1.0,0.0,M,0.0,M,,*6A
$GPGSA,A,3,01,02,03,04,05,06,07,08,09,10,11,12,1.0,1.0,1.0*30
$GPRMC,045059.790,A,2838.576,N,07713.202,E,000.0,000.0,280823,000.0,W*7D
$GPGGA,045100.790,2838.576,N,07713.202,E,1,12,1.0,0.0,M,0.0,M,,*67
$GPGSA,A,3,01,02,03,04,05,06,07,08,09,10,11,12,1.0,1.0,1.0*30
$GPRMC,045100.790,A,2838.576,N,07713.202,E,000.0,000.0,280823,000.0,W*70
$GPGGA,045101.790,2838.576,N,07713.202,E,1,12,1.0,0.0,M,0.0,M,,*66
$GPGSA,A,3,01,02,03,04,05,06,07,08,09,10,11,12,1.0,1.0,1.0*30
$GPRMC,045101.790,A,2838.576,N,07713.202,E,000.0,000.0,280823,000.0,W*71
$GPGGA,045102.790,2838.576,N,07713.202,E,1,12,1.0,0.0,M,0.0,M,,*65
$GPGSA,A,3,01,02,03,04,05,06,07,08,09,10,11,12,1.0,1.0,1.0*30
$GPRMC,045102.790,A,2838.576,N,07713.202,E,000.0,000.0,280823,000.0,W*72
$GPGGA,045103.790,2838.576,N,07713.202,E,1,12,1.0,0.0,M,0.0,M,,*64
$GPGSA,A,3,01,02,03,04,05,06,07,08,09,10,11,12,1.0,1.0,1.0*30
$GPRMC,045103.790,A,2838.576,N,07713.202,E,000.0,000.0,280823,000.0,W*73
$GPGGA,045104.790,2838.576,N,07713.202,E,1,12,1.0,0.0,M,0.0,M,,*63
$GPGSA,A,3,01,02,03,04,05,06,07,08,09,10,11,12,1.0,1.0,1.0*30
$GPRMC,045104.790,A,2838.576,N,07713.202,E,000.0,000.0,280823,000.0,W*74
$GPGGA,045105.790,2838.576,N,07713.202,E,1,12,1.0,0.0,M,0.0,M,,*62
$GPGSA,A,3,01,02,03,04,05,06,07,08,09,10,11,12,1.0,1.0,1.0*30
$GPRMC,045105.790,A,2838.576,N,07713.202,E,000.0,000.0,280823,000.0,W*75
$GPGGA,045106.790,2838.576,N,07713.202,E,1,12,1.0,0.0,M,0.0,M,,*61
$GPGSA,A,3,01,02,03,04,05,06,07,08,09,10,11,12,1.0,1.0,1.0*30
$GPRMC,045106.790,A,2838.576,N,07713.202,E,000.0,000.0,280823,000.0,W*76
$GPGGA,045107.790,2838.576,N,07713.202,E,1,12,1.0,0.0,M,0.0,M,,*60
$GPGSA,A,3,01,02,03,04,05,06,07,08,09,10,11,12,1.0,1.0,1.0*30
$GPRMC,045107.790,A,2838.576,N,07713.202,E,000.0,000.0,280823,000.0,W*77
$GPGGA,045108.790,2838.576,N,07713.202,E,1,12,1.0,0.0,M,0.0,M,,*6F
$GPGSA,A,3,01,02,03,04,05,06,07,08,09,10,11,12,1.0,1.0,1.0*30
$GPRMC,045108.790,A,2838.576,N,07713.202,E,000.0,000.0,280823,000.0,W*78
$GPGGA,045109.790,2838.576,N,07713.202,E,1,12,1.0,0.0,M,0.0,M,,*6E
$GPGSA,A,3,01,02,03,04,05,06,07,08,09,10,11,12,1.0,1.0,1.0*30
$GPRMC,045109.790,A,2838.576,N,07713.202,E,000.0,000.0,280823,000.0,W*79
$GPGGA,045110.790,2838.576,N,07713.202,E,1,12,1.0,0.0,M,0.0,M,,*66
$GPGSA,A,3,01,02,03,04,05,06,07,08,09,10,11,12,1.0,1.0,1.0*30
$GPRMC,045110.790,A,2838.576,N,07713.202,E,000.0,000.0,280823,000.0,W*71
$GPGGA,045111.790,2838.576,N,07713.202,E,1,12,1.0,0.0,M,0.0,M,,*67
$GPGSA,A,3,01,02,03,04,05,06,07,08,09,10,11,12,1.0,1.0,1.0*30
$GPRMC,045111.790,A,2838.576,N,07713.202,E,000.0,000.0,280823,000.0,W*70
$GPGGA,045112.790,2838.576,N,07713.202,E,1,12,1.0,0.0,M,0.0,M,,*64
$GPGSA,A,3,01,02,03,04,05,06,07,08,09,10,11,12,1.0,1.0,1.0*30
$GPRMC,045112.790,A,2838.576,N,07713.202,E,000.0,000.0,280823,000.0,W*73
$GPGGA,045113.790,2838.576,N,07713.202,E,1,12,1.0,0.0,M,0.0,M,,*65
$GPGSA,A,3,01,02,03,04,05,06,07,08,09,10,11,12,1.0,1.0,1.0*30
$GPRMC,045113.790,A,2838.576,N,07713.202,E,000.0,000.0,280823,000.0,W*72
$GPGGA,045114.790,2838.576,N,07713.202,E,1,12,1.0,0.0,M,0.0,M,,*62
$GPGSA,A,3,01,02,03,04,05,06,07,08,09,10,11,12,1.0,1.0,1.0*30
$GPRMC,045114.790,A,2838.576,N,07713.202,E,000.0,000.0,280823,000.0,W*75
$GPGGA,045115.790,2838.576,N,07713.202,E,1,12,1.0,0.0,M,0.0,M,,*63
$GPGSA,A,3,01,02,03,04,05,06,07,08,09,10,11,12,1.0,1.0,1.0*30
$GPRMC,045115.790,A,2838.576,N,07713.202,E,000.0,000.0,280823,000.0,W*74
$GPGGA,045116.790,2838.576,N,07713.202,E,1,12,1.0,0.0,M,0.0,M,,*60
$GPGSA,A,3,01,02,03,04,05,06,07,08,09,10,11,12,1.0,1.0,1.0*30
$GPRMC,045116.790,A,2838.576,N,07713.202,E,000.0,000.0,280823,000.0,W*77
$GPGGA,045117.790,2838.576,N,07713.202,E,1,12,1.0,0.0,M,0.0,M,,*61
$GPGSA,A,3,01,02,03,04,05,06,07,08,09,10,11,12,1.0,1.0,1.0*30
$GPRMC,045117.790,A,2838.576,N,07713.202,E,000.0,000.0,280823,000.0,W*76
$GPGGA,045118.790,2838.576,N,07713.202,E,1,12,1.0,0.0,M,0.0,M,,*6E
$GPGSA,A,3,01,02,03,04,05,06,07,08,09,10,11,12,1.0,1.0,1.0*30
$GPRMC,045118.790,A,2838.576,N,07713.202,E,000.0,000.0,280823,000.0,W*79
$GPGGA,045119.790,2838.576,N,07713.202,E,1,12,1.0,0.0,M,0.0,M,,*6F
$GPGSA,A,3,01,02,03,04,05,06,07,08,09,10,11,12,1.0,1.0,1.0*30
$GPRMC,045119.790,A,2838.576,N,07713.202,E,000.0,000.0,280823,000.0,W*78
$GPGGA,045120.790,2838.576,N,07713.202,E,1,12,1.0,0.0,M,0.0,M,,*65
$GPGSA,A,3,01,02,03,04,05,06,07,08,09,10,11,12,1.0,1.0,1.0*30
$GPRMC,045120.790,A,2838.576,N,07713.202,E,000.0,000.0,280823,000.0,W*72
$GPGGA,045121.790,2838.576,N,07713.202,E,1,12,1.0,0.0,M,0.0,M,,*64
$GPGSA,A,3,01,02,03,04,05,06,07,08,09,10,11,12,1.0,1.0,1.0*30
$GPRMC,045121.790,A,2838.576,N,07713.202,E,000.0,000.0,280823,000.0,W*73
$GPGGA,045122.790,2838.576,N,07713.202,E,1,12,1.0,0.0,M,0.0,M,,*67
$GPGSA,A,3,01,02,03,04,05,06,07,08,09,10,11,12,1.0,1.0,1.0*30
$GPRMC,045122.790,A,2838.576,N,07713.202,E,000.0,000.0,280823,000.0,W*70
$GPGGA,045123.790,2838.576,N,07713.202,E,1,12,1.0,0.0,M,0.0,M,,*66
$GPGSA,A,3,01,02,03,04,05,06,07,08,09,10,11,12,1.0,1.0,1.0*30
$GPRMC,045123.790,A,2838.576,N,07713.202,E,000.0,000.0,280823,000.0,W*71
$GPGGA,045124.790,2838.576,N,07713.202,E,1,12,1.0,0.0,M,0.0,M,,*61
$GPGSA,A,3,01,02,03,04,05,06,07,08,09,10,11,12,1.0,1.0,1.0*30
$GPRMC,045124.790,A,2838.576,N,07713.202,E,000.0,000.0,280823,000.0,W*76
$GPGGA,045125.790,2838.576,N,07713.202,E,1,12,1.0,0.0,M,0.0,M,,*60
$GPGSA,A,3,01,02,03,04,05,06,07,08,09,10,11,12,1.0,1.0,1.0*30
$GPRMC,045125.790,A,2838.576,N,07713.202,E,000.0,000.0,280823,000.0,W*77
$GPGGA,045126.790,2838.576,N,07713.202,E,1,12,1.0,0.0,M,0.0,M,,*63
$GPGSA,A,3,01,02,03,04,05,06,07,08,09,10,11,12,1.0,1.0,1.0*30
$GPRMC,045126.790,A,2838.576,N,07713.202,E,000.0,000.0,280823,000.0,W*74
$GPGGA,045127.790,2838.576,N,07713.202,E,1,12,1.0,0.0,M,0.0,M,,*62
$GPGSA,A,3,01,02,03,04,05,06,07,08,09,10,11,12,1.0,1.0,1.0*30
$GPRMC,045127.790,A,2838.576,N,07713.202,E,000.0,000.0,280823,000.0,W*75
$GPGGA,045128.790,2838.576,N,07713.202,E,1,12,1.0,0.0,M,0.0,M,,*6D
$GPGSA,A,3,01,02,03,04,05,06,07,08,09,10,11,12,1.0,1.0,1.0*30
$GPRMC,045128.790,A,2838.576,N,07713.202,E,000.0,000.0,280823,000.0,W*7A
$GPGGA,045129.790,2838.576,N,07713.202,E,1,12,1.0,0.0,M,0.0,M,,*6C
$GPGSA,A,3,01,02,03,04,05,06,07,08,09,10,11,12,1.0,1.0,1.0*30
$GPRMC,045129.790,A,2838.576,N,07713.202,E,000.0,000.0,280823,000.0,W*7B
$GPGGA,045130.790,2838.576,N,07713.202,E,1,12,1.0,0.0,M,0.0,M,,*64
$GPGSA,A,3,01,02,03,04,05,06,07,08,09,10,11,12,1.0,1.0,1.0*30
$GPRMC,045130.790,A,2838.576,N,07713.202,E,000.0,000.0,280823,000.0,W*73
$GPGGA,045131.790,2838.576,N,07713.202,E,1,12,1.0,0.0,M,0.0,M,,*65
$GPGSA,A,3,01,02,03,04,05,06,07,08,09,10,11,12,1.0,1.0,1.0*30
$GPRMC,045131.790,A,2838.576,N,07713.202,E,000.0,000.0,280823,000.0,W*72
$GPGGA,045132.790,2838.576,N,07713.202,E,1,12,1.0,0.0,M,0.0,M,,*66
$GPGSA,A,3,01,02,03,04,05,06,07,08,09,10,11,12,1.0,1.0,1.0*30
$GPRMC,045132.790,A,2838.576,N,07713.202,E,000.0,000.0,280823,000.0,W*71
$GPGGA,045133.790,2838.576,N,07713.202,E,1,12,1.0,0.0,M,0.0,M,,*67
$GPGSA,A,3,01,02,03,04,05,06,07,08,09,10,11,12,1.0,1.0,1.0*30
$GPRMC,045133.790,A,2838.576,N,07713.202,E,000.0,000.0,280823,000.0,W*70
$GPGGA,045134.790,2838.576,N,07713.202,E,1,12,1.0,0.0,M,0.0,M,,*60
$GPGSA,A,3,01,02,03,04,05,06,07,08,09,10,11,12,1.0,1.0,1.0*30
$GPRMC,045134.790,A,2838.576,N,07713.202,E,000.0,000.0,280823,000.0,W*77
$GPGGA,045135.790,2838.576,N,07713.202,E,1,12,1.0,0.0,M,0.0,M,,*61
$GPGSA,A,3,01,02,03,04,05,06,07,08,09,10,11,12,1.0,1.0,1.0*30
$GPRMC,045135.790,A,2838.576,N,07713.202,E,000.0,000.0,280823,000.0,W*76
$GPGGA,045136.790,2838.576,N,07713.202,E,1,12,1.0,0.0,M,0.0,M,,*62
$GPGSA,A,3,01,02,03,04,05,06,07,08,09,10,11,12,1.0,1.0,1.0*30
$GPRMC,045136.790,A,2838.576,N,07713.202,E,000.0,000.0,280823,000.0,W*75
$GPGGA,045137.790,2838.576,N,07713.202,E,1,12,1.0,0.0,M,0.0,M,,*63
$GPGSA,A,3,01,02,03,04,05,06,07,08,09,10,11,12,1.0,1.0,1.0*30
$GPRMC,045137.790,A,2838.576,N,07713.202,E,000.0,000.0,280823,000.0,W*74
$GPGGA,045138.790,2838.576,N,07713.202,E,1,12,1.0,0.0,M,0.0,M,,*6C
$GPGSA,A,3,01,02,03,04,05,06,07,08,09,10,11,12,1.0,1.0,1.0*30
$GPRMC,045138.790,A,2838.576,N,07713.202,E,000.0,000.0,280823,000.0,W*7B
$GPGGA,045139.790,2838.576,N,07713.202,E,1,12,1.0,0.0,M,0.0,M,,*6D
$GPGSA,A,3,01,02,03,04,05,06,07,08,09,10,11,12,1.0,1.0,1.0*30
$GPRMC,045139.790,A,2838.576,N,07713.202,E,000.0,000.0,280823,000.0,W*7A
$GPGGA,045140.790,2838.576,N,07713.202,E,1,12,1.0,0.0,M,0.0,M,,*63
$GPGSA,A,3,01,02,03,04,05,06,07,08,09,10,11,12,1.0,1.0,1.0*30
$GPRMC,045140.790,A,2838.576,N,07713.202,E,000.0,000.0,280823,000.0,W*74
$GPGGA,045141.790,2838.576,N,07713.202,E,1,12,1.0,0.0,M,0.0,M,,*62
$GPGSA,A,3,01,02,03,04,05,06,07,08,09,10,11,12,1.0,1.0,1.0*30
$GPRMC,045141.790,A,2838.576,N,07713.202,E,000.0,000.0,280823,000.0,W*75
$GPGGA,045142.790,2838.576,N,07713.202,E,1,12,1.0,0.0,M,0.0,M,,*61
$GPGSA,A,3,01,02,03,04,05,06,07,08,09,10,11,12,1.0,1.0,1.0*30
$GPRMC,045142.790,A,2838.576,N,07713.202,E,000.0,000.0,280823,000.0,W*76
$GPGGA,045143.790,2838.576,N,07713.202,E,1,12,1.0,0.0,M,0.0,M,,*60
$GPGSA,A,3,01,02,03,04,05,06,07,08,09,10,11,12,1.0,1.0,1.0*30
$GPRMC,045143.790,A,2838.576,N,07713.202,E,000.0,000.0,280823,000.0,W*77
$GPGGA,045144.790,2838.576,N,07713.202,E,1,12,1.0,0.0,M,0.0,M,,*67
$GPGSA,A,3,01,02,03,04,05,06,07,08,09,10,11,12,1.0,1.0,1.0*30
$GPRMC,045144.790,A,2838.576,N,07713.202,E,000.0,000.0,280823,000.0,W*70
$GPGGA,045145.790,2838.576,N,07713.202,E,1,12,1.0,0.0,M,0.0,M,,*66
$GPGSA,A,3,01,02,03,04,05,06,07,08,09,10,11,12,1.0,1.0,1.0*30
$GPRMC,045145.790,A,2838.576,N,07713.202,E,000.0,000.0,280823,000.0,W*71
$GPGGA,045146.790,2838.576,N,07713.202,E,1,12,1.0,0.0,M,0.0,M,,*65
$GPGSA,A,3,01,02,03,04,05,06,07,08,09,10,11,12,1.0,1.0,1.0*30
$GPRMC,045146.790,A,2838.576,N,07713.202,E,000.0,000.0,280823,000.0,W*72
$GPGGA,045147.790,2838.576,N,07713.202,E,1,12,1.0,0.0,M,0.0,M,,*64
$GPGSA,A,3,01,02,03,04,05,06,07,08,09,10,11,12,1.0,1.0,1.0*30
$GPRMC,045147.790,A,2838.576,N,07713.202,E,000.0,000.0,280823,000.0,W*73
$GPGGA,045148.790,2838.576,N,07713.202,E,1,12,1.0,0.0,M,0.0,M,,*6B
$GPGSA,A,3,01,02,03,04,05,06,07,08,09,10,11,12,1.0,1.0,1.0*30
$GPRMC,045148.790,A,2838.576,N,07713.202,E,000.0,000.0,280823,000.0,W*7C
$GPGGA,045149.790,2838.576,N,07713.202,E,1,12,1.0,0.0,M,0.0,M,,*6A
$GPGSA,A,3,01,02,03,04,05,06,07,08,09,10,11,12,1.0,1.0,1.0*30
$GPRMC,045149.790,A,2838.576,N,07713.202,E,000.0,000.0,280823,000.0,W*7D
$GPGGA,045150.790,2838.576,N,07713.202,E,1,12,1.0,0.0,M,0.0,M,,*62
$GPGSA,A,3,01,02,03,04,05,06,07,08,09,10,11,12,1.0,1.0,1.0*30
$GPRMC,045150.790,A,2838.576,N,07713.202,E,000.0,000.0,280823,000.0,W*75
$GPGGA,045151.790,2838.576,N,07713.202,E,1,12,1.0,0.0,M,0.0,M,,*63
$GPGSA,A,3,01,02,03,04,05,06,07,08,09,10,11,12,1.0,1.0,1.0*30
$GPRMC,045151.790,A,2838.576,N,07713.202,E,000.0,000.0,280823,000.0,W*74
$GPGGA,045152.790,2838.576,N,07713.202,E,1,12,1.0,0.0,M,0.0,M,,*60
$GPGSA,A,3,01,02,03,04,05,06,07,08,09,10,11,12,1.0,1.0,1.0*30
$GPRMC,045152.790,A,2838.576,N,07713.202,E,000.0,000.0,280823,000.0,W*77
$GPGGA,045153.790,2838.576,N,07713.202,E,1,12,1.0,0.0,M,0.0,M,,*61
$GPGSA,A,3,01,02,03,04,05,06,07,08,09,10,11,12,1.0,1.0,1.0*30
$GPRMC,045153.790,A,2838.576,N,07713.202,E,000.0,000.0,280823,000.0,W*76
$GPGGA,045154.790,2838.576,N,07713.202,E,1,12,1.0,0.0,M,0.0,M,,*66
$GPGSA,A,3,01,02,03,04,05,06,07,08,09,10,11,12,1.0,1.0,1.0*30
$GPRMC,045154.790,A,2838.576,N,07713.202,E,000.0,000.0,280823,000.0,W*71
$GPGGA,045155.790,2838.576,N,07713.202,E,1,12,1.0,0.0,M,0.0,M,,*67
$GPGSA,A,3,01,02,03,04,05,06,07,08,09,10,11,12,1.0,1.0,1.0*30
$GPRMC,045155.790,A,2838.576,N,07713.202,E,000.0,000.0,280823,000.0,W*70
$GPGGA,045156.790,2838.576,N,07713.202,E,1,12,1.0,0.0,M,0.0,M,,*64
$GPGSA,A,3,01,02,03,04,05,06,07,08,09,10,11,12,1.0,1.0,1.0*30
$GPRMC,045156.790,A,2838.576,N,07713.202,E,000.0,000.0,280823,000.0,W*73
$GPGGA,045157.790,2838.576,N,07713.202,E,1,12,1.0,0.0,M,0.0,M,,*65
$GPGSA,A,3,01,02,03,04,05,06,07,08,09,10,11,12,1.0,1.0,1.0*30
$GPRMC,045157.790,A,2838.576,N,07713.202,E,000.0,000.0,280823,000.0,W*72
$GPGGA,045158.790,2838.576,N,07713.202,E,1,12,1.0,0.0,M,0.0,M,,*6A
$GPGSA,A,3,01,02,03,04,05,06,07,08,09,10,11,12,1.0,1.0,1.0*30
$GPRMC,045158.790,A,2838.576,N,07713.202,E,000.0,000.0,280823,000.0,W*7D
$GPGGA,045159.790,2838.576,N,07713.202,E,1,12,1.0,0.0,M,0.0,M,,*6B
$GPGSA,A,3,01,02,03,04,05,06,07,08,09,10,11,12,1.0,1.0,1.0*30
$GPRMC,045159.790,A,2838.576,N,07713.202,E,000.0,000.0,280823,000.0,W*7C
$GPGGA,045200.790,2838.576,N,07713.202,E,1,12,1.0,0.0,M,0.0,M,,*64
$GPGSA,A,3,01,02,03,04,05,06,07,08,09,10,11,12,1.0,1.0,1.0*30
$GPRMC,045200.790,A,2838.576,N,07713.202,E,000.0,000.0,280823,000.0,W*73
$GPGGA,045201.790,2838.576,N,07713.202,E,1,12,1.0,0.0,M,0.0,M,,*65
$GPGSA,A,3,01,02,03,04,05,06,07,08,09,10,11,12,1.0,1.0,1.0*30
$GPRMC,045201.790,A,2838.576,N,07713.202,E,000.0,000.0,280823,000.0,W*72
$GPGGA,045202.790,2838.576,N,07713.202,E,1,12,1.0,0.0,M,0.0,M,,*66
$GPGSA,A,3,01,02,03,04,05,06,07,08,09,10,11,12,1.0,1.0,1.0*30
$GPRMC,045202.790,A,2838.576,N,07713.202,E,000.0,000.0,280823,000.0,W*71
$GPGGA,045203.790,2838.576,N,07713.202,E,1,12,1.0,0.0,M,0.0,M,,*67
$GPGSA,A,3,01,02,03,04,05,06,07,08,09,10,11,12,1.0,1.0,1.0*30
$GPRMC,045203.790,A,2838.576,N,07713.202,E,000.0,000.0,280823,000.0,W*70
$GPGGA,045204.790,2838.576,N,07713.202,E,1,12,1.0,0.0,M,0.0,M,,*60
$GPGSA,A,3,01,02,03,04,05,06,07,08,09,10,11,12,1.0,1.0,1.0*30
$GPRMC,045204.790,A,2838.576,N,07713.202,E,000.0,000.0,280823,000.0,W*77
$GPGGA,045205.790,2838.576,N,07713.202,E,1,12,1.0,0.0,M,0.0,M,,*61
$GPGSA,A,3,01,02,03,04,05,06,07,08,09,10,11,12,1.0,1.0,1.0*30
$GPRMC,045205.790,A,2838.576,N,07713.202,E,000.0,000.0,280823,000.0,W*76
$GPGGA,045206.790,2838.576,N,07713.202,E,1,12,1.0,0.0,M,0.0,M,,*62
$GPGSA,A,3,01,02,03,04,05,06,07,08,09,10,11,12,1.0,1.0,1.0*30
$GPRMC,045206.790,A,2838.576,N,07713.202,E,000.0,000.0,280823,000.0,W*75
$GPGGA,045207.790,2838.576,N,07713.202,E,1,12,1.0,0.0,M,0.0,M,,*63
$GPGSA,A,3,01,02,03,04,05,06,07,08,09,10,11,12,1.0,1.0,1.0*30
$GPRMC,045207.790,A,2838.576,N,07713.202,E,000.0,000.0,280823,000.0,W*74
$GPGGA,045208.790,2838.576,N,07713.202,E,1,12,1.0,0.0,M,0.0,M,,*6C
$GPGSA,A,3,01,02,03,04,05,06,07,08,09,10,11,12,1.0,1.0,1.0*30
$GPRMC,045208.790,A,2838.576,N,07713.202,E,000.0,000.0,280823,000.0,W*7B
$GPGGA,045209.790,2838.576,N,07713.202,E,1,12,1.0,0.0,M,0.0,M,,*6D
$GPGSA,A,3,01,02,03,04,05,06,07,08,09,10,11,12,1.0,1.0,1.0*30
$GPRMC,045209.790,A,2838.576,N,07713.202,E,000.0,000.0,280823,000.0,W*7A
$GPGGA,045210.790,2838.576,N,07713.202,E,1,12,1.0,0.0,M,0.0,M,,*65
$GPGSA,A,3,01,02,03,04,05,06,07,08,09,10,11,12,1.0,1.0,1.0*30
$GPRMC,045210.790,A,2838.576,N,07713.202,E,000.0,000.0,280823,000.0,W*72
$GPGGA,045211.790,2838.576,N,07713.202,E,1,12,1.0,0.0,M,0.0,M,,*64
$GPGSA,A,3,01,02,03,04,05,06,07,08,09,10,11,12,1.0,1.0,1.0*30
$GPRMC,045211.790,A,2838.576,N,07713.202,E,000.0,000.0,280823,000.0,W*73
$GPGGA,045212.790,2838.576,N,07713.202,E,1,12,1.0,0.0,M,0.0,M,,*67
$GPGSA,A,3,01,02,03,04,05,06,07,08,09,10,11,12,1.0,1.0,1.0*30
$GPRMC,045212.790,A,2838.576,N,07713.202,E,000.0,000.0,280823,000.0,W*70
$GPGGA,045213.790,2838.576,N,07713.202,E,1,12,1.0,0.0,M,0.0,M,,*66
$GPGSA,A,3,01,02,03,04,05,06,07,08,09,10,11,12,1.0,1.0,1.0*30
$GPRMC,045213.790,A,2838.576,N,07713.202,E,000.0,000.0,280823,000.0,W*71
$GPGGA,045214.790,2838.576,N,07713.202,E,1,12,1.0,0.0,M,0.0,M,,*61
$GPGSA,A,3,01,02,03,04,05,06,07,08,09,10,11,12,1.0,1.0,1.0*30
$GPRMC,045214.790,A,2838.576,N,07713.202,E,000.0,000.0,280823,000.0,W*76
$GPGGA,045215.790,2838.576,N,07713.202,E,1,12,1.0,0.0,M,0.0,M,,*60
$GPGSA,A,3,01,02,03,04,05,06,07,08,09,10,11,12,1.0,1.0,1.0*30
$GPRMC,045215.790,A,2838.576,N,07713.202,E,000.0,000.0,280823,000.0,W*77
$GPGGA,045216.790,2838.576,N,07713.202,E,1,12,1.0,0.0,M,0.0,M,,*63
$GPGSA,A,3,01,02,03,04,05,06,07,08,09,10,11,12,1.0,1.0,1.0*30
$GPRMC,045216.790,A,2838.576,N,07713.202,E,000.0,000.0,280823,000.0,W*74
$GPGGA,045217.790,2838.576,N,07713.202,E,1,12,1.0,0.0,M,0.0,M,,*62
$GPGSA,A,3,01,02,03,04,05,06,07,08,09,10,11,12,1.0,1.0,1.0*30
$GPRMC,045217.790,A,2838.576,N,07713.202,E,000.0,000.0,280823,000.0,W*75
$GPGGA,045218.790,2838.576,N,07713.202,E,1,12,1.0,0.0,M,0.0,M,,*6D
$GPGSA,A,3,01,02,03,04,05,06,07,08,09,10,11,12,1.0,1.0,1.0*30
$GPRMC,045218.790,A,2838.576,N,07713.202,E,054.1,157.7,280823,000.0,W*7E
$GPGGA,045219.790,2838.562,N,07713.208,E,1,12,1.0,0.0,M,0.0,M,,*63
$GPGSA,A,3,01,02,03,04,05,06,07,08,09,10,11,12,1.0,1.0,1.0*30
$GPRMC,045219.790,A,2838.562,N,07713.208,E,023.8,157.5,280823,000.0,W*7B
$GPGGA,045220.790,2838.556,N,07713.211,E,1,12,1.0,0.0,M,0.0,M,,*66
$GPGSA,A,3,01,02,03,04,05,06,07,08,09,10,11,12,1.0,1.0,1.0*30
$GPRMC,045220.790,A,2838.556,N,07713.211,E,024.6,152.6,280823,000.0,W*71
$GPGGA,045221.790,2838.550,N,07713.214,E,1,12,1.0,0.0,M,0.0,M,,*64
$GPGSA,A,3,01,02,03,04,05,06,07,08,09,10,11,12,1.0,1.0,1.0*30
$GPRMC,045221.790,A,2838.550,N,07713.214,E,034.7,176.2,280823,000.0,W*71
$GPGGA,045222.790,2838.540,N,07713.214,E,1,12,1.0,0.0,M,0.0,M,,*66
$GPGSA,A,3,01,02,03,04,05,06,07,08,09,10,11,12,1.0,1.0,1.0*30
$GPRMC,045222.790,A,2838.540,N,07713.214,E,021.2,161.2,280823,000.0,W*74
$GPGGA,045223.790,2838.534,N,07713.216,E,1,12,1.0,0.0,M,0.0,M,,*66
$GPGSA,A,3,01,02,03,04,05,06,07,08,09,10,11,12,1.0,1.0,1.0*30
$GPRMC,045223.790,A,2838.534,N,07713.216,E,030.5,180.0,280823,000.0,W*7E
$GPGGA,045224.790,2838.526,N,07713.216,E,1,12,1.0,0.0,M,0.0,M,,*62
$GPGSA,A,3,01,02,03,04,05,06,07,08,09,10,11,12,1.0,1.0,1.0*30
$GPRMC,045224.790,A,2838.526,N,07713.216,E,028.6,175.4,280823,000.0,W*7E
$GPGGA,045225.790,2838.518,N,07713.217,E,1,12,1.0,0.0,M,0.0,M,,*6F
$GPGSA,A,3,01,02,03,04,05,06,07,08,09,10,11,12,1.0,1.0,1.0*30
$GPRMC,045225.790,A,2838.518,N,07713.217,E,028.8,170.8,280823,000.0,W*74
$GPGGA,045226.790,2838.510,N,07713.218,E,1,12,1.0,0.0,M,0.0,M,,*6B
$GPGSA,A,3,01,02,03,04,05,06,07,08,09,10,11,12,1.0,1.0,1.0*30
$GPRMC,045226.790,A,2838.510,N,07713.218,E,026.5,180.0,280823,000.0,W*74
$GPGGA,045227.790,2838.503,N,07713.218,E,1,12,1.0,0.0,M,0.0,M,,*68
$GPGSA,A,3,01,02,03,04,05,06,07,08,09,10,11,12,1.0,1.0,1.0*30
$GPRMC,045227.790,A,2838.503,N,07713.218,E,028.3,156.4,280823,000.0,W*70
$GPGGA,045228.790,2838.495,N,07713.221,E,1,12,1.0,0.0,M,0.0,M,,*63
$GPGSA,A,3,01,02,03,04,05,06,07,08,09,10,11,12,1.0,1.0,1.0*30
$GPRMC,045228.790,A,2838.495,N,07713.221,E,028.5,180.0,280823,000.0,W*72
$GPGGA,045229.790,2838.487,N,07713.221,E,1,12,1.0,0.0,M,0.0,M,,*61
$GPGSA,A,3,01,02,03,04,05,06,07,08,09,10,11,12,1.0,1.0,1.0*30
$GPRMC,045229.790,A,2838.487,N,07713.221,E,097.2,167.2,280823,000.0,W*78
$GPGGA,045230.790,2838.461,N,07713.227,E,1,12,1.0,0.0,M,0.0,M,,*67
$GPGSA,A,3,01,02,03,04,05,06,07,08,09,10,11,12,1.0,1.0,1.0*30
$GPRMC,045230.790,A,2838.461,N,07713.227,E,097.2,175.8,280823,000.0,W*77
$GPGGA,045231.790,2838.434,N,07713.229,E,1,12,1.0,0.0,M,0.0,M,,*68
$GPGSA,A,3,01,02,03,04,05,06,07,08,09,10,11,12,1.0,1.0,1.0*30
$GPRMC,045231.790,A,2838.434,N,07713.229,E,097.2,176.6,280823,000.0,W*75
$GPGGA,045232.790,2838.407,N,07713.231,E,1,12,1.0,0.0,M,0.0,M,,*62
$GPGSA,A,3,01,02,03,04,05,06,07,08,09,10,11,12,1.0,1.0,1.0*30
$GPRMC,045232.790,A,2838.407,N,07713.231,E,097.2,175.7,280823,000.0,W*7D
$GPGGA,045233.790,2838.380,N,07713.233,E,1,12,1.0,0.0,M,0.0,M,,*69
$GPGSA,A,3,01,02,03,04,05,06,07,08,09,10,11,12,1.0,1.0,1.0*30
$GPRMC,045233.790,A,2838.380,N,07713.233,E,097.2,168.9,280823,000.0,W*74
$GPGGA,045234.790,2838.354,N,07713.238,E,1,12,1.0,0.0,M,0.0,M,,*6C
$GPGSA,A,3,01,02,03,04,05,06,07,08,09,10,11,12,1.0,1.0,1.0*30
$GPRMC,045234.790,A,2838.354,N,07713.238,E,097.2,171.6,280823,000.0,W*76
$GPGGA,045235.790,2838.327,N,07713.242,E,1,12,1.0,0.0,M,0.0,M,,*64
$GPGSA,A,3,01,02,03,04,05,06,07,08,09,10,11,12,1.0,1.0,1.0*30
$GPRMC,045235.790,A,2838.327,N,07713.242,E,097.2,161.9,280823,000.0,W*70
$GPGGA,045236.790,2838.301,N,07713.251,E,1,12,1.0,0.0,M,0.0,M,,*61
$GPGSA,A,3,01,02,03,04,05,06,07,08,09,10,11,12,1.0,1.0,1.0*30
$GPRMC,045236.790,A,2838.301,N,07713.251,E,097.2,141.7,280823,000.0,W*79
$GPGGA,045237.790,2838.279,N,07713.268,E,1,12,1.0,0.0,M,0.0,M,,*64
$GPGSA,A,3,01,02,03,04,05,06,07,08,09,10,11,12,1.0,1.0,1.0*30
$GPRMC,045237.790,A,2838.279,N,07713.268,E,097.2,141.7,280823,000.0,W*7C
$GPGGA,045238.790,2838.257,N,07713.286,E,1,12,1.0,0.0,M,0.0,M,,*67
$GPGSA,A,3,01,02,03,04,05,06,07,08,09,10,11,12,1.0,1.0,1.0*30
$GPRMC,045238.790,A,2838.257,N,07713.286,E,097.2,141.7,280823,000.0,W*7F
$GPGGA,045239.790,2838.234,N,07713.303,E,1,12,1.0,0.0,M,0.0,M,,*6F
$GPGSA,A,3,01,02,03,04,05,06,07,08,09,10,11,12,1.0,1.0,1.0*30
$GPRMC,045239.790,A,2838.234,N,07713.303,E,097.2,141.7,280823,000.0,W*77
$GPGGA,045240.790,2838.212,N,07713.321,E,1,12,1.0,0.0,M,0.0,M,,*65
$GPGSA,A,3,01,02,03,04,05,06,07,08,09,10,11,12,1.0,1.0,1.0*30
$GPRMC,045240.790,A,2838.212,N,07713.321,E,097.2,141.7,280823,000.0,W*7D
$GPGGA,045241.790,2838.190,N,07713.338,E,1,12,1.0,0.0,M,0.0,M,,*65
$GPGSA,A,3,01,02,03,04,05,06,07,08,09,10,11,12,1.0,1.0,1.0*30
$GPRMC,045241.790,A,2838.190,N,07713.338,E,097.2,141.7,280823,000.0,W*7D
$GPGGA,045242.790,2838.168,N,07713.356,E,1,12,1.0,0.0,M,0.0,M,,*69
$GPGSA,A,3,01,02,03,04,05,06,07,08,09,10,11,12,1.0,1.0,1.0*30
$GPRMC,045242.790,A,2838.168,N,07713.356,E,097.2,141.7,280823,000.0,W*71
$GPGGA,045243.790,2838.146,N,07713.373,E,1,12,1.0,0.0,M,0.0,M,,*63
$GPGSA,A,3,01,02,03,04,05,06,07,08,09,10,11,12,1.0,1.0,1.0*30
$GPRMC,045243.790,A,2838.146,N,07713.373,E,097.2,141.7,280823,000.0,W*7B
$GPGGA,045244.790,2838.124,N,07713.391,E,1,12,1.0,0.0,M,0.0,M,,*6C
$GPGSA,A,3,01,02,03,04,05,06,07,08,09,10,11,12,1.0,1.0,1.0*30
$GPRMC,045244.790,A,2838.124,N,07713.391,E,097.2,141.7,280823,000.0,W*74
$GPGGA,045245.790,2838.101,N,07713.409,E,1,12,1.0,0.0,M,0.0,M,,*6C
$GPGSA,A,3,01,02,03,04,05,06,07,08,09,10,11,12,1.0,1.0,1.0*30
$GPRMC,045245.790,A,2838.101,N,07713.409,E,097.2,117.6,280823,000.0,W*76
$GPGGA,045246.790,2838.088,N,07713.435,E,1,12,1.0,0.0,M,0.0,M,,*60
$GPGSA,A,3,01,02,03,04,05,06,07,08,09,10,11,12,1.0,1.0,1.0*30
$GPRMC,045246.790,A,2838.088,N,07713.435,E,097.2,117.6,280823,000.0,W*7A
$GPGGA,045247.790,2838.074,N,07713.461,E,1,12,1.0,0.0,M,0.0,M,,*63
$GPGSA,A,3,01,02,03,04,05,06,07,08,09,10,11,12,1.0,1.0,1.0*30
$GPRMC,045247.790,A,2838.074,N,07713.461,E,097.2,117.6,280823,000.0,W*79
$GPGGA,045248.790,2838.060,N,07713.488,E,1,12,1.0,0.0,M,0.0,M,,*6E
$GPGSA,A,3,01,02,03,04,05,06,07,08,09,10,11,12,1.0,1.0,1.0*30
$GPRMC,045248.790,A,2838.060,N,07713.488,E,097.2,117.6,280823,000.0,W*74
$GPGGA,045249.790,2838.046,N,07713.514,E,1,12,1.0,0.0,M,0.0,M,,*6F
$GPGSA,A,3,01,02,03,04,05,06,07,08,09,10,11,12,1.0,1.0,1.0*30
$GPRMC,045249.790,A,2838.046,N,07713.514,E,097.2,117.6,280823,000.0,W*75
$GPGGA,045250.790,2838.033,N,07713.541,E,1,12,1.0,0.0,M,0.0,M,,*65
$GPGSA,A,3,01,02,03,04,05,06,07,08,09,10,11,12,1.0,1.0,1.0*30
$GPRMC,045250.790,A,2838.033,N,07713.541,E,097.2,117.6,280823,000.0,W*7F
$GPGGA,045251.790,2838.019,N,07713.567,E,1,12,1.0,0.0,M,0.0,M,,*68
$GPGSA,A,3,01,02,03,04,05,06,07,08,09,10,11,12,1.0,1.0,1.0*30
$GPRMC,045251.790,A,2838.019,N,07713.567,E,097.2,117.6,280823,000.0,W*72
$GPGGA,045252.790,2838.005,N,07713.594,E,1,12,1.0,0.0,M,0.0,M,,*6A
$GPGSA,A,3,01,02,03,04,05,06,07,08,09,10,11,12,1.0,1.0,1.0*30
$GPRMC,045252.790,A,2838.005,N,07713.594,E,097.2,115.5,280823,000.0,W*71
$GPGGA,045253.790,2837.992,N,07713.621,E,1,12,1.0,0.0,M,0.0,M,,*6E
$GPGSA,A,3,01,02,03,04,05,06,07,08,09,10,11,12,1.0,1.0,1.0*30
$GPRMC,045253.790,A,2837.992,N,07713.621,E,097.2,115.5,280823,000.0,W*75
$GPGGA,045254.790,2837.979,N,07713.648,E,1,12,1.0,0.0,M,0.0,M,,*63
$GPGSA,A,3,01,02,03,04,05,06,07,08,09,10,11,12,1.0,1.0,1.0*30
$GPRMC,045254.790,A,2837.979,N,07713.648,E,097.2,115.5,280823,000.0,W*78
$GPGGA,045255.790,2837.966,N,07713.675,E,1,12,1.0,0.0,M,0.0,M,,*62
$GPGSA,A,3,01,02,03,04,05,06,07,08,09,10,11,12,1.0,1.0,1.0*30
$GPRMC,045255.790,A,2837.966,N,07713.675,E,097.2,115.5,280823,000.0,W*79
$GPGGA,045256.790,2837.954,N,07713.702,E,1,12,1.0,0.0,M,0.0,M,,*61
$GPGSA,A,3,01,02,03,04,05,06,07,08,09,10,11,12,1.0,1.0,1.0*30
$GPRMC,045256.790,A,2837.954,N,07713.702,E,097.2,115.5,280823,000.0,W*7A
$GPGGA,045257.790,2837.941,N,07713.729,E,1,12,1.0,0.0,M,0.0,M,,*6D
$GPGSA,A,3,01,02,03,04,05,06,07,08,09,10,11,12,1.0,1.0,1.0*30
$GPRMC,045257.790,A,2837.941,N,07713.729,E,097.2,115.5,280823,000.0,W*76
$GPGGA,045258.790,2837.928,N,07713.756,E,1,12,1.0,0.0,M,0.0,M,,*65
$GPGSA,A,3,01,02,03,04,05,06,07,08,09,10,11,12,1.0,1.0,1.0*30
$GPRMC,045258.790,A,2837.928,N,07713.756,E,097.2,115.5,280823,000.0,W*7E
$GPGGA,045259.790,2837.915,N,07713.783,E,1,12,1.0,0.0,M,0.0,M,,*62
$GPGSA,A,3,01,02,03,04,05,06,07,08,09,10,11,12,1.0,1.0,1.0*30
$GPRMC,045259.790,A,2837.915,N,07713.783,E,097.2,115.5,280823,000.0,W*79
$GPGGA,045300.790,2837.902,N,07713.810,E,1,12,1.0,0.0,M,0.0,M,,*6C
$GPGSA,A,3,01,02,03,04,05,06,07,08,09,10,11,12,1.0,1.0,1.0*30
$GPRMC,045300.790,A,2837.902,N,07713.810,E,097.2,115.5,280823,000.0,W*77
$GPGGA,045301.790,2837.889,N,07713.837,E,1,12,1.0,0.0,M,0.0,M,,*6A
$GPGSA,A,3,01,02,03,04,05,06,07,08,09,10,11,12,1.0,1.0,1.0*30
$GPRMC,045301.790,A,2837.889,N,07713.837,E,097.2,115.5,280823,000.0,W*71
$GPGGA,045302.790,2837.876,N,07713.864,E,1,12,1.0,0.0,M,0.0,M,,*6F
$GPGSA,A,3,01,02,03,04,05,06,07,08,09,10,11,12,1.0,1.0,1.0*30
$GPRMC,045302.790,A,2837.876,N,07713.864,E,097.2,115.5,280823,000.0,W*74
$GPGGA,045303.790,2837.864,N,07713.891,E,1,12,1.0,0.0,M,0.0,M,,*67
$GPGSA,A,3,01,02,03,04,05,06,07,08,09,10,11,12,1.0,1.0,1.0*30
$GPRMC,045303.790,A,2837.864,N,07713.891,E,097.2,115.5,280823,000.0,W*7C
$GPGGA,045304.790,2837.851,N,07713.918,E,1,12,1.0,0.0,M,0.0,M,,*66
$GPGSA,A,3,01,02,03,04,05,06,07,08,09,10,11,12,1.0,1.0,1.0*30
$GPRMC,045304.790,A,2837.851,N,07713.918,E,097.2,115.5,280823,000.0,W*7D
$GPGGA,045305.790,2837.838,N,07713.945,E,1,12,1.0,0.0,M,0.0,M,,*60
$GPGSA,A,3,01,02,03,04,05,06,07,08,09,10,11,12,1.0,1.0,1.0*30
$GPRMC,045305.790,A,2837.838,N,07713.945,E,097.2,115.5,280823,000.0,W*7B
$GPGGA,045306.790,2837.825,N,07713.972,E,1,12,1.0,0.0,M,0.0,M,,*6B
$GPGSA,A,3,01,02,03,04,05,06,07,08,09,10,11,12,1.0,1.0,1.0*30
$GPRMC,045306.790,A,2837.825,N,07713.972,E,097.2,115.5,280823,000.0,W*70
$GPGGA,045307.790,2837.812,N,07713.999,E,1,12,1.0,0.0,M,0.0,M,,*6B
$GPGSA,A,3,01,02,03,04,05,06,07,08,09,10,11,12,1.0,1.0,1.0*30
$GPRMC,045307.790,A,2837.812,N,07713.999,E,097.2,115.5,280823,000.0,W*70
$GPGGA,045308.790,2837.799,N,07714.026,E,1,12,1.0,0.0,M,0.0,M,,*62
$GPGSA,A,3,01,02,03,04,05,06,07,08,09,10,11,12,1.0,1.0,1.0*30
$GPRMC,045308.790,A,2837.799,N,07714.026,E,097.2,115.5,280823,000.0,W*79
$GPGGA,045309.790,2837.786,N,07714.053,E,1,12,1.0,0.0,M,0.0,M,,*6F
$GPGSA,A,3,01,02,03,04,05,06,07,08,09,10,11,12,1.0,1.0,1.0*30
$GPRMC,045309.790,A,2837.786,N,07714.053,E,097.2,119.4,280823,000.0,W*79
$GPGGA,045310.790,2837.772,N,07714.079,E,1,12,1.0,0.0,M,0.0,M,,*64
$GPGSA,A,3,01,02,03,04,05,06,07,08,09,10,11,12,1.0,1.0,1.0*30
$GPRMC,045310.790,A,2837.772,N,07714.079,E,097.2,119.4,280823,000.0,W*72
$GPGGA,045311.790,2837.757,N,07714.105,E,1,12,1.0,0.0,M,0.0,M,,*68
$GPGSA,A,3,01,02,03,04,05,06,07,08,09,10,11,12,1.0,1.0,1.0*30
$GPRMC,045311.790,A,2837.757,N,07714.105,E,097.2,119.4,280823,000.0,W*7E
$GPGGA,045312.790,2837.743,N,07714.131,E,1,12,1.0,0.0,M,0.0,M,,*69
$GPGSA,A,3,01,02,03,04,05,06,07,08,09,10,11,12,1.0,1.0,1.0*30
$GPRMC,045312.790,A,2837.743,N,07714.131,E,097.2,119.4,280823,000.0,W*7F
$GPGGA,045313.790,2837.728,N,07714.156,E,1,12,1.0,0.0,M,0.0,M,,*64
$GPGSA,A,3,01,02,03,04,05,06,07,08,09,10,11,12,1.0,1.0,1.0*30
$GPRMC,045313.790,A,2837.728,N,07714.156,E,097.2,119.4,280823,000.0,W*72
$GPGGA,045314.790,2837.714,N,07714.182,E,1,12,1.0,0.0,M,0.0,M,,*65
$GPGSA,A,3,01,02,03,04,05,06,07,08,09,10,11,12,1.0,1.0,1.0*30
$GPRMC,045314.790,A,2837.714,N,07714.182,E,097.2,119.4,280823,000.0,W*73
$GPGGA,045315.790,2837.699,N,07714.208,E,1,12,1.0,0.0,M,0.0,M,,*61
$GPGSA,A,3,01,02,03,04,05,06,07,08,09,10,11,12,1.0,1.0,1.0*30
$GPRMC,045315.790,A,2837.699,N,07714.208,E,097.2,119.4,280823,000.0,W*77
$GPGGA,045316.790,2837.684,N,07714.234,E,1,12,1.0,0.0,M,0.0,M,,*61
$GPGSA,A,3,01,02,03,04,05,06,07,08,09,10,11,12,1.0,1.0,1.0*30
$GPRMC,045316.790,A,2837.684,N,07714.234,E,097.2,119.4,280823,000.0,W*77
$GPGGA,045317.790,2837.670,N,07714.260,E,1,12,1.0,0.0,M,0.0,M,,*6A
$GPGSA,A,3,01,02,03,04,05,06,07,08,09,10,11,12,1.0,1.0,1.0*30
$GPRMC,045317.790,A,2837.670,N,07714.260,E,097.2,119.4,280823,000.0,W*7C
$GPGGA,045318.790,2837.655,N,07714.286,E,1,12,1.0,0.0,M,0.0,M,,*6A
$GPGSA,A,3,01,02,03,04,05,06,07,08,09,10,11,12,1.0,1.0,1.0*30
$GPRMC,045318.790,A,2837.655,N,07714.286,E,097.2,119.4,280823,000.0,W*7C
$GPGGA,045319.790,2837.641,N,07714.312,E,1,12,1.0,0.0,M,0.0,M,,*62
$GPGSA,A,3,01,02,03,04,05,06,07,08,09,10,11,12,1.0,1.0,1.0*30
$GPRMC,045319.790,A,2837.641,N,07714.312,E,097.2,119.4,280823,000.0,W*74
$GPGGA,045320.790,2837.626,N,07714.338,E,1,12,1.0,0.0,M,0.0,M,,*61
$GPGSA,A,3,01,02,03,04,05,06,07,08,09,10,11,12,1.0,1.0,1.0*30
$GPRMC,045320.790,A,2837.626,N,07714.338,E,097.2,119.4,280823,000.0,W*77
$GPGGA,045321.790,2837.612,N,07714.363,E,1,12,1.0,0.0,M,0.0,M,,*69
$GPGSA,A,3,01,02,03,04,05,06,07,08,09,10,11,12,1.0,1.0,1.0*30
$GPRMC,045321.790,A,2837.612,N,07714.363,E,097.2,119.4,280823,000.0,W*7F
$GPGGA,045322.790,2837.597,N,07714.389,E,1,12,1.0,0.0,M,0.0,M,,*60
$GPGSA,A,3,01,02,03,04,05,06,07,08,09,10,11,12,1.0,1.0,1.0*30
$GPRMC,045322.790,A,2837.597,N,07714.389,E,097.2,120.6,280823,000.0,W*7E
$GPGGA,045323.790,2837.582,N,07714.415,E,1,12,1.0,0.0,M,0.0,M,,*67
$GPGSA,A,3,01,02,03,04,05,06,07,08,09,10,11,12,1.0,1.0,1.0*30
$GPRMC,045323.790,A,2837.582,N,07714.415,E,097.2,120.6,280823,000.0,W*79
$GPGGA,045324.790,2837.567,N,07714.440,E,1,12,1.0,0.0,M,0.0,M,,*6B
$GPGSA,A,3,01,02,03,04,05,06,07,08,09,10,11,12,1.0,1.0,1.0*30
$GPRMC,045324.790,A,2837.567,N,07714.440,E,097.2,120.6,280823,000.0,W*75
$GPGGA,045325.790,2837.552,N,07714.466,E,1,12,1.0,0.0,M,0.0,M,,*68
$GPGSA,A,3,01,02,03,04,05,06,07,08,09,10,11,12,1.0,1.0,1.0*30
$GPRMC,045325.790,A,2837.552,N,07714.466,E,097.2,120.6,280823,000.0,W*76
$GPGGA,045326.790,2837.537,N,07714.491,E,1,12,1.0,0.0,M,0.0,M,,*60
$GPGSA,A,3,01,02,03,04,05,06,07,08,09,10,11,12,1.0,1.0,1.0*30
$GPRMC,045326.790,A,2837.537,N,07714.491,E,097.2,120.6,280823,000.0,W*7E
$GPGGA,045327.790,2837.522,N,07714.517,E,1,12,1.0,0.0,M,0.0,M,,*6A
$GPGSA,A,3,01,02,03,04,05,06,07,08,09,10,11,12,1.0,1.0,1.0*30
$GPRMC,045327.790,A,2837.522,N,07714.517,E,097.2,120.6,280823,000.0,W*74
$GPGGA,045328.790,2837.507,N,07714.542,E,1,12,1.0,0.0,M,0.0,M,,*62
$GPGSA,A,3,01,02,03,04,05,06,07,08,09,10,11,12,1.0,1.0,1.0*30
$GPRMC,045328.790,A,2837.507,N,07714.542,E,097.2,131.1,280823,000.0,W*7B
$GPGGA,045329.790,2837.488,N,07714.564,E,1,12,1.0,0.0,M,0.0,M,,*61
$GPGSA,A,3,01,02,03,04,05,06,07,08,09,10,11,12,1.0,1.0,1.0*30
$GPRMC,045329.790,A,2837.488,N,07714.564,E,097.2,131.1,280823,000.0,W*78
$GPGGA,045330.790,2837.469,N,07714.586,E,1,12,1.0,0.0,M,0.0,M,,*6A
$GPGSA,A,3,01,02,03,04,05,06,07,08,09,10,11,12,1.0,1.0,1.0*30
$GPRMC,045330.790,A,2837.469,N,07714.586,E,097.2,131.1,280823,000.0,W*73
$GPGGA,045331.790,2837.450,N,07714.608,E,1,12,1.0,0.0,M,0.0,M,,*64
$GPGSA,A,3,01,02,03,04,05,06,07,08,09,10,11,12,1.0,1.0,1.0*30
$GPRMC,045331.790,A,2837.450,N,07714.608,E,097.2,140.1,280823,000.0,W*7B
$GPGGA,045332.790,2837.428,N,07714.626,E,1,12,1.0,0.0,M,0.0,M,,*64
$GPGSA,A,3,01,02,03,04,05,06,07,08,09,10,11,12,1.0,1.0,1.0*30
$GPRMC,045332.790,A,2837.428,N,07714.626,E,097.2,140.1,280823,000.0,W*7B
$GPGGA,045333.790,2837.406,N,07714.644,E,1,12,1.0,0.0,M,0.0,M,,*6D
$GPGSA,A,3,01,02,03,04,05,06,07,08,09,10,11,12,1.0,1.0,1.0*30
$GPRMC,045333.790,A,2837.406,N,07714.644,E,097.2,140.1,280823,000.0,W*72
$GPGGA,045334.790,2837.384,N,07714.662,E,1,12,1.0,0.0,M,0.0,M,,*63
$GPGSA,A,3,01,02,03,04,05,06,07,08,09,10,11,12,1.0,1.0,1.0*30
$GPRMC,045334.790,A,2837.384,N,07714.662,E,097.2,140.1,280823,000.0,W*7C
$GPGGA,045335.790,2837.363,N,07714.681,E,1,12,1.0,0.0,M,0.0,M,,*66
$GPGSA,A,3,01,02,03,04,05,06,07,08,09,10,11,12,1.0,1.0,1.0*30
$GPRMC,045335.790,A,2837.363,N,07714.681,E,097.2,140.1,280823,000.0,W*79
$GPGGA,045336.790,2837.341,N,07714.699,E,1,12,1.0,0.0,M,0.0,M,,*6C
$GPGSA,A,3,01,02,03,04,05,06,07,08,09,10,11,12,1.0,1.0,1.0*30
$GPRMC,045336.790,A,2837.341,N,07714.699,E,097.2,147.8,280823,000.0,W*7D
$GPGGA,045337.790,2837.317,N,07714.714,E,1,12,1.0,0.0,M,0.0,M,,*6A
$GPGSA,A,3,01,02,03,04,05,06,07,08,09,10,11,12,1.0,1.0,1.0*30
$GPRMC,045337.790,A,2837.317,N,07714.714,E,097.2,147.8,280823,000.0,W*7B
$GPGGA,045338.790,2837.294,N,07714.729,E,1,12,1.0,0.0,M,0.0,M,,*61
$GPGSA,A,3,01,02,03,04,05,06,07,08,09,10,11,12,1.0,1.0,1.0*30
$GPRMC,045338.790,A,2837.294,N,07714.729,E,097.2,147.8,280823,000.0,W*70
$GPGGA,045339.790,2837.270,N,07714.743,E,1,12,1.0,0.0,M,0.0,M,,*66
$GPGSA,A,3,01,02,03,04,05,06,07,08,09,10,11,12,1.0,1.0,1.0*30
$GPRMC,045339.790,A,2837.270,N,07714.743,E,097.2,159.6,280823,000.0,W*76
$GPGGA,045340.790,2837.245,N,07714.753,E,1,12,1.0,0.0,M,0.0,M,,*6F
$GPGSA,A,3,01,02,03,04,05,06,07,08,09,10,11,12,1.0,1.0,1.0*30
$GPRMC,045340.790,A,2837.245,N,07714.753,E,097.2,159.6,280823,000.0,W*7F
$GPGGA,045341.790,2837.219,N,07714.762,E,1,12,1.0,0.0,M,0.0,M,,*65
$GPGSA,A,3,01,02,03,04,05,06,07,08,09,10,11,12,1.0,1.0,1.0*30
$GPRMC,045341.790,A,2837.219,N,07714.762,E,097.2,159.6,280823,000.0,W*75
$GPGGA,045342.790,2837.193,N,07714.772,E,1,12,1.0,0.0,M,0.0,M,,*66
$GPGSA,A,3,01,02,03,04,05,06,07,08,09,10,11,12,1.0,1.0,1.0*30
$GPRMC,045342.790,A,2837.193,N,07714.772,E,097.2,159.6,280823,000.0,W*76
$GPGGA,045343.790,2837.168,N,07714.782,E,1,12,1.0,0.0,M,0.0,M,,*6C
$GPGSA,A,3,01,02,03,04,05,06,07,08,09,10,11,12,1.0,1.0,1.0*30
$GPRMC,045343.790,A,2837.168,N,07714.782,E,097.2,164.5,280823,000.0,W*71
$GPGGA,045344.790,2837.141,N,07714.789,E,1,12,1.0,0.0,M,0.0,M,,*6B
$GPGSA,A,3,01,02,03,04,05,06,07,08,09,10,11,12,1.0,1.0,1.0*30
$GPRMC,045344.790,A,2837.141,N,07714.789,E,097.2,164.5,280823,000.0,W*76
$GPGGA,045345.790,2837.115,N,07714.796,E,1,12,1.0,0.0,M,0.0,M,,*65
$GPGSA,A,3,01,02,03,04,05,06,07,08,09,10,11,12,1.0,1.0,1.0*30
$GPRMC,045345.790,A,2837.115,N,07714.796,E,097.2,164.5,280823,000.0,W*78
$GPGGA,045346.790,2837.089,N,07714.803,E,1,12,1.0,0.0,M,0.0,M,,*61
$GPGSA,A,3,01,02,03,04,05,06,07,08,09,10,11,12,1.0,1.0,1.0*30
$GPRMC,045346.790,A,2837.089,N,07714.803,E,097.2,164.5,280823,000.0,W*7C
$GPGGA,045347.790,2837.063,N,07714.811,E,1,12,1.0,0.0,M,0.0,M,,*67
$GPGSA,A,3,01,02,03,04,05,06,07,08,09,10,11,12,1.0,1.0,1.0*30
$GPRMC,045347.790,A,2837.063,N,07714.811,E,097.2,164.5,280823,000.0,W*7A
$GPGGA,045348.790,2837.037,N,07714.818,E,1,12,1.0,0.0,M,0.0,M,,*60
$GPGSA,A,3,01,02,03,04,05,06,07,08,09,10,11,12,1.0,1.0,1.0*30
$GPRMC,045348.790,A,2837.037,N,07714.818,E,097.2,164.5,280823,000.0,W*7D
$GPGGA,045349.790,2837.010,N,07714.825,E,1,12,1.0,0.0,M,0.0,M,,*6A
$GPGSA,A,3,01,02,03,04,05,06,07,08,09,10,11,12,1.0,1.0,1.0*30
$GPRMC,045349.790,A,2837.010,N,07714.825,E,097.2,164.5,280823,000.0,W*77
$GPGGA,045350.790,2836.984,N,07714.833,E,1,12,1.0,0.0,M,0.0,M,,*60
$GPGSA,A,3,01,02,03,04,05,06,07,08,09,10,11,12,1.0,1.0,1.0*30
$GPRMC,045350.790,A,2836.984,N,07714.833,E,097.2,164.5,280823,000.0,W*7D
$GPGGA,045351.790,2836.958,N,07714.840,E,1,12,1.0,0.0,M,0.0,M,,*64
$GPGSA,A,3,01,02,03,04,05,06,07,08,09,10,11,12,1.0,1.0,1.0*30
$GPRMC,045351.790,A,2836.958,N,07714.840,E,388.8,136.1,280823,000.0,W*7D
$GPGGA,045352.790,2836.876,N,07714.919,E,1,12,1.0,0.0,M,0.0,M,,*67
$GPGSA,A,3,01,02,03,04,05,06,07,08,09,10,11,12,1.0,1.0,1.0*30
$GPRMC,045352.790,A,2836.876,N,07714.919,E,388.8,121.6,280823,000.0,W*7F
$GPGGA,045353.790,2836.814,N,07715.020,E,1,12,1.0,0.0,M,0.0,M,,*60
$GPGSA,A,3,01,02,03,04,05,06,07,08,09,10,11,12,1.0,1.0,1.0*30
$GPRMC,045353.790,A,2836.814,N,07715.020,E,388.8,097.3,280823,000.0,W*71
$GPGGA,045354.790,2836.798,N,07715.142,E,1,12,1.0,0.0,M,0.0,M,,*69
$GPGSA,A,3,01,02,03,04,05,06,07,08,09,10,11,12,1.0,1.0,1.0*30
$GPRMC,045354.790,A,2836.798,N,07715.142,E,388.8,084.2,280823,000.0,W*7B
$GPGGA,045355.790,2836.810,N,07715.264,E,1,12,1.0,0.0,M,0.0,M,,*60
$GPGSA,A,3,01,02,03,04,05,06,07,08,09,10,11,12,1.0,1.0,1.0*30
$GPRMC,045355.790,A,2836.810,N,07715.264,E,388.8,078.7,280823,000.0,W*74
$GPGGA,045356.790,2836.834,N,07715.384,E,1,12,1.0,0.0,M,0.0,M,,*6A
$GPGSA,A,3,01,02,03,04,05,06,07,08,09,10,11,12,1.0,1.0,1.0*30
$GPRMC,045356.790,A,2836.834,N,07715.384,E,388.8,078.7,280823,000.0,W*7E
$GPGGA,045357.790,2836.858,N,07715.504,E,1,12,1.0,0.0,M,0.0,M,,*6F
$GPGSA,A,3,01,02,03,04,05,06,07,08,09,10,11,12,1.0,1.0,1.0*30
$GPRMC,045357.790,A,2836.858,N,07715.504,E,388.8,078.7,280823,000.0,W*7B
$GPGGA,045358.790,2836.882,N,07715.623,E,1,12,1.0,0.0,M,0.0,M,,*61
$GPGSA,A,3,01,02,03,04,05,06,07,08,09,10,11,12,1.0,1.0,1.0*30
$GPRMC,045358.790,A,2836.882,N,07715.623,E,388.8,078.7,280823,000.0,W*75
$GPGGA,045359.790,2836.906,N,07715.743,E,1,12,1.0,0.0,M,0.0,M,,*6A
$GPGSA,A,3,01,02,03,04,05,06,07,08,09,10,11,12,1.0,1.0,1.0*30
$GPRMC,045359.790,A,2836.906,N,07715.743,E,388.8,077.7,280823,000.0,W*71
$GPGGA,045400.790,2836.932,N,07715.863,E,1,12,1.0,0.0,M,0.0,M,,*6B
$GPGSA,A,3,01,02,03,04,05,06,07,08,09,10,11,12,1.0,1.0,1.0*30
$GPRMC,045400.790,A,2836.932,N,07715.863,E,388.8,077.7,280823,000.0,W*70
$GPGGA,045401.790,2836.958,N,07715.982,E,1,12,1.0,0.0,M,0.0,M,,*68
$GPGSA,A,3,01,02,03,04,05,06,07,08,09,10,11,12,1.0,1.0,1.0*30
$GPRMC,045401.790,A,2836.958,N,07715.982,E,388.8,077.7,280823,000.0,W*73
$GPGGA,045402.790,2836.984,N,07716.101,E,1,12,1.0,0.0,M,0.0,M,,*6A
$GPGSA,A,3,01,02,03,04,05,06,07,08,09,10,11,12,1.0,1.0,1.0*30
$GPRMC,045402.790,A,2836.984,N,07716.101,E,388.8,077.7,280823,000.0,W*71
$GPGGA,045403.790,2837.010,N,07716.220,E,1,12,1.0,0.0,M,0.0,M,,*6E
$GPGSA,A,3,01,02,03,04,05,06,07,08,09,10,11,12,1.0,1.0,1.0*30
$GPRMC,045403.790,A,2837.010,N,07716.220,E,388.8,069.8,280823,000.0,W*75
$GPGGA,045404.790,2837.052,N,07716.334,E,1,12,1.0,0.0,M,0.0,M,,*6B
$GPGSA,A,3,01,02,03,04,05,06,07,08,09,10,11,12,1.0,1.0,1.0*30
$GPRMC,045404.790,A,2837.052,N,07716.334,E,388.8,063.2,280823,000.0,W*70
$GPGGA,045405.790,2837.106,N,07716.440,E,1,12,1.0,0.0,M,0.0,M,,*6E
$GPGSA,A,3,01,02,03,04,05,06,07,08,09,10,11,12,1.0,1.0,1.0*30
$GPRMC,045405.790,A,2837.106,N,07716.440,E,388.8,053.1,280823,000.0,W*75
$GPGGA,045406.790,2837.176,N,07716.534,E,1,12,1.0,0.0,M,0.0,M,,*68
$GPGSA,A,3,01,02,03,04,05,06,07,08,09,10,11,12,1.0,1.0,1.0*30
$GPRMC,045406.790,A,2837.176,N,07716.534,E,388.8,053.1,280823,000.0,W*73
$GPGGA,045407.790,2837.246,N,07716.627,E,1,12,1.0,0.0,M,0.0,M,,*68
$GPGSA,A,3,01,02,03,04,05,06,07,08,09,10,11,12,1.0,1.0,1.0*30
$GPRMC,045407.790,A,2837.246,N,07716.627,E,388.8,053.1,280823,000.0,W*73
$GPGGA,045408.790,2837.316,N,07716.721,E,1,12,1.0,0.0,M,0.0,M,,*64
$GPGSA,A,3,01,02,03,04,05,06,07,08,09,10,11,12,1.0,1.0,1.0*30
$GPRMC,045408.790,A,2837.316,N,07716.721,E,388.8,053.1,280823,000.0,W*7F
$GPGGA,045409.790,2837.386,N,07716.814,E,1,12,1.0,0.0,M,0.0,M,,*65
$GPGSA,A,3,01,02,03,04,05,06,07,08,09,10,11,12,1.0,1.0,1.0*30
$GPRMC,045409.790,A,2837.386,N,07716.814,E,388.8,053.1,280823,000.0,W*7E
$GPGGA,045410.790,2837.457,N,07716.908,E,1,12,1.0,0.0,M,0.0,M,,*6A
$GPGSA,A,3,01,02,03,04,05,06,07,08,09,10,11,12,1.0,1.0,1.0*30
$GPRMC,045410.790,A,2837.457,N,07716.908,E,388.8,053.1,280823,000.0,W*71
$GPGGA,045411.790,2837.527,N,07717.001,E,1,12,1.0,0.0,M,0.0,M,,*6C
$GPGSA,A,3,01,02,03,04,05,06,07,08,09,10,11,12,1.0,1.0,1.0*30
$GPRMC,045411.790,A,2837.527,N,07717.001,E,388.8,053.1,280823,000.0,W*77
$GPGGA,045412.790,2837.597,N,07717.095,E,1,12,1.0,0.0,M,0.0,M,,*69
$GPGSA,A,3,01,02,03,04,05,06,07,08,09,10,11,12,1.0,1.0,1.0*30
$GPRMC,045412.790,A,2837.597,N,07717.095,E,388.8,051.6,280823,000.0,W*77
$GPGGA,045413.790,2837.669,N,07717.186,E,1,12,1.0,0.0,M,0.0,M,,*69
$GPGSA,A,3,01,02,03,04,05,06,07,08,09,10,11,12,1.0,1.0,1.0*30
$GPRMC,045413.790,A,2837.669,N,07717.186,E,388.8,051.6,280823,000.0,W*77
$GPGGA,045414.790,2837.741,N,07717.277,E,1,12,1.0,0.0,M,0.0,M,,*68
$GPGSA,A,3,01,02,03,04,05,06,07,08,09,10,11,12,1.0,1.0,1.0*30
$GPRMC,045414.790,A,2837.741,N,07717.277,E,388.8,051.6,280823,000.0,W*76
$GPGGA,045415.790,2837.814,N,07717.368,E,1,12,1.0,0.0,M,0.0,M,,*69
$GPGSA,A,3,01,02,03,04,05,06,07,08,09,10,11,12,1.0,1.0,1.0*30
$GPRMC,045415.790,A,2837.814,N,07717.368,E,388.8,051.6,280823,000.0,W*77
$GPGGA,045416.790,2837.886,N,07717.460,E,1,12,1.0,0.0,M,0.0,M,,*6E
$GPGSA,A,3,01,02,03,04,05,06,07,08,09,10,11,12,1.0,1.0,1.0*30
$GPRMC,045416.790,A,2837.886,N,07717.460,E,388.8,051.6,280823,000.0,W*70
$GPGGA,045417.790,2837.958,N,07717.551,E,1,12,1.0,0.0,M,0.0,M,,*6E
$GPGSA,A,3,01,02,03,04,05,06,07,08,09,10,11,12,1.0,1.0,1.0*30
$GPRMC,045417.790,A,2837.958,N,07717.551,E,388.8,051.9,280823,000.0,W*7F
$GPGGA,045418.790,2838.030,N,07717.643,E,1,12,1.0,0.0,M,0.0,M,,*69
$GPGSA,A,3,01,02,03,04,05,06,07,08,09,10,11,12,1.0,1.0,1.0*30
$GPRMC,045418.790,A,2838.030,N,07717.643,E,388.8,051.9,280823,000.0,W*78
$GPGGA,045419.790,2838.102,N,07717.735,E,1,12,1.0,0.0,M,0.0,M,,*68
$GPGSA,A,3,01,02,03,04,05,06,07,08,09,10,11,12,1.0,1.0,1.0*30
$GPRMC,045419.790,A,2838.102,N,07717.735,E,388.8,051.9,280823,000.0,W*79
$GPGGA,045420.790,2838.174,N,07717.826,E,1,12,1.0,0.0,M,0.0,M,,*6E
$GPGSA,A,3,01,02,03,04,05,06,07,08,09,10,11,12,1.0,1.0,1.0*30
$GPRMC,045420.790,A,2838.174,N,07717.826,E,388.8,051.9,280823,000.0,W*7F
$GPGGA,045421.790,2838.246,N,07717.918,E,1,12,1.0,0.0,M,0.0,M,,*61
$GPGSA,A,3,01,02,03,04,05,06,07,08,09,10,11,12,1.0,1.0,1.0*30
$GPRMC,045421.790,A,2838.246,N,07717.918,E,388.8,051.9,280823,000.0,W*70
$GPGGA,045422.790,2838.317,N,07718.010,E,1,12,1.0,0.0,M,0.0,M,,*69
$GPGSA,A,3,01,02,03,04,05,06,07,08,09,10,11,12,1.0,1.0,1.0*30
$GPRMC,045422.790,A,2838.317,N,07718.010,E,388.8,051.9,280823,000.0,W*78
$GPGGA,045423.790,2838.389,N,07718.101,E,1,12,1.0,0.0,M,0.0,M,,*6E
$GPGSA,A,3,01,02,03,04,05,06,07,08,09,10,11,12,1.0,1.0,1.0*30
$GPRMC,045423.790,A,2838.389,N,07718.101,E,388.8,052.1,280823,000.0,W*74
$GPGGA,045424.790,2838.461,N,07718.194,E,1,12,1.0,0.0,M,0.0,M,,*64
$GPGSA,A,3,01,02,03,04,05,06,07,08,09,10,11,12,1.0,1.0,1.0*30
$GPRMC,045424.790,A,2838.461,N,07718.194,E,388.8,052.1,280823,000.0,W*7E
$GPGGA,045425.790,2838.532,N,07718.286,E,1,12,1.0,0.0,M,0.0,M,,*62
$GPGSA,A,3,01,02,03,04,05,06,07,08,09,10,11,12,1.0,1.0,1.0*30
$GPRMC,045425.790,A,2838.532,N,07718.286,E,388.8,052.1,280823,000.0,W*78
$GPGGA,045426.790,2838.604,N,07718.378,E,1,12,1.0,0.0,M,0.0,M,,*67
$GPGSA,A,3,01,02,03,04,05,06,07,08,09,10,11,12,1.0,1.0,1.0*30
$GPRMC,045426.790,A,2838.604,N,07718.378,E,388.8,052.1,280823,000.0,W*7D
$GPGGA,045427.790,2838.676,N,07718.470,E,1,12,1.0,0.0,M,0.0,M,,*6C
$GPGSA,A,3,01,02,03,04,05,06,07,08,09,10,11,12,1.0,1.0,1.0*30
$GPRMC,045427.790,A,2838.676,N,07718.470,E,388.8,052.1,280823,000.0,W*76
$GPGGA,045428.790,2838.747,N,07718.562,E,1,12,1.0,0.0,M,0.0,M,,*62
$GPGSA,A,3,01,02,03,04,05,06,07,08,09,10,11,12,1.0,1.0,1.0*30
$GPRMC,045428.790,A,2838.747,N,07718.562,E,388.8,052.2,280823,000.0,W*7B
$GPGGA,045429.790,2838.819,N,07718.654,E,1,12,1.0,0.0,M,0.0,M,,*61
$GPGSA,A,3,01,02,03,04,05,06,07,08,09,10,11,12,1.0,1.0,1.0*30
$GPRMC,045429.790,A,2838.819,N,07718.654,E,388.8,052.2,280823,000.0,W*78
$GPGGA,045430.790,2838.890,N,07718.746,E,1,12,1.0,0.0,M,0.0,M,,*6A
$GPGSA,A,3,01,02,03,04,05,06,07,08,09,10,11,12,1.0,1.0,1.0*30
$GPRMC,045430.790,A,2838.890,N,07718.746,E,388.8,052.2,280823,000.0,W*73
$GPGGA,045431.790,2838.961,N,07718.838,E,1,12,1.0,0.0,M,0.0,M,,*62
$GPGSA,A,3,01,02,03,04,05,06,07,08,09,10,11,12,1.0,1.0,1.0*30
$GPRMC,045431.790,A,2838.961,N,07718.838,E,388.8,052.2,280823,000.0,W*7B
$GPGGA,045432.790,2839.033,N,07718.930,E,1,12,1.0,0.0,M,0.0,M,,*67
$GPGSA,A,3,01,02,03,04,05,06,07,08,09,10,11,12,1.0,1.0,1.0*30
$GPRMC,045432.790,A,2839.033,N,07718.930,E,388.8,051.9,280823,000.0,W*76
$GPGGA,045433.790,2839.105,N,07719.022,E,1,12,1.0,0.0,M,0.0,M,,*69
$GPGSA,A,3,01,02,03,04,05,06,07,08,09,10,11,12,1.0,1.0,1.0*30
$GPRMC,045433.790,A,2839.105,N,07719.022,E,388.8,051.9,280823,000.0,W*78
$GPGGA,045434.790,2839.177,N,07719.114,E,1,12,1.0,0.0,M,0.0,M,,*6F
$GPGSA,A,3,01,02,03,04,05,06,07,08,09,10,11,12,1.0,1.0,1.0*30
$GPRMC,045434.790,A,2839.177,N,07719.114,E,388.8,051.9,280823,000.0,W*7E
$GPGGA,045435.790,2839.248,N,07719.206,E,1,12,1.0,0.0,M,0.0,M,,*61
$GPGSA,A,3,01,02,03,04,05,06,07,08,09,10,11,12,1.0,1.0,1.0*30
$GPRMC,045435.790,A,2839.248,N,07719.206,E,388.8,051.9,280823,000.0,W*70
$GPGGA,045436.790,2839.320,N,07719.298,E,1,12,1.0,0.0,M,0.0,M,,*6A
$GPGSA,A,3,01,02,03,04,05,06,07,08,09,10,11,12,1.0,1.0,1.0*30
$GPRMC,045436.790,A,2839.320,N,07719.298,E,388.8,051.9,280823,000.0,W*7B
$GPGGA,045437.790,2839.392,N,07719.389,E,1,12,1.0,0.0,M,0.0,M,,*63
$GPGSA,A,3,01,02,03,04,05,06,07,08,09,10,11,12,1.0,1.0,1.0*30
$GPRMC,045437.790,A,2839.392,N,07719.389,E,388.8,051.9,280823,000.0,W*72
$GPGGA,045438.790,2839.464,N,07719.481,E,1,12,1.0,0.0,M,0.0,M,,*6D
$GPGSA,A,3,01,02,03,04,05,06,07,08,09,10,11,12,1.0,1.0,1.0*30
$GPRMC,045438.790,A,2839.464,N,07719.481,E,388.8,051.9,280823,000.0,W*7C
$GPGGA,045439.790,2839.535,N,07719.573,E,1,12,1.0,0.0,M,0.0,M,,*65
$GPGSA,A,3,01,02,03,04,05,06,07,08,09,10,11,12,1.0,1.0,1.0*30
$GPRMC,045439.790,A,2839.535,N,07719.573,E,388.8,051.9,280823,000.0,W*74
$GPGGA,045440.790,2839.607,N,07719.665,E,1,12,1.0,0.0,M,0.0,M,,*6D
$GPGSA,A,3,01,02,03,04,05,06,07,08,09,10,11,12,1.0,1.0,1.0*30
$GPRMC,045440.790,A,2839.607,N,07719.665,E,388.8,051.8,280823,000.0,W*7D
$GPGGA,045441.790,2839.679,N,07719.757,E,1,12,1.0,0.0,M,0.0,M,,*65
$GPGSA,A,3,01,02,03,04,05,06,07,08,09,10,11,12,1.0,1.0,1.0*30
$GPRMC,045441.790,A,2839.679,N,07719.757,E,388.8,051.8,280823,000.0,W*75
$GPGGA,045442.790,2839.751,N,07719.848,E,1,12,1.0,0.0,M,0.0,M,,*6C
$GPGSA,A,3,01,02,03,04,05,06,07,08,09,10,11,12,1.0,1.0,1.0*30
$GPRMC,045442.790,A,2839.751,N,07719.848,E,388.8,051.8,280823,000.0,W*7C
$GPGGA,045443.790,2839.823,N,07719.940,E,1,12,1.0,0.0,M,0.0,M,,*6E
$GPGSA,A,3,01,02,03,04,05,06,07,08,09,10,11,12,1.0,1.0,1.0*30
$GPRMC,045443.790,A,2839.823,N,07719.940,E,388.8,051.8,280823,000.0,W*7E
$GPGGA,045444.790,2839.895,N,07720.031,E,1,12,1.0,0.0,M,0.0,M,,*61
$GPGSA,A,3,01,02,03,04,05,06,07,08,09,10,11,12,1.0,1.0,1.0*30
$GPRMC,045444.790,A,2839.895,N,07720.031,E,388.8,052.3,280823,000.0,W*79
$GPGGA,045445.790,2839.966,N,07720.124,E,1,12,1.0,0.0,M,0.0,M,,*68
$GPGSA,A,3,01,02,03,04,05,06,07,08,09,10,11,12,1.0,1.0,1.0*30
$GPRMC,045445.790,A,2839.966,N,07720.124,E,388.8,052.3,280823,000.0,W*70
$GPGGA,045446.790,2840.038,N,07720.216,E,1,12,1.0,0.0,M,0.0,M,,*65
$GPGSA,A,3,01,02,03,04,05,06,07,08,09,10,11,12,1.0,1.0,1.0*30
$GPRMC,045446.790,A,2840.038,N,07720.216,E,388.8,052.3,280823,000.0,W*7D
$GPGGA,045447.790,2840.109,N,07720.309,E,1,12,1.0,0.0,M,0.0,M,,*68
$GPGSA,A,3,01,02,03,04,05,06,07,08,09,10,11,12,1.0,1.0,1.0*30
$GPRMC,045447.790,A,2840.109,N,07720.309,E,388.8,052.3,280823,000.0,W*70
$GPGGA,045448.790,2840.180,N,07720.401,E,1,12,1.0,0.0,M,0.0,M,,*69
$GPGSA,A,3,01,02,03,04,05,06,07,08,09,10,11,12,1.0,1.0,1.0*30
$GPRMC,045448.790,A,2840.180,N,07720.401,E,388.8,050.9,280823,000.0,W*79
$GPGGA,045449.790,2840.254,N,07720.491,E,1,12,1.0,0.0,M,0.0,M,,*6B
$GPGSA,A,3,01,02,03,04,05,06,07,08,09,10,11,12,1.0,1.0,1.0*30
$GPRMC,045449.790,A,2840.254,N,07720.491,E,388.8,050.9,280823,000.0,W*7B
$GPGGA,045450.790,2840.327,N,07720.581,E,1,12,1.0,0.0,M,0.0,M,,*66
$GPGSA,A,3,01,02,03,04,05,06,07,08,09,10,11,12,1.0,1.0,1.0*30
$GPRMC,045450.790,A,2840.327,N,07720.581,E,388.8,059.7,280823,000.0,W*71
