$GPGGA,084939.671,2839.019,N,07718.910,E,1,12,1.0,0.0,M,0.0,M,,*68
$GPGSA,A,3,01,02,03,04,05,06,07,08,09,10,11,12,1.0,1.0,1.0*30
$GPRMC,084939.671,A,2839.019,N,07718.910,E,000.4,042.3,130624,000.0,W*7F
$GPGGA,084940.671,2839.019,N,07718.910,E,1,12,1.0,0.0,M,0.0,M,,*66
$GPGSA,A,3,01,02,03,04,05,06,07,08,09,10,11,12,1.0,1.0,1.0*30
$GPRMC,084940.671,A,2839.019,N,07718.910,E,000.4,000.0,130624,000.0,W*74
$GPGGA,084941.671,2839.019,N,07718.910,E,1,12,1.0,0.0,M,0.0,M,,*67
$GPGSA,A,3,01,02,03,04,05,06,07,08,09,10,11,12,1.0,1.0,1.0*30
$GPRMC,084941.671,A,2839.019,N,07718.910,E,000.0,000.0,130624,000.0,W*71
$GPGGA,084942.671,2839.019,N,07718.910,E,1,12,1.0,0.0,M,0.0,M,,*64
$GPGSA,A,3,01,02,03,04,05,06,07,08,09,10,11,12,1.0,1.0,1.0*30
$GPRMC,084942.671,A,2839.019,N,07718.910,E,000.0,000.0,130624,000.0,W*72
$GPGGA,084943.671,2839.019,N,07718.910,E,1,12,1.0,0.0,M,0.0,M,,*65
$GPGSA,A,3,01,02,03,04,05,06,07,08,09,10,11,12,1.0,1.0,1.0*30
$GPRMC,084943.671,A,2839.019,N,07718.910,E,000.0,000.0,130624,000.0,W*73
$GPGGA,084944.671,2839.019,N,07718.910,E,1,12,1.0,0.0,M,0.0,M,,*62
$GPGSA,A,3,01,02,03,04,05,06,07,08,09,10,11,12,1.0,1.0,1.0*30
$GPRMC,084944.671,A,2839.019,N,07718.910,E,000.0,000.0,130624,000.0,W*74
$GPGGA,084945.671,2839.019,N,07718.910,E,1,12,1.0,0.0,M,0.0,M,,*63
$GPGSA,A,3,01,02,03,04,05,06,07,08,09,10,11,12,1.0,1.0,1.0*30
$GPRMC,084945.671,A,2839.019,N,07718.910,E,000.0,000.0,130624,000.0,W*75
$GPGGA,084946.671,2839.019,N,07718.910,E,1,12,1.0,0.0,M,0.0,M,,*60
$GPGSA,A,3,01,02,03,04,05,06,07,08,09,10,11,12,1.0,1.0,1.0*30
$GPRMC,084946.671,A,2839.019,N,07718.910,E,000.0,000.0,130624,000.0,W*76
$GPGGA,084947.671,2839.019,N,07718.910,E,1,12,1.0,0.0,M,0.0,M,,*61
$GPGSA,A,3,01,02,03,04,05,06,07,08,09,10,11,12,1.0,1.0,1.0*30
$GPRMC,084947.671,A,2839.019,N,07718.910,E,000.0,000.0,130624,000.0,W*77
$GPGGA,084948.671,2839.019,N,07718.910,E,1,12,1.0,0.0,M,0.0,M,,*6E
$GPGSA,A,3,01,02,03,04,05,06,07,08,09,10,11,12,1.0,1.0,1.0*30
$GPRMC,084948.671,A,2839.019,N,07718.910,E,000.0,000.0,130624,000.0,W*78
$GPGGA,084949.671,2839.019,N,07718.910,E,1,12,1.0,0.0,M,0.0,M,,*6F
$GPGSA,A,3,01,02,03,04,05,06,07,08,09,10,11,12,1.0,1.0,1.0*30
$GPRMC,084949.671,A,2839.019,N,07718.910,E,000.0,000.0,130624,000.0,W*79
$GPGGA,084950.671,2839.019,N,07718.910,E,1,12,1.0,0.0,M,0.0,M,,*67
$GPGSA,A,3,01,02,03,04,05,06,07,08,09,10,11,12,1.0,1.0,1.0*30
$GPRMC,084950.671,A,2839.019,N,07718.910,E,000.0,000.0,130624,000.0,W*71
$GPGGA,084951.671,2839.019,N,07718.910,E,1,12,1.0,0.0,M,0.0,M,,*66
$GPGSA,A,3,01,02,03,04,05,06,07,08,09,10,11,12,1.0,1.0,1.0*30
$GPRMC,084951.671,A,2839.019,N,07718.910,E,000.0,000.0,130624,000.0,W*70
$GPGGA,084952.671,2839.019,N,07718.910,E,1,12,1.0,0.0,M,0.0,M,,*65
$GPGSA,A,3,01,02,03,04,05,06,07,08,09,10,11,12,1.0,1.0,1.0*30
$GPRMC,084952.671,A,2839.019,N,07718.910,E,000.0,000.0,130624,000.0,W*73
$GPGGA,084953.671,2839.019,N,07718.910,E,1,12,1.0,0.0,M,0.0,M,,*64
$GPGSA,A,3,01,02,03,04,05,06,07,08,09,10,11,12,1.0,1.0,1.0*30
$GPRMC,084953.671,A,2839.019,N,07718.910,E,000.0,000.0,130624,000.0,W*72
$GPGGA,084954.671,2839.019,N,07718.910,E,1,12,1.0,0.0,M,0.0,M,,*63
$GPGSA,A,3,01,02,03,04,05,06,07,08,09,10,11,12,1.0,1.0,1.0*30
$GPRMC,084954.671,A,2839.019,N,07718.910,E,000.0,000.0,130624,000.0,W*75
$GPGGA,084955.671,2839.019,N,07718.910,E,1,12,1.0,0.0,M,0.0,M,,*62
$GPGSA,A,3,01,02,03,04,05,06,07,08,09,10,11,12,1.0,1.0,1.0*30
$GPRMC,084955.671,A,2839.019,N,07718.910,E,000.0,000.0,130624,000.0,W*74
$GPGGA,084956.671,2839.019,N,07718.910,E,1,12,1.0,0.0,M,0.0,M,,*61
$GPGSA,A,3,01,02,03,04,05,06,07,08,09,10,11,12,1.0,1.0,1.0*30
$GPRMC,084956.671,A,2839.019,N,07718.910,E,000.0,000.0,130624,000.0,W*77
$GPGGA,084957.671,2839.019,N,07718.910,E,1,12,1.0,0.0,M,0.0,M,,*60
$GPGSA,A,3,01,02,03,04,05,06,07,08,09,10,11,12,1.0,1.0,1.0*30
$GPRMC,084957.671,A,2839.019,N,07718.910,E,000.0,000.0,130624,000.0,W*76
$GPGGA,084958.671,2839.019,N,07718.910,E,1,12,1.0,0.0,M,0.0,M,,*6F
$GPGSA,A,3,01,02,03,04,05,06,07,08,09,10,11,12,1.0,1.0,1.0*30
$GPRMC,084958.671,A,2839.019,N,07718.910,E,000.0,000.0,130624,000.0,W*79
$GPGGA,084959.671,2839.019,N,07718.910,E,1,12,1.0,0.0,M,0.0,M,,*6E
$GPGSA,A,3,01,02,03,04,05,06,07,08,09,10,11,12,1.0,1.0,1.0*30
$GPRMC,084959.671,A,2839.019,N,07718.910,E,000.0,000.0,130624,000.0,W*78
$GPGGA,085000.671,2839.019,N,07718.910,E,1,12,1.0,0.0,M,0.0,M,,*6A
$GPGSA,A,3,01,02,03,04,05,06,07,08,09,10,11,12,1.0,1.0,1.0*30
$GPRMC,085000.671,A,2839.019,N,07718.910,E,000.0,000.0,130624,000.0,W*7C
$GPGGA,085001.671,2839.019,N,07718.910,E,1,12,1.0,0.0,M,0.0,M,,*6B
$GPGSA,A,3,01,02,03,04,05,06,07,08,09,10,11,12,1.0,1.0,1.0*30
$GPRMC,085001.671,A,2839.019,N,07718.910,E,000.0,000.0,130624,000.0,W*7D
$GPGGA,085002.671,2839.019,N,07718.910,E,1,12,1.0,0.0,M,0.0,M,,*68
$GPGSA,A,3,01,02,03,04,05,06,07,08,09,10,11,12,1.0,1.0,1.0*30
$GPRMC,085002.671,A,2839.019,N,07718.910,E,000.0,000.0,130624,000.0,W*7E
$GPGGA,085003.671,2839.019,N,07718.910,E,1,12,1.0,0.0,M,0.0,M,,*69
$GPGSA,A,3,01,02,03,04,05,06,07,08,09,10,11,12,1.0,1.0,1.0*30
$GPRMC,085003.671,A,2839.019,N,07718.910,E,000.0,000.0,130624,000.0,W*7F
$GPGGA,085004.671,2839.019,N,07718.910,E,1,12,1.0,0.0,M,0.0,M,,*6E
$GPGSA,A,3,01,02,03,04,05,06,07,08,09,10,11,12,1.0,1.0,1.0*30
$GPRMC,085004.671,A,2839.019,N,07718.910,E,000.0,000.0,130624,000.0,W*78
$GPGGA,085005.671,2839.019,N,07718.910,E,1,12,1.0,0.0,M,0.0,M,,*6F
$GPGSA,A,3,01,02,03,04,05,06,07,08,09,10,11,12,1.0,1.0,1.0*30
$GPRMC,085005.671,A,2839.019,N,07718.910,E,000.0,000.0,130624,000.0,W*79
$GPGGA,085006.671,2839.019,N,07718.910,E,1,12,1.0,0.0,M,0.0,M,,*6C
$GPGSA,A,3,01,02,03,04,05,06,07,08,09,10,11,12,1.0,1.0,1.0*30
$GPRMC,085006.671,A,2839.019,N,07718.910,E,000.0,000.0,130624,000.0,W*7A
$GPGGA,085007.671,2839.019,N,07718.910,E,1,12,1.0,0.0,M,0.0,M,,*6D
$GPGSA,A,3,01,02,03,04,05,06,07,08,09,10,11,12,1.0,1.0,1.0*30
$GPRMC,085007.671,A,2839.019,N,07718.910,E,000.0,000.0,130624,000.0,W*7B
$GPGGA,085008.671,2839.019,N,07718.910,E,1,12,1.0,0.0,M,0.0,M,,*62
$GPGSA,A,3,01,02,03,04,05,06,07,08,09,10,11,12,1.0,1.0,1.0*30
$GPRMC,085008.671,A,2839.019,N,07718.910,E,000.0,000.0,130624,000.0,W*74
$GPGGA,085009.671,2839.019,N,07718.910,E,1,12,1.0,0.0,M,0.0,M,,*63
$GPGSA,A,3,01,02,03,04,05,06,07,08,09,10,11,12,1.0,1.0,1.0*30
$GPRMC,085009.671,A,2839.019,N,07718.910,E,000.0,000.0,130624,000.0,W*75
$GPGGA,085010.671,2839.019,N,07718.910,E,1,12,1.0,0.0,M,0.0,M,,*6B
$GPGSA,A,3,01,02,03,04,05,06,07,08,09,10,11,12,1.0,1.0,1.0*30
$GPRMC,085010.671,A,2839.019,N,07718.910,E,000.0,000.0,130624,000.0,W*7D
$GPGGA,085011.671,2839.019,N,07718.910,E,1,12,1.0,0.0,M,0.0,M,,*6A
$GPGSA,A,3,01,02,03,04,05,06,07,08,09,10,11,12,1.0,1.0,1.0*30
$GPRMC,085011.671,A,2839.019,N,07718.910,E,000.0,000.0,130624,000.0,W*7C
$GPGGA,085012.671,2839.019,N,07718.910,E,1,12,1.0,0.0,M,0.0,M,,*69
$GPGSA,A,3,01,02,03,04,05,06,07,08,09,10,11,12,1.0,1.0,1.0*30
$GPRMC,085012.671,A,2839.019,N,07718.910,E,000.0,000.0,130624,000.0,W*7F
$GPGGA,085013.671,2839.019,N,07718.910,E,1,12,1.0,0.0,M,0.0,M,,*68
$GPGSA,A,3,01,02,03,04,05,06,07,08,09,10,11,12,1.0,1.0,1.0*30
$GPRMC,085013.671,A,2839.019,N,07718.910,E,000.0,000.0,130624,000.0,W*7E
$GPGGA,085014.671,2839.019,N,07718.910,E,1,12,1.0,0.0,M,0.0,M,,*6F
$GPGSA,A,3,01,02,03,04,05,06,07,08,09,10,11,12,1.0,1.0,1.0*30
$GPRMC,085014.671,A,2839.019,N,07718.910,E,000.0,000.0,130624,000.0,W*79
$GPGGA,085015.671,2839.019,N,07718.910,E,1,12,1.0,0.0,M,0.0,M,,*6E
$GPGSA,A,3,01,02,03,04,05,06,07,08,09,10,11,12,1.0,1.0,1.0*30
$GPRMC,085015.671,A,2839.019,N,07718.910,E,000.0,000.0,130624,000.0,W*78
$GPGGA,085016.671,2839.019,N,07718.910,E,1,12,1.0,0.0,M,0.0,M,,*6D
$GPGSA,A,3,01,02,03,04,05,06,07,08,09,10,11,12,1.0,1.0,1.0*30
$GPRMC,085016.671,A,2839.019,N,07718.910,E,000.0,000.0,130624,000.0,W*7B
$GPGGA,085017.671,2839.019,N,07718.910,E,1,12,1.0,0.0,M,0.0,M,,*6C
$GPGSA,A,3,01,02,03,04,05,06,07,08,09,10,11,12,1.0,1.0,1.0*30
$GPRMC,085017.671,A,2839.019,N,07718.910,E,000.0,000.0,130624,000.0,W*7A
$GPGGA,085018.671,2839.019,N,07718.910,E,1,12,1.0,0.0,M,0.0,M,,*63
$GPGSA,A,3,01,02,03,04,05,06,07,08,09,10,11,12,1.0,1.0,1.0*30
$GPRMC,085018.671,A,2839.019,N,07718.910,E,000.0,000.0,130624,000.0,W*75
$GPGGA,085019.671,2839.019,N,07718.910,E,1,12,1.0,0.0,M,0.0,M,,*62
$GPGSA,A,3,01,02,03,04,05,06,07,08,09,10,11,12,1.0,1.0,1.0*30
$GPRMC,085019.671,A,2839.019,N,07718.910,E,000.0,000.0,130624,000.0,W*74
$GPGGA,085020.671,2839.019,N,07718.910,E,1,12,1.0,0.0,M,0.0,M,,*68
$GPGSA,A,3,01,02,03,04,05,06,07,08,09,10,11,12,1.0,1.0,1.0*30
$GPRMC,085020.671,A,2839.019,N,07718.910,E,000.0,000.0,130624,000.0,W*7E
$GPGGA,085021.671,2839.019,N,07718.910,E,1,12,1.0,0.0,M,0.0,M,,*69
$GPGSA,A,3,01,02,03,04,05,06,07,08,09,10,11,12,1.0,1.0,1.0*30
$GPRMC,085021.671,A,2839.019,N,07718.910,E,000.0,000.0,130624,000.0,W*7F
$GPGGA,085022.671,2839.019,N,07718.910,E,1,12,1.0,0.0,M,0.0,M,,*6A
$GPGSA,A,3,01,02,03,04,05,06,07,08,09,10,11,12,1.0,1.0,1.0*30
$GPRMC,085022.671,A,2839.019,N,07718.910,E,000.0,000.0,130624,000.0,W*7C
$GPGGA,085023.671,2839.019,N,07718.910,E,1,12,1.0,0.0,M,0.0,M,,*6B
$GPGSA,A,3,01,02,03,04,05,06,07,08,09,10,11,12,1.0,1.0,1.0*30
$GPRMC,085023.671,A,2839.019,N,07718.910,E,000.0,000.0,130624,000.0,W*7D
$GPGGA,085024.671,2839.019,N,07718.910,E,1,12,1.0,0.0,M,0.0,M,,*6C
$GPGSA,A,3,01,02,03,04,05,06,07,08,09,10,11,12,1.0,1.0,1.0*30
$GPRMC,085024.671,A,2839.019,N,07718.910,E,000.0,000.0,130624,000.0,W*7A
$GPGGA,085025.671,2839.019,N,07718.910,E,1,12,1.0,0.0,M,0.0,M,,*6D
$GPGSA,A,3,01,02,03,04,05,06,07,08,09,10,11,12,1.0,1.0,1.0*30
$GPRMC,085025.671,A,2839.019,N,07718.910,E,000.0,000.0,130624,000.0,W*7B
$GPGGA,085026.671,2839.019,N,07718.910,E,1,12,1.0,0.0,M,0.0,M,,*6E
$GPGSA,A,3,01,02,03,04,05,06,07,08,09,10,11,12,1.0,1.0,1.0*30
$GPRMC,085026.671,A,2839.019,N,07718.910,E,000.0,000.0,130624,000.0,W*78
$GPGGA,085027.671,2839.019,N,07718.910,E,1,12,1.0,0.0,M,0.0,M,,*6F
$GPGSA,A,3,01,02,03,04,05,06,07,08,09,10,11,12,1.0,1.0,1.0*30
$GPRMC,085027.671,A,2839.019,N,07718.910,E,000.0,000.0,130624,000.0,W*79
$GPGGA,085028.671,2839.019,N,07718.910,E,1,12,1.0,0.0,M,0.0,M,,*60
$GPGSA,A,3,01,02,03,04,05,06,07,08,09,10,11,12,1.0,1.0,1.0*30
$GPRMC,085028.671,A,2839.019,N,07718.910,E,000.0,000.0,130624,000.0,W*76
$GPGGA,085029.671,2839.019,N,07718.910,E,1,12,1.0,0.0,M,0.0,M,,*61
$GPGSA,A,3,01,02,03,04,05,06,07,08,09,10,11,12,1.0,1.0,1.0*30
$GPRMC,085029.671,A,2839.019,N,07718.910,E,000.0,000.0,130624,000.0,W*77
$GPGGA,085030.671,2839.019,N,07718.910,E,1,12,1.0,0.0,M,0.0,M,,*69
$GPGSA,A,3,01,02,03,04,05,06,07,08,09,10,11,12,1.0,1.0,1.0*30
$GPRMC,085030.671,A,2839.019,N,07718.910,E,000.0,000.0,130624,000.0,W*7F
$GPGGA,085031.671,2839.019,N,07718.910,E,1,12,1.0,0.0,M,0.0,M,,*68
$GPGSA,A,3,01,02,03,04,05,06,07,08,09,10,11,12,1.0,1.0,1.0*30
$GPRMC,085031.671,A,2839.019,N,07718.910,E,000.0,000.0,130624,000.0,W*7E
$GPGGA,085032.671,2839.019,N,07718.910,E,1,12,1.0,0.0,M,0.0,M,,*6B
$GPGSA,A,3,01,02,03,04,05,06,07,08,09,10,11,12,1.0,1.0,1.0*30
$GPRMC,085032.671,A,2839.019,N,07718.910,E,000.0,000.0,130624,000.0,W*7D
$GPGGA,085033.671,2839.019,N,07718.910,E,1,12,1.0,0.0,M,0.0,M,,*6A
$GPGSA,A,3,01,02,03,04,05,06,07,08,09,10,11,12,1.0,1.0,1.0*30
$GPRMC,085033.671,A,2839.019,N,07718.910,E,000.0,000.0,130624,000.0,W*7C
$GPGGA,085034.671,2839.019,N,07718.910,E,1,12,1.0,0.0,M,0.0,M,,*6D
$GPGSA,A,3,01,02,03,04,05,06,07,08,09,10,11,12,1.0,1.0,1.0*30
$GPRMC,085034.671,A,2839.019,N,07718.910,E,000.0,000.0,130624,000.0,W*7B
$GPGGA,085035.671,2839.019,N,07718.910,E,1,12,1.0,0.0,M,0.0,M,,*6C
$GPGSA,A,3,01,02,03,04,05,06,07,08,09,10,11,12,1.0,1.0,1.0*30
$GPRMC,085035.671,A,2839.019,N,07718.910,E,000.0,000.0,130624,000.0,W*7A
$GPGGA,085036.671,2839.019,N,07718.910,E,1,12,1.0,0.0,M,0.0,M,,*6F
$GPGSA,A,3,01,02,03,04,05,06,07,08,09,10,11,12,1.0,1.0,1.0*30
$GPRMC,085036.671,A,2839.019,N,07718.910,E,000.0,000.0,130624,000.0,W*79
$GPGGA,085037.671,2839.019,N,07718.910,E,1,12,1.0,0.0,M,0.0,M,,*6E
$GPGSA,A,3,01,02,03,04,05,06,07,08,09,10,11,12,1.0,1.0,1.0*30
$GPRMC,085037.671,A,2839.019,N,07718.910,E,000.0,000.0,130624,000.0,W*78
$GPGGA,085038.671,2839.019,N,07718.910,E,1,12,1.0,0.0,M,0.0,M,,*61
$GPGSA,A,3,01,02,03,04,05,06,07,08,09,10,11,12,1.0,1.0,1.0*30
$GPRMC,085038.671,A,2839.019,N,07718.910,E,000.0,000.0,130624,000.0,W*77
$GPGGA,085039.671,2839.019,N,07718.910,E,1,12,1.0,0.0,M,0.0,M,,*60
$GPGSA,A,3,01,02,03,04,05,06,07,08,09,10,11,12,1.0,1.0,1.0*30
$GPRMC,085039.671,A,2839.019,N,07718.910,E,000.0,000.0,130624,000.0,W*76
$GPGGA,085040.671,2839.019,N,07718.910,E,1,12,1.0,0.0,M,0.0,M,,*6E
$GPGSA,A,3,01,02,03,04,05,06,07,08,09,10,11,12,1.0,1.0,1.0*30
$GPRMC,085040.671,A,2839.019,N,07718.910,E,000.0,000.0,130624,000.0,W*78
$GPGGA,085041.671,2839.019,N,07718.910,E,1,12,1.0,0.0,M,0.0,M,,*6F
$GPGSA,A,3,01,02,03,04,05,06,07,08,09,10,11,12,1.0,1.0,1.0*30
$GPRMC,085041.671,A,2839.019,N,07718.910,E,000.0,000.0,130624,000.0,W*79
$GPGGA,085042.671,2839.019,N,07718.910,E,1,12,1.0,0.0,M,0.0,M,,*6C
$GPGSA,A,3,01,02,03,04,05,06,07,08,09,10,11,12,1.0,1.0,1.0*30
$GPRMC,085042.671,A,2839.019,N,07718.910,E,000.0,000.0,130624,000.0,W*7A
$GPGGA,085043.671,2839.019,N,07718.910,E,1,12,1.0,0.0,M,0.0,M,,*6D
$GPGSA,A,3,01,02,03,04,05,06,07,08,09,10,11,12,1.0,1.0,1.0*30
$GPRMC,085043.671,A,2839.019,N,07718.910,E,000.0,000.0,130624,000.0,W*7B
$GPGGA,085044.671,2839.019,N,07718.910,E,1,12,1.0,0.0,M,0.0,M,,*6A
$GPGSA,A,3,01,02,03,04,05,06,07,08,09,10,11,12,1.0,1.0,1.0*30
$GPRMC,085044.671,A,2839.019,N,07718.910,E,000.0,000.0,130624,000.0,W*7C
$GPGGA,085045.671,2839.019,N,07718.910,E,1,12,1.0,0.0,M,0.0,M,,*6B
$GPGSA,A,3,01,02,03,04,05,06,07,08,09,10,11,12,1.0,1.0,1.0*30
$GPRMC,085045.671,A,2839.019,N,07718.910,E,000.0,000.0,130624,000.0,W*7D
$GPGGA,085046.671,2839.019,N,07718.910,E,1,12,1.0,0.0,M,0.0,M,,*68
$GPGSA,A,3,01,02,03,04,05,06,07,08,09,10,11,12,1.0,1.0,1.0*30
$GPRMC,085046.671,A,2839.019,N,07718.910,E,000.0,000.0,130624,000.0,W*7E
$GPGGA,085047.671,2839.019,N,07718.910,E,1,12,1.0,0.0,M,0.0,M,,*69
$GPGSA,A,3,01,02,03,04,05,06,07,08,09,10,11,12,1.0,1.0,1.0*30
$GPRMC,085047.671,A,2839.019,N,07718.910,E,000.0,000.0,130624,000.0,W*7F
$GPGGA,085048.671,2839.019,N,07718.910,E,1,12,1.0,0.0,M,0.0,M,,*66
$GPGSA,A,3,01,02,03,04,05,06,07,08,09,10,11,12,1.0,1.0,1.0*30
$GPRMC,085048.671,A,2839.019,N,07718.910,E,000.0,000.0,130624,000.0,W*70
$GPGGA,085049.671,2839.019,N,07718.910,E,1,12,1.0,0.0,M,0.0,M,,*67
$GPGSA,A,3,01,02,03,04,05,06,07,08,09,10,11,12,1.0,1.0,1.0*30
$GPRMC,085049.671,A,2839.019,N,07718.910,E,000.0,000.0,130624,000.0,W*71
$GPGGA,085050.671,2839.019,N,07718.910,E,1,12,1.0,0.0,M,0.0,M,,*6F
$GPGSA,A,3,01,02,03,04,05,06,07,08,09,10,11,12,1.0,1.0,1.0*30
$GPRMC,085050.671,A,2839.019,N,07718.910,E,000.0,000.0,130624,000.0,W*79
$GPGGA,085051.671,2839.019,N,07718.910,E,1,12,1.0,0.0,M,0.0,M,,*6E
$GPGSA,A,3,01,02,03,04,05,06,07,08,09,10,11,12,1.0,1.0,1.0*30
$GPRMC,085051.671,A,2839.019,N,07718.910,E,000.0,000.0,130624,000.0,W*78
$GPGGA,085052.671,2839.019,N,07718.910,E,1,12,1.0,0.0,M,0.0,M,,*6D
$GPGSA,A,3,01,02,03,04,05,06,07,08,09,10,11,12,1.0,1.0,1.0*30
$GPRMC,085052.671,A,2839.019,N,07718.910,E,000.0,000.0,130624,000.0,W*7B
$GPGGA,085053.671,2839.019,N,07718.910,E,1,12,1.0,0.0,M,0.0,M,,*6C
$GPGSA,A,3,01,02,03,04,05,06,07,08,09,10,11,12,1.0,1.0,1.0*30
$GPRMC,085053.671,A,2839.019,N,07718.910,E,000.0,000.0,130624,000.0,W*7A
$GPGGA,085054.671,2839.019,N,07718.910,E,1,12,1.0,0.0,M,0.0,M,,*6B
$GPGSA,A,3,01,02,03,04,05,06,07,08,09,10,11,12,1.0,1.0,1.0*30
$GPRMC,085054.671,A,2839.019,N,07718.910,E,000.0,000.0,130624,000.0,W*7D
$GPGGA,085055.671,2839.019,N,07718.910,E,1,12,1.0,0.0,M,0.0,M,,*6A
$GPGSA,A,3,01,02,03,04,05,06,07,08,09,10,11,12,1.0,1.0,1.0*30
$GPRMC,085055.671,A,2839.019,N,07718.910,E,000.0,000.0,130624,000.0,W*7C
$GPGGA,085056.671,2839.019,N,07718.910,E,1,12,1.0,0.0,M,0.0,M,,*69
$GPGSA,A,3,01,02,03,04,05,06,07,08,09,10,11,12,1.0,1.0,1.0*30
$GPRMC,085056.671,A,2839.019,N,07718.910,E,000.0,000.0,130624,000.0,W*7F
$GPGGA,085057.671,2839.019,N,07718.910,E,1,12,1.0,0.0,M,0.0,M,,*68
$GPGSA,A,3,01,02,03,04,05,06,07,08,09,10,11,12,1.0,1.0,1.0*30
$GPRMC,085057.671,A,2839.019,N,07718.910,E,000.0,000.0,130624,000.0,W*7E
$GPGGA,085058.671,2839.019,N,07718.910,E,1,12,1.0,0.0,M,0.0,M,,*67
$GPGSA,A,3,01,02,03,04,05,06,07,08,09,10,11,12,1.0,1.0,1.0*30
$GPRMC,085058.671,A,2839.019,N,07718.910,E,000.0,000.0,130624,000.0,W*71
$GPGGA,085059.671,2839.019,N,07718.910,E,1,12,1.0,0.0,M,0.0,M,,*66
$GPGSA,A,3,01,02,03,04,05,06,07,08,09,10,11,12,1.0,1.0,1.0*30
$GPRMC,085059.671,A,2839.019,N,07718.910,E,000.0,000.0,130624,000.0,W*70
$GPGGA,085100.671,2839.019,N,07718.910,E,1,12,1.0,0.0,M,0.0,M,,*6B
$GPGSA,A,3,01,02,03,04,05,06,07,08,09,10,11,12,1.0,1.0,1.0*30
$GPRMC,085100.671,A,2839.019,N,07718.910,E,000.0,000.0,130624,000.0,W*7D
$GPGGA,085101.671,2839.019,N,07718.910,E,1,12,1.0,0.0,M,0.0,M,,*6A
$GPGSA,A,3,01,02,03,04,05,06,07,08,09,10,11,12,1.0,1.0,1.0*30
$GPRMC,085101.671,A,2839.019,N,07718.910,E,000.0,000.0,130624,000.0,W*7C
$GPGGA,085102.671,2839.019,N,07718.910,E,1,12,1.0,0.0,M,0.0,M,,*69
$GPGSA,A,3,01,02,03,04,05,06,07,08,09,10,11,12,1.0,1.0,1.0*30
$GPRMC,085102.671,A,2839.019,N,07718.910,E,000.0,000.0,130624,000.0,W*7F
$GPGGA,085103.671,2839.019,N,07718.910,E,1,12,1.0,0.0,M,0.0,M,,*68
$GPGSA,A,3,01,02,03,04,05,06,07,08,09,10,11,12,1.0,1.0,1.0*30
$GPRMC,085103.671,A,2839.019,N,07718.910,E,000.0,000.0,130624,000.0,W*7E
$GPGGA,085104.671,2839.019,N,07718.910,E,1,12,1.0,0.0,M,0.0,M,,*6F
$GPGSA,A,3,01,02,03,04,05,06,07,08,09,10,11,12,1.0,1.0,1.0*30
$GPRMC,085104.671,A,2839.019,N,07718.910,E,000.0,000.0,130624,000.0,W*79
$GPGGA,085105.671,2839.019,N,07718.910,E,1,12,1.0,0.0,M,0.0,M,,*6E
$GPGSA,A,3,01,02,03,04,05,06,07,08,09,10,11,12,1.0,1.0,1.0*30
$GPRMC,085105.671,A,2839.019,N,07718.910,E,000.0,000.0,130624,000.0,W*78
$GPGGA,085106.671,2839.019,N,07718.910,E,1,12,1.0,0.0,M,0.0,M,,*6D
$GPGSA,A,3,01,02,03,04,05,06,07,08,09,10,11,12,1.0,1.0,1.0*30
$GPRMC,085106.671,A,2839.019,N,07718.910,E,000.0,000.0,130624,000.0,W*7B
$GPGGA,085107.671,2839.019,N,07718.910,E,1,12,1.0,0.0,M,0.0,M,,*6C
$GPGSA,A,3,01,02,03,04,05,06,07,08,09,10,11,12,1.0,1.0,1.0*30
$GPRMC,085107.671,A,2839.019,N,07718.910,E,000.0,000.0,130624,000.0,W*7A
$GPGGA,085108.671,2839.019,N,07718.910,E,1,12,1.0,0.0,M,0.0,M,,*63
$GPGSA,A,3,01,02,03,04,05,06,07,08,09,10,11,12,1.0,1.0,1.0*30
$GPRMC,085108.671,A,2839.019,N,07718.910,E,000.0,000.0,130624,000.0,W*75
$GPGGA,085109.671,2839.019,N,07718.910,E,1,12,1.0,0.0,M,0.0,M,,*62
$GPGSA,A,3,01,02,03,04,05,06,07,08,09,10,11,12,1.0,1.0,1.0*30
$GPRMC,085109.671,A,2839.019,N,07718.910,E,000.0,000.0,130624,000.0,W*74
$GPGGA,085110.671,2839.019,N,07718.910,E,1,12,1.0,0.0,M,0.0,M,,*6A
$GPGSA,A,3,01,02,03,04,05,06,07,08,09,10,11,12,1.0,1.0,1.0*30
$GPRMC,085110.671,A,2839.019,N,07718.910,E,000.0,000.0,130624,000.0,W*7C
$GPGGA,085111.671,2839.019,N,07718.910,E,1,12,1.0,0.0,M,0.0,M,,*6B
$GPGSA,A,3,01,02,03,04,05,06,07,08,09,10,11,12,1.0,1.0,1.0*30
$GPRMC,085111.671,A,2839.019,N,07718.910,E,000.0,000.0,130624,000.0,W*7D
$GPGGA,085112.671,2839.019,N,07718.910,E,1,12,1.0,0.0,M,0.0,M,,*68
$GPGSA,A,3,01,02,03,04,05,06,07,08,09,10,11,12,1.0,1.0,1.0*30
$GPRMC,085112.671,A,2839.019,N,07718.910,E,000.0,000.0,130624,000.0,W*7E
$GPGGA,085113.671,2839.019,N,07718.910,E,1,12,1.0,0.0,M,0.0,M,,*69
$GPGSA,A,3,01,02,03,04,05,06,07,08,09,10,11,12,1.0,1.0,1.0*30
$GPRMC,085113.671,A,2839.019,N,07718.910,E,000.0,000.0,130624,000.0,W*7F
$GPGGA,085114.671,2839.019,N,07718.910,E,1,12,1.0,0.0,M,0.0,M,,*6E
$GPGSA,A,3,01,02,03,04,05,06,07,08,09,10,11,12,1.0,1.0,1.0*30
$GPRMC,085114.671,A,2839.019,N,07718.910,E,000.0,000.0,130624,000.0,W*78
$GPGGA,085115.671,2839.019,N,07718.910,E,1,12,1.0,0.0,M,0.0,M,,*6F
$GPGSA,A,3,01,02,03,04,05,06,07,08,09,10,11,12,1.0,1.0,1.0*30
$GPRMC,085115.671,A,2839.019,N,07718.910,E,000.0,000.0,130624,000.0,W*79
$GPGGA,085116.671,2839.019,N,07718.910,E,1,12,1.0,0.0,M,0.0,M,,*6C
$GPGSA,A,3,01,02,03,04,05,06,07,08,09,10,11,12,1.0,1.0,1.0*30
$GPRMC,085116.671,A,2839.019,N,07718.910,E,000.0,000.0,130624,000.0,W*7A
$GPGGA,085117.671,2839.019,N,07718.910,E,1,12,1.0,0.0,M,0.0,M,,*6D
$GPGSA,A,3,01,02,03,04,05,06,07,08,09,10,11,12,1.0,1.0,1.0*30
$GPRMC,085117.671,A,2839.019,N,07718.910,E,000.0,000.0,130624,000.0,W*7B
$GPGGA,085118.671,2839.019,N,07718.910,E,1,12,1.0,0.0,M,0.0,M,,*62
$GPGSA,A,3,01,02,03,04,05,06,07,08,09,10,11,12,1.0,1.0,1.0*30
$GPRMC,085118.671,A,2839.019,N,07718.910,E,000.0,000.0,130624,000.0,W*74
$GPGGA,085119.671,2839.019,N,07718.910,E,1,12,1.0,0.0,M,0.0,M,,*63
$GPGSA,A,3,01,02,03,04,05,06,07,08,09,10,11,12,1.0,1.0,1.0*30
$GPRMC,085119.671,A,2839.019,N,07718.910,E,000.0,000.0,130624,000.0,W*75
$GPGGA,085120.671,2839.019,N,07718.910,E,1,12,1.0,0.0,M,0.0,M,,*69
$GPGSA,A,3,01,02,03,04,05,06,07,08,09,10,11,12,1.0,1.0,1.0*30
$GPRMC,085120.671,A,2839.019,N,07718.910,E,000.0,000.0,130624,000.0,W*7F
$GPGGA,085121.671,2839.019,N,07718.910,E,1,12,1.0,0.0,M,0.0,M,,*68
$GPGSA,A,3,01,02,03,04,05,06,07,08,09,10,11,12,1.0,1.0,1.0*30
$GPRMC,085121.671,A,2839.019,N,07718.910,E,000.0,000.0,130624,000.0,W*7E
$GPGGA,085122.671,2839.019,N,07718.910,E,1,12,1.0,0.0,M,0.0,M,,*6B
$GPGSA,A,3,01,02,03,04,05,06,07,08,09,10,11,12,1.0,1.0,1.0*30
$GPRMC,085122.671,A,2839.019,N,07718.910,E,000.0,000.0,130624,000.0,W*7D
$GPGGA,085123.671,2839.019,N,07718.910,E,1,12,1.0,0.0,M,0.0,M,,*6A
$GPGSA,A,3,01,02,03,04,05,06,07,08,09,10,11,12,1.0,1.0,1.0*30
$GPRMC,085123.671,A,2839.019,N,07718.910,E,000.0,000.0,130624,000.0,W*7C
$GPGGA,085124.671,2839.019,N,07718.910,E,1,12,1.0,0.0,M,0.0,M,,*6D
$GPGSA,A,3,01,02,03,04,05,06,07,08,09,10,11,12,1.0,1.0,1.0*30
$GPRMC,085124.671,A,2839.019,N,07718.910,E,000.0,000.0,130624,000.0,W*7B
$GPGGA,085125.671,2839.019,N,07718.910,E,1,12,1.0,0.0,M,0.0,M,,*6C
$GPGSA,A,3,01,02,03,04,05,06,07,08,09,10,11,12,1.0,1.0,1.0*30
$GPRMC,085125.671,A,2839.019,N,07718.910,E,000.0,000.0,130624,000.0,W*7A
$GPGGA,085126.671,2839.019,N,07718.910,E,1,12,1.0,0.0,M,0.0,M,,*6F
$GPGSA,A,3,01,02,03,04,05,06,07,08,09,10,11,12,1.0,1.0,1.0*30
$GPRMC,085126.671,A,2839.019,N,07718.910,E,000.0,000.0,130624,000.0,W*79
$GPGGA,085127.671,2839.019,N,07718.910,E,1,12,1.0,0.0,M,0.0,M,,*6E
$GPGSA,A,3,01,02,03,04,05,06,07,08,09,10,11,12,1.0,1.0,1.0*30
$GPRMC,085127.671,A,2839.019,N,07718.910,E,000.0,000.0,130624,000.0,W*78
$GPGGA,085128.671,2839.019,N,07718.910,E,1,12,1.0,0.0,M,0.0,M,,*61
$GPGSA,A,3,01,02,03,04,05,06,07,08,09,10,11,12,1.0,1.0,1.0*30
$GPRMC,085128.671,A,2839.019,N,07718.910,E,000.0,000.0,130624,000.0,W*77
$GPGGA,085129.671,2839.019,N,07718.910,E,1,12,1.0,0.0,M,0.0,M,,*60
$GPGSA,A,3,01,02,03,04,05,06,07,08,09,10,11,12,1.0,1.0,1.0*30
$GPRMC,085129.671,A,2839.019,N,07718.910,E,000.0,000.0,130624,000.0,W*76
$GPGGA,085130.671,2839.019,N,07718.910,E,1,12,1.0,0.0,M,0.0,M,,*68
$GPGSA,A,3,01,02,03,04,05,06,07,08,09,10,11,12,1.0,1.0,1.0*30
$GPRMC,085130.671,A,2839.019,N,07718.910,E,000.0,000.0,130624,000.0,W*7E
$GPGGA,085131.671,2839.019,N,07718.910,E,1,12,1.0,0.0,M,0.0,M,,*69
$GPGSA,A,3,01,02,03,04,05,06,07,08,09,10,11,12,1.0,1.0,1.0*30
$GPRMC,085131.671,A,2839.019,N,07718.910,E,000.0,000.0,130624,000.0,W*7F
$GPGGA,085132.671,2839.019,N,07718.910,E,1,12,1.0,0.0,M,0.0,M,,*6A
$GPGSA,A,3,01,02,03,04,05,06,07,08,09,10,11,12,1.0,1.0,1.0*30
$GPRMC,085132.671,A,2839.019,N,07718.910,E,000.0,000.0,130624,000.0,W*7C
$GPGGA,085133.671,2839.019,N,07718.910,E,1,12,1.0,0.0,M,0.0,M,,*6B
$GPGSA,A,3,01,02,03,04,05,06,07,08,09,10,11,12,1.0,1.0,1.0*30
$GPRMC,085133.671,A,2839.019,N,07718.910,E,000.0,000.0,130624,000.0,W*7D
$GPGGA,085134.671,2839.019,N,07718.910,E,1,12,1.0,0.0,M,0.0,M,,*6C
$GPGSA,A,3,01,02,03,04,05,06,07,08,09,10,11,12,1.0,1.0,1.0*30
$GPRMC,085134.671,A,2839.019,N,07718.910,E,000.0,000.0,130624,000.0,W*7A
$GPGGA,085135.671,2839.019,N,07718.910,E,1,12,1.0,0.0,M,0.0,M,,*6D
$GPGSA,A,3,01,02,03,04,05,06,07,08,09,10,11,12,1.0,1.0,1.0*30
$GPRMC,085135.671,A,2839.019,N,07718.910,E,000.0,000.0,130624,000.0,W*7B
$GPGGA,085136.671,2839.019,N,07718.910,E,1,12,1.0,0.0,M,0.0,M,,*6E
$GPGSA,A,3,01,02,03,04,05,06,07,08,09,10,11,12,1.0,1.0,1.0*30
$GPRMC,085136.671,A,2839.019,N,07718.910,E,000.1,270.0,130624,000.0,W*7C
$GPGGA,085137.671,2839.019,N,07718.910,E,1,12,1.0,0.0,M,0.0,M,,*6F
$GPGSA,A,3,01,02,03,04,05,06,07,08,09,10,11,12,1.0,1.0,1.0*30
$GPRMC,085137.671,A,2839.019,N,07718.910,E,000.1,000.0,130624,000.0,W*78
$GPGGA,085138.671,2839.019,N,07718.910,E,1,12,1.0,0.0,M,0.0,M,,*60
$GPGSA,A,3,01,02,03,04,05,06,07,08,09,10,11,12,1.0,1.0,1.0*30
$GPRMC,085138.671,A,2839.019,N,07718.910,E,000.0,000.0,130624,000.0,W*76
$GPGGA,085139.671,2839.019,N,07718.910,E,1,12,1.0,0.0,M,0.0,M,,*61
$GPGSA,A,3,01,02,03,04,05,06,07,08,09,10,11,12,1.0,1.0,1.0*30
$GPRMC,085139.671,A,2839.019,N,07718.910,E,000.0,000.0,130624,000.0,W*77
$GPGGA,085140.671,2839.019,N,07718.910,E,1,12,1.0,0.0,M,0.0,M,,*6F
$GPGSA,A,3,01,02,03,04,05,06,07,08,09,10,11,12,1.0,1.0,1.0*30
$GPRMC,085140.671,A,2839.019,N,07718.910,E,000.0,000.0,130624,000.0,W*79
$GPGGA,085141.671,2839.019,N,07718.910,E,1,12,1.0,0.0,M,0.0,M,,*6E
$GPGSA,A,3,01,02,03,04,05,06,07,08,09,10,11,12,1.0,1.0,1.0*30
$GPRMC,085141.671,A,2839.019,N,07718.910,E,000.0,000.0,130624,000.0,W*78
$GPGGA,085142.671,2839.019,N,07718.910,E,1,12,1.0,0.0,M,0.0,M,,*6D
$GPGSA,A,3,01,02,03,04,05,06,07,08,09,10,11,12,1.0,1.0,1.0*30
$GPRMC,085142.671,A,2839.019,N,07718.910,E,000.0,000.0,130624,000.0,W*7B
$GPGGA,085143.671,2839.019,N,07718.910,E,1,12,1.0,0.0,M,0.0,M,,*6C
$GPGSA,A,3,01,02,03,04,05,06,07,08,09,10,11,12,1.0,1.0,1.0*30
$GPRMC,085143.671,A,2839.019,N,07718.910,E,000.0,000.0,130624,000.0,W*7A
$GPGGA,085144.671,2839.019,N,07718.910,E,1,12,1.0,0.0,M,0.0,M,,*6B
$GPGSA,A,3,01,02,03,04,05,06,07,08,09,10,11,12,1.0,1.0,1.0*30
$GPRMC,085144.671,A,2839.019,N,07718.910,E,000.0,000.0,130624,000.0,W*7D
$GPGGA,085145.671,2839.019,N,07718.910,E,1,12,1.0,0.0,M,0.0,M,,*6A
$GPGSA,A,3,01,02,03,04,05,06,07,08,09,10,11,12,1.0,1.0,1.0*30
$GPRMC,085145.671,A,2839.019,N,07718.910,E,194.4,052.2,130624,000.0,W*71
$GPGGA,085146.671,2839.054,N,07718.956,E,1,12,1.0,0.0,M,0.0,M,,*62
$GPGSA,A,3,01,02,03,04,05,06,07,08,09,10,11,12,1.0,1.0,1.0*30
$GPRMC,085146.671,A,2839.054,N,07718.956,E,194.4,052.2,130624,000.0,W*79
$GPGGA,085147.671,2839.090,N,07719.002,E,1,12,1.0,0.0,M,0.0,M,,*62
$GPGSA,A,3,01,02,03,04,05,06,07,08,09,10,11,12,1.0,1.0,1.0*30
$GPRMC,085147.671,A,2839.090,N,07719.002,E,194.4,052.2,130624,000.0,W*79
$GPGGA,085148.671,2839.126,N,07719.048,E,1,12,1.0,0.0,M,0.0,M,,*6F
$GPGSA,A,3,01,02,03,04,05,06,07,08,09,10,11,12,1.0,1.0,1.0*30
$GPRMC,085148.671,A,2839.126,N,07719.048,E,194.4,052.2,130624,000.0,W*74
$GPGGA,085149.671,2839.162,N,07719.094,E,1,12,1.0,0.0,M,0.0,M,,*6F
$GPGSA,A,3,01,02,03,04,05,06,07,08,09,10,11,12,1.0,1.0,1.0*30
$GPRMC,085149.671,A,2839.162,N,07719.094,E,194.4,052.2,130624,000.0,W*74
$GPGGA,085150.671,2839.197,N,07719.141,E,1,12,1.0,0.0,M,0.0,M,,*64
$GPGSA,A,3,01,02,03,04,05,06,07,08,09,10,11,12,1.0,1.0,1.0*30
$GPRMC,085150.671,A,2839.197,N,07719.141,E,194.4,052.2,130624,000.0,W*7F
$GPGGA,085151.671,2839.233,N,07719.187,E,1,12,1.0,0.0,M,0.0,M,,*62
$GPGSA,A,3,01,02,03,04,05,06,07,08,09,10,11,12,1.0,1.0,1.0*30
$GPRMC,085151.671,A,2839.233,N,07719.187,E,194.4,051.8,130624,000.0,W*70
$GPGGA,085152.671,2839.269,N,07719.232,E,1,12,1.0,0.0,M,0.0,M,,*63
$GPGSA,A,3,01,02,03,04,05,06,07,08,09,10,11,12,1.0,1.0,1.0*30
$GPRMC,085152.671,A,2839.269,N,07719.232,E,194.4,051.8,130624,000.0,W*71
$GPGGA,085153.671,2839.305,N,07719.278,E,1,12,1.0,0.0,M,0.0,M,,*67
$GPGSA,A,3,01,02,03,04,05,06,07,08,09,10,11,12,1.0,1.0,1.0*30
$GPRMC,085153.671,A,2839.305,N,07719.278,E,194.4,051.8,130624,000.0,W*75
$GPGGA,085154.671,2839.341,N,07719.324,E,1,12,1.0,0.0,M,0.0,M,,*68
$GPGSA,A,3,01,02,03,04,05,06,07,08,09,10,11,12,1.0,1.0,1.0*30
$GPRMC,085154.671,A,2839.341,N,07719.324,E,194.4,051.8,130624,000.0,W*7A
$GPGGA,085155.671,2839.377,N,07719.370,E,1,12,1.0,0.0,M,0.0,M,,*6D
$GPGSA,A,3,01,02,03,04,05,06,07,08,09,10,11,12,1.0,1.0,1.0*30
$GPRMC,085155.671,A,2839.377,N,07719.370,E,194.4,051.8,130624,000.0,W*7F
$GPGGA,085156.671,2839.413,N,07719.416,E,1,12,1.0,0.0,M,0.0,M,,*6C
$GPGSA,A,3,01,02,03,04,05,06,07,08,09,10,11,12,1.0,1.0,1.0*30
$GPRMC,085156.671,A,2839.413,N,07719.416,E,194.4,052.2,130624,000.0,W*77
$GPGGA,085157.671,2839.449,N,07719.462,E,1,12,1.0,0.0,M,0.0,M,,*61
$GPGSA,A,3,01,02,03,04,05,06,07,08,09,10,11,12,1.0,1.0,1.0*30
$GPRMC,085157.671,A,2839.449,N,07719.462,E,194.4,052.2,130624,000.0,W*7A
$GPGGA,085158.671,2839.484,N,07719.508,E,1,12,1.0,0.0,M,0.0,M,,*62
$GPGSA,A,3,01,02,03,04,05,06,07,08,09,10,11,12,1.0,1.0,1.0*30
$GPRMC,085158.671,A,2839.484,N,07719.508,E,194.4,052.2,130624,000.0,W*79
$GPGGA,085159.671,2839.520,N,07719.554,E,1,12,1.0,0.0,M,0.0,M,,*65
$GPGSA,A,3,01,02,03,04,05,06,07,08,09,10,11,12,1.0,1.0,1.0*30
$GPRMC,085159.671,A,2839.520,N,07719.554,E,194.4,052.2,130624,000.0,W*7E
$GPGGA,085200.671,2839.556,N,07719.600,E,1,12,1.0,0.0,M,0.0,M,,*69
$GPGSA,A,3,01,02,03,04,05,06,07,08,09,10,11,12,1.0,1.0,1.0*30
$GPRMC,085200.671,A,2839.556,N,07719.600,E,194.4,052.2,130624,000.0,W*72
$GPGGA,085201.671,2839.591,N,07719.646,E,1,12,1.0,0.0,M,0.0,M,,*61
$GPGSA,A,3,01,02,03,04,05,06,07,08,09,10,11,12,1.0,1.0,1.0*30
$GPRMC,085201.671,A,2839.591,N,07719.646,E,194.4,052.2,130624,000.0,W*7A
$GPGGA,085202.671,2839.627,N,07719.692,E,1,12,1.0,0.0,M,0.0,M,,*65
$GPGSA,A,3,01,02,03,04,05,06,07,08,09,10,11,12,1.0,1.0,1.0*30
$GPRMC,085202.671,A,2839.627,N,07719.692,E,194.4,052.2,130624,000.0,W*7E
$GPGGA,085203.671,2839.663,N,07719.739,E,1,12,1.0,0.0,M,0.0,M,,*64
$GPGSA,A,3,01,02,03,04,05,06,07,08,09,10,11,12,1.0,1.0,1.0*30
$GPRMC,085203.671,A,2839.663,N,07719.739,E,194.4,052.2,130624,000.0,W*7F
$GPGGA,085204.671,2839.699,N,07719.785,E,1,12,1.0,0.0,M,0.0,M,,*61
$GPGSA,A,3,01,02,03,04,05,06,07,08,09,10,11,12,1.0,1.0,1.0*30
$GPRMC,085204.671,A,2839.699,N,07719.785,E,194.4,052.2,130624,000.0,W*7A
$GPGGA,085205.671,2839.734,N,07719.831,E,1,12,1.0,0.0,M,0.0,M,,*66
$GPGSA,A,3,01,02,03,04,05,06,07,08,09,10,11,12,1.0,1.0,1.0*30
$GPRMC,085205.671,A,2839.734,N,07719.831,E,194.4,052.2,130624,000.0,W*7D
$GPGGA,085206.671,2839.770,N,07719.877,E,1,12,1.0,0.0,M,0.0,M,,*67
$GPGSA,A,3,01,02,03,04,05,06,07,08,09,10,11,12,1.0,1.0,1.0*30
$GPRMC,085206.671,A,2839.770,N,07719.877,E,194.4,052.2,130624,000.0,W*7C
$GPGGA,085207.671,2839.806,N,07719.923,E,1,12,1.0,0.0,M,0.0,M,,*68
$GPGSA,A,3,01,02,03,04,05,06,07,08,09,10,11,12,1.0,1.0,1.0*30
$GPRMC,085207.671,A,2839.806,N,07719.923,E,194.4,052.5,130624,000.0,W*74
$GPGGA,085208.671,2839.841,N,07719.969,E,1,12,1.0,0.0,M,0.0,M,,*6A
$GPGSA,A,3,01,02,03,04,05,06,07,08,09,10,11,12,1.0,1.0,1.0*30
$GPRMC,085208.671,A,2839.841,N,07719.969,E,194.4,052.5,130624,000.0,W*76
$GPGGA,085209.671,2839.877,N,07720.016,E,1,12,1.0,0.0,M,0.0,M,,*65
$GPGSA,A,3,01,02,03,04,05,06,07,08,09,10,11,12,1.0,1.0,1.0*30
$GPRMC,085209.671,A,2839.877,N,07720.016,E,194.4,052.5,130624,000.0,W*79
$GPGGA,085210.671,2839.912,N,07720.062,E,1,12,1.0,0.0,M,0.0,M,,*6C
$GPGSA,A,3,01,02,03,04,05,06,07,08,09,10,11,12,1.0,1.0,1.0*30
$GPRMC,085210.671,A,2839.912,N,07720.062,E,194.4,052.5,130624,000.0,W*70
$GPGGA,085211.671,2839.948,N,07720.108,E,1,12,1.0,0.0,M,0.0,M,,*6F
$GPGSA,A,3,01,02,03,04,05,06,07,08,09,10,11,12,1.0,1.0,1.0*30
$GPRMC,085211.671,A,2839.948,N,07720.108,E,194.4,052.5,130624,000.0,W*73
$GPGGA,085212.671,2839.983,N,07720.155,E,1,12,1.0,0.0,M,0.0,M,,*63
$GPGSA,A,3,01,02,03,04,05,06,07,08,09,10,11,12,1.0,1.0,1.0*30
$GPRMC,085212.671,A,2839.983,N,07720.155,E,194.4,052.5,130624,000.0,W*7F
$GPGGA,085213.671,2840.019,N,07720.201,E,1,12,1.0,0.0,M,0.0,M,,*64
$GPGSA,A,3,01,02,03,04,05,06,07,08,09,10,11,12,1.0,1.0,1.0*30
$GPRMC,085213.671,A,2840.019,N,07720.201,E,194.4,052.5,130624,000.0,W*78
$GPGGA,085214.671,2840.054,N,07720.247,E,1,12,1.0,0.0,M,0.0,M,,*68
$GPGSA,A,3,01,02,03,04,05,06,07,08,09,10,11,12,1.0,1.0,1.0*30
$GPRMC,085214.671,A,2840.054,N,07720.247,E,194.4,052.5,130624,000.0,W*74
$GPGGA,085215.671,2840.090,N,07720.293,E,1,12,1.0,0.0,M,0.0,M,,*68
$GPGSA,A,3,01,02,03,04,05,06,07,08,09,10,11,12,1.0,1.0,1.0*30
$GPRMC,085215.671,A,2840.090,N,07720.293,E,194.4,052.5,130624,000.0,W*74
$GPGGA,085216.671,2840.125,N,07720.340,E,1,12,1.0,0.0,M,0.0,M,,*6B
$GPGSA,A,3,01,02,03,04,05,06,07,08,09,10,11,12,1.0,1.0,1.0*30
$GPRMC,085216.671,A,2840.125,N,07720.340,E,194.4,052.5,130624,000.0,W*77
$GPGGA,085217.671,2840.161,N,07720.386,E,1,12,1.0,0.0,M,0.0,M,,*60
$GPGSA,A,3,01,02,03,04,05,06,07,08,09,10,11,12,1.0,1.0,1.0*30
$GPRMC,085217.671,A,2840.161,N,07720.386,E,194.4,052.5,130624,000.0,W*7C
$GPGGA,085218.671,2840.196,N,07720.432,E,1,12,1.0,0.0,M,0.0,M,,*6F
$GPGSA,A,3,01,02,03,04,05,06,07,08,09,10,11,12,1.0,1.0,1.0*30
$GPRMC,085218.671,A,2840.196,N,07720.432,E,194.4,062.6,130624,000.0,W*73
$GPGGA,085219.671,2840.224,N,07720.485,E,1,12,1.0,0.0,M,0.0,M,,*68
$GPGSA,A,3,01,02,03,04,05,06,07,08,09,10,11,12,1.0,1.0,1.0*30
$GPRMC,085219.671,A,2840.224,N,07720.485,E,194.4,062.6,130624,000.0,W*74
$GPGGA,085220.671,2840.251,N,07720.538,E,1,12,1.0,0.0,M,0.0,M,,*67
$GPGSA,A,3,01,02,03,04,05,06,07,08,09,10,11,12,1.0,1.0,1.0*30
$GPRMC,085220.671,A,2840.251,N,07720.538,E,194.4,062.6,130624,000.0,W*7B
$GPGGA,085221.671,2840.278,N,07720.591,E,1,12,1.0,0.0,M,0.0,M,,*6E
$GPGSA,A,3,01,02,03,04,05,06,07,08,09,10,11,12,1.0,1.0,1.0*30
$GPRMC,085221.671,A,2840.278,N,07720.591,E,194.4,077.1,130624,000.0,W*71
$GPGGA,085222.671,2840.292,N,07720.651,E,1,12,1.0,0.0,M,0.0,M,,*66
$GPGSA,A,3,01,02,03,04,05,06,07,08,09,10,11,12,1.0,1.0,1.0*30
$GPRMC,085222.671,A,2840.292,N,07720.651,E,194.4,077.1,130624,000.0,W*79
$GPGGA,085223.671,2840.306,N,07720.710,E,1,12,1.0,0.0,M,0.0,M,,*6F
$GPGSA,A,3,01,02,03,04,05,06,07,08,09,10,11,12,1.0,1.0,1.0*30
$GPRMC,085223.671,A,2840.306,N,07720.710,E,194.4,077.1,130624,000.0,W*70
$GPGGA,085224.671,2840.319,N,07720.770,E,1,12,1.0,0.0,M,0.0,M,,*60
$GPGSA,A,3,01,02,03,04,05,06,07,08,09,10,11,12,1.0,1.0,1.0*30
$GPRMC,085224.671,A,2840.319,N,07720.770,E,194.4,079.5,130624,000.0,W*75
$GPGGA,085225.671,2840.331,N,07720.830,E,1,12,1.0,0.0,M,0.0,M,,*60
$GPGSA,A,3,01,02,03,04,05,06,07,08,09,10,11,12,1.0,1.0,1.0*30
$GPRMC,085225.671,A,2840.331,N,07720.830,E,194.4,079.5,130624,000.0,W*75
$GPGGA,085226.671,2840.342,N,07720.890,E,1,12,1.0,0.0,M,0.0,M,,*6D
$GPGSA,A,3,01,02,03,04,05,06,07,08,09,10,11,12,1.0,1.0,1.0*30
$GPRMC,085226.671,A,2840.342,N,07720.890,E,194.4,079.5,130624,000.0,W*78
$GPGGA,085227.671,2840.353,N,07720.950,E,1,12,1.0,0.0,M,0.0,M,,*61
$GPGSA,A,3,01,02,03,04,05,06,07,08,09,10,11,12,1.0,1.0,1.0*30
$GPRMC,085227.671,A,2840.353,N,07720.950,E,194.4,079.5,130624,000.0,W*74
$GPGGA,085228.671,2840.364,N,07721.010,E,1,12,1.0,0.0,M,0.0,M,,*66
$GPGSA,A,3,01,02,03,04,05,06,07,08,09,10,11,12,1.0,1.0,1.0*30
$GPRMC,085228.671,A,2840.364,N,07721.010,E,194.4,079.5,130624,000.0,W*73
$GPGGA,085229.671,2840.375,N,07721.071,E,1,12,1.0,0.0,M,0.0,M,,*60
$GPGSA,A,3,01,02,03,04,05,06,07,08,09,10,11,12,1.0,1.0,1.0*30
$GPRMC,085229.671,A,2840.375,N,07721.071,E,194.4,079.5,130624,000.0,W*75
$GPGGA,085230.671,2840.386,N,07721.131,E,1,12,1.0,0.0,M,0.0,M,,*61
$GPGSA,A,3,01,02,03,04,05,06,07,08,09,10,11,12,1.0,1.0,1.0*30
$GPRMC,085230.671,A,2840.386,N,07721.131,E,194.4,079.5,130624,000.0,W*74
$GPGGA,085231.671,2840.398,N,07721.191,E,1,12,1.0,0.0,M,0.0,M,,*65
$GPGSA,A,3,01,02,03,04,05,06,07,08,09,10,11,12,1.0,1.0,1.0*30
$GPRMC,085231.671,A,2840.398,N,07721.191,E,194.4,079.5,130624,000.0,W*70
$GPGGA,085232.671,2840.409,N,07721.251,E,1,12,1.0,0.0,M,0.0,M,,*66
$GPGSA,A,3,01,02,03,04,05,06,07,08,09,10,11,12,1.0,1.0,1.0*30
$GPRMC,085232.671,A,2840.409,N,07721.251,E,194.4,079.5,130624,000.0,W*73
$GPGGA,085233.671,2840.420,N,07721.311,E,1,12,1.0,0.0,M,0.0,M,,*69
$GPGSA,A,3,01,02,03,04,05,06,07,08,09,10,11,12,1.0,1.0,1.0*30
$GPRMC,085233.671,A,2840.420,N,07721.311,E,194.4,079.5,130624,000.0,W*7C
$GPGGA,085234.671,2840.431,N,07721.371,E,1,12,1.0,0.0,M,0.0,M,,*68
$GPGSA,A,3,01,02,03,04,05,06,07,08,09,10,11,12,1.0,1.0,1.0*30
$GPRMC,085234.671,A,2840.431,N,07721.371,E,194.4,089.9,130624,000.0,W*7E
$GPGGA,085235.671,2840.431,N,07721.433,E,1,12,1.0,0.0,M,0.0,M,,*68
$GPGSA,A,3,01,02,03,04,05,06,07,08,09,10,11,12,1.0,1.0,1.0*30
$GPRMC,085235.671,A,2840.431,N,07721.433,E,194.4,089.9,130624,000.0,W*7E
$GPGGA,085236.671,2840.431,N,07721.494,E,1,12,1.0,0.0,M,0.0,M,,*66
$GPGSA,A,3,01,02,03,04,05,06,07,08,09,10,11,12,1.0,1.0,1.0*30
$GPRMC,085236.671,A,2840.431,N,07721.494,E,194.4,089.9,130624,000.0,W*70
$GPGGA,085237.671,2840.432,N,07721.556,E,1,12,1.0,0.0,M,0.0,M,,*6B
$GPGSA,A,3,01,02,03,04,05,06,07,08,09,10,11,12,1.0,1.0,1.0*30
$GPRMC,085237.671,A,2840.432,N,07721.556,E,194.4,089.9,130624,000.0,W*7D
$GPGGA,085238.671,2840.432,N,07721.617,E,1,12,1.0,0.0,M,0.0,M,,*62
$GPGSA,A,3,01,02,03,04,05,06,07,08,09,10,11,12,1.0,1.0,1.0*30
$GPRMC,085238.671,A,2840.432,N,07721.617,E,194.4,089.9,130624,000.0,W*74
$GPGGA,085239.671,2840.432,N,07721.679,E,1,12,1.0,0.0,M,0.0,M,,*6B
$GPGSA,A,3,01,02,03,04,05,06,07,08,09,10,11,12,1.0,1.0,1.0*30
$GPRMC,085239.671,A,2840.432,N,07721.679,E,194.4,089.9,130624,000.0,W*7D
$GPGGA,085240.671,2840.432,N,07721.740,E,1,12,1.0,0.0,M,0.0,M,,*6E
$GPGSA,A,3,01,02,03,04,05,06,07,08,09,10,11,12,1.0,1.0,1.0*30
$GPRMC,085240.671,A,2840.432,N,07721.740,E,194.4,089.9,130624,000.0,W*78
$GPGGA,085241.671,2840.432,N,07721.802,E,1,12,1.0,0.0,M,0.0,M,,*66
$GPGSA,A,3,01,02,03,04,05,06,07,08,09,10,11,12,1.0,1.0,1.0*30
$GPRMC,085241.671,A,2840.432,N,07721.802,E,194.4,089.9,130624,000.0,W*70
$GPGGA,085242.671,2840.432,N,07721.863,E,1,12,1.0,0.0,M,0.0,M,,*62
$GPGSA,A,3,01,02,03,04,05,06,07,08,09,10,11,12,1.0,1.0,1.0*30
$GPRMC,085242.671,A,2840.432,N,07721.863,E,194.4,089.9,130624,000.0,W*74
$GPGGA,085243.671,2840.432,N,07721.925,E,1,12,1.0,0.0,M,0.0,M,,*60
$GPGSA,A,3,01,02,03,04,05,06,07,08,09,10,11,12,1.0,1.0,1.0*30
$GPRMC,085243.671,A,2840.432,N,07721.925,E,194.4,089.9,130624,000.0,W*76
$GPGGA,085244.671,2840.433,N,07721.986,E,1,12,1.0,0.0,M,0.0,M,,*6F
$GPGSA,A,3,01,02,03,04,05,06,07,08,09,10,11,12,1.0,1.0,1.0*30
$GPRMC,085244.671,A,2840.433,N,07721.986,E,194.4,089.9,130624,000.0,W*79
$GPGGA,085245.671,2840.433,N,07722.048,E,1,12,1.0,0.0,M,0.0,M,,*66
$GPGSA,A,3,01,02,03,04,05,06,07,08,09,10,11,12,1.0,1.0,1.0*30
$GPRMC,085245.671,A,2840.433,N,07722.048,E,194.4,094.9,130624,000.0,W*7C
$GPGGA,085246.671,2840.428,N,07722.109,E,1,12,1.0,0.0,M,0.0,M,,*6B
$GPGSA,A,3,01,02,03,04,05,06,07,08,09,10,11,12,1.0,1.0,1.0*30
$GPRMC,085246.671,A,2840.428,N,07722.109,E,194.4,094.9,130624,000.0,W*71
$GPGGA,085247.671,2840.422,N,07722.170,E,1,12,1.0,0.0,M,0.0,M,,*6E
$GPGSA,A,3,01,02,03,04,05,06,07,08,09,10,11,12,1.0,1.0,1.0*30
$GPRMC,085247.671,A,2840.422,N,07722.170,E,194.4,094.9,130624,000.0,W*74
$GPGGA,085248.671,2840.417,N,07722.232,E,1,12,1.0,0.0,M,0.0,M,,*62
$GPGSA,A,3,01,02,03,04,05,06,07,08,09,10,11,12,1.0,1.0,1.0*30
$GPRMC,085248.671,A,2840.417,N,07722.232,E,194.4,098.0,130624,000.0,W*7D
$GPGGA,085249.671,2840.409,N,07722.292,E,1,12,1.0,0.0,M,0.0,M,,*66
$GPGSA,A,3,01,02,03,04,05,06,07,08,09,10,11,12,1.0,1.0,1.0*30
$GPRMC,085249.671,A,2840.409,N,07722.292,E,194.4,098.0,130624,000.0,W*79
$GPGGA,085250.671,2840.400,N,07722.353,E,1,12,1.0,0.0,M,0.0,M,,*6B
$GPGSA,A,3,01,02,03,04,05,06,07,08,09,10,11,12,1.0,1.0,1.0*30
$GPRMC,085250.671,A,2840.400,N,07722.353,E,194.4,098.0,130624,000.0,W*74
$GPGGA,085251.671,2840.392,N,07722.414,E,1,12,1.0,0.0,M,0.0,M,,*62
$GPGSA,A,3,01,02,03,04,05,06,07,08,09,10,11,12,1.0,1.0,1.0*30
$GPRMC,085251.671,A,2840.392,N,07722.414,E,194.4,098.0,130624,000.0,W*7D
$GPGGA,085252.671,2840.383,N,07722.475,E,1,12,1.0,0.0,M,0.0,M,,*66
$GPGSA,A,3,01,02,03,04,05,06,07,08,09,10,11,12,1.0,1.0,1.0*30
$GPRMC,085252.671,A,2840.383,N,07722.475,E,194.4,101.3,130624,000.0,W*7B
$GPGGA,085253.671,2840.371,N,07722.535,E,1,12,1.0,0.0,M,0.0,M,,*6F
$GPGSA,A,3,01,02,03,04,05,06,07,08,09,10,11,12,1.0,1.0,1.0*30
$GPRMC,085253.671,A,2840.371,N,07722.535,E,194.4,101.3,130624,000.0,W*72
$GPGGA,085254.671,2840.359,N,07722.594,E,1,12,1.0,0.0,M,0.0,M,,*69
$GPGSA,A,3,01,02,03,04,05,06,07,08,09,10,11,12,1.0,1.0,1.0*30
$GPRMC,085254.671,A,2840.359,N,07722.594,E,194.4,104.6,130624,000.0,W*74
$GPGGA,085255.671,2840.344,N,07722.653,E,1,12,1.0,0.0,M,0.0,M,,*6C
$GPGSA,A,3,01,02,03,04,05,06,07,08,09,10,11,12,1.0,1.0,1.0*30
$GPRMC,085255.671,A,2840.344,N,07722.653,E,194.4,104.6,130624,000.0,W*71
$GPGGA,085256.671,2840.329,N,07722.712,E,1,12,1.0,0.0,M,0.0,M,,*60
$GPGSA,A,3,01,02,03,04,05,06,07,08,09,10,11,12,1.0,1.0,1.0*30
$GPRMC,085256.671,A,2840.329,N,07722.712,E,194.4,104.6,130624,000.0,W*7D
$GPGGA,085257.671,2840.313,N,07722.771,E,1,12,1.0,0.0,M,0.0,M,,*6D
$GPGSA,A,3,01,02,03,04,05,06,07,08,09,10,11,12,1.0,1.0,1.0*30
$GPRMC,085257.671,A,2840.313,N,07722.771,E,194.4,104.6,130624,000.0,W*70
$GPGGA,085258.671,2840.298,N,07722.830,E,1,12,1.0,0.0,M,0.0,M,,*6A
$GPGSA,A,3,01,02,03,04,05,06,07,08,09,10,11,12,1.0,1.0,1.0*30
$GPRMC,085258.671,A,2840.298,N,07722.830,E,194.4,104.6,130624,000.0,W*77
$GPGGA,085259.671,2840.282,N,07722.889,E,1,12,1.0,0.0,M,0.0,M,,*62
$GPGSA,A,3,01,02,03,04,05,06,07,08,09,10,11,12,1.0,1.0,1.0*30
$GPRMC,085259.671,A,2840.282,N,07722.889,E,194.4,104.6,130624,000.0,W*7F
$GPGGA,085300.671,2840.267,N,07722.948,E,1,12,1.0,0.0,M,0.0,M,,*68
$GPGSA,A,3,01,02,03,04,05,06,07,08,09,10,11,12,1.0,1.0,1.0*30
$GPRMC,085300.671,A,2840.267,N,07722.948,E,194.4,104.6,130624,000.0,W*75
$GPGGA,085301.671,2840.252,N,07723.007,E,1,12,1.0,0.0,M,0.0,M,,*6C
$GPGSA,A,3,01,02,03,04,05,06,07,08,09,10,11,12,1.0,1.0,1.0*30
$GPRMC,085301.671,A,2840.252,N,07723.007,E,194.4,104.6,130624,000.0,W*71
$GPGGA,085302.671,2840.236,N,07723.066,E,1,12,1.0,0.0,M,0.0,M,,*6A
$GPGSA,A,3,01,02,03,04,05,06,07,08,09,10,11,12,1.0,1.0,1.0*30
$GPRMC,085302.671,A,2840.236,N,07723.066,E,194.4,104.6,130624,000.0,W*77
$GPGGA,085303.671,2840.221,N,07723.125,E,1,12,1.0,0.0,M,0.0,M,,*6B
$GPGSA,A,3,01,02,03,04,05,06,07,08,09,10,11,12,1.0,1.0,1.0*30
$GPRMC,085303.671,A,2840.221,N,07723.125,E,194.4,104.6,130624,000.0,W*76
$GPGGA,085304.671,2840.206,N,07723.184,E,1,12,1.0,0.0,M,0.0,M,,*62
$GPGSA,A,3,01,02,03,04,05,06,07,08,09,10,11,12,1.0,1.0,1.0*30
$GPRMC,085304.671,A,2840.206,N,07723.184,E,194.4,104.6,130624,000.0,W*7F
$GPGGA,085305.671,2840.190,N,07723.243,E,1,12,1.0,0.0,M,0.0,M,,*67
$GPGSA,A,3,01,02,03,04,05,06,07,08,09,10,11,12,1.0,1.0,1.0*30
$GPRMC,085305.671,A,2840.190,N,07723.243,E,194.4,104.6,130624,000.0,W*7A
$GPGGA,085306.671,2840.175,N,07723.302,E,1,12,1.0,0.0,M,0.0,M,,*6B
$GPGSA,A,3,01,02,03,04,05,06,07,08,09,10,11,12,1.0,1.0,1.0*30
$GPRMC,085306.671,A,2840.175,N,07723.302,E,194.4,104.6,130624,000.0,W*76
$GPGGA,085307.671,2840.160,N,07723.361,E,1,12,1.0,0.0,M,0.0,M,,*6B
$GPGSA,A,3,01,02,03,04,05,06,07,08,09,10,11,12,1.0,1.0,1.0*30
$GPRMC,085307.671,A,2840.160,N,07723.361,E,194.4,104.6,130624,000.0,W*76
$GPGGA,085308.671,2840.144,N,07723.420,E,1,12,1.0,0.0,M,0.0,M,,*60
$GPGSA,A,3,01,02,03,04,05,06,07,08,09,10,11,12,1.0,1.0,1.0*30
$GPRMC,085308.671,A,2840.144,N,07723.420,E,194.4,104.6,130624,000.0,W*7D
$GPGGA,085309.671,2840.129,N,07723.479,E,1,12,1.0,0.0,M,0.0,M,,*66
$GPGSA,A,3,01,02,03,04,05,06,07,08,09,10,11,12,1.0,1.0,1.0*30
$GPRMC,085309.671,A,2840.129,N,07723.479,E,194.4,104.6,130624,000.0,W*7B
$GPGGA,085310.671,2840.114,N,07723.538,E,1,12,1.0,0.0,M,0.0,M,,*64
$GPGSA,A,3,01,02,03,04,05,06,07,08,09,10,11,12,1.0,1.0,1.0*30
$GPRMC,085310.671,A,2840.114,N,07723.538,E,194.4,105.0,130624,000.0,W*7E
$GPGGA,085311.671,2840.098,N,07723.597,E,1,12,1.0,0.0,M,0.0,M,,*65
$GPGSA,A,3,01,02,03,04,05,06,07,08,09,10,11,12,1.0,1.0,1.0*30
$GPRMC,085311.671,A,2840.098,N,07723.597,E,194.4,105.0,130624,000.0,W*7F
$GPGGA,085312.671,2840.082,N,07723.655,E,1,12,1.0,0.0,M,0.0,M,,*60
$GPGSA,A,3,01,02,03,04,05,06,07,08,09,10,11,12,1.0,1.0,1.0*30
$GPRMC,085312.671,A,2840.082,N,07723.655,E,194.4,105.0,130624,000.0,W*7A
$GPGGA,085313.671,2840.066,N,07723.714,E,1,12,1.0,0.0,M,0.0,M,,*6F
$GPGSA,A,3,01,02,03,04,05,06,07,08,09,10,11,12,1.0,1.0,1.0*30
$GPRMC,085313.671,A,2840.066,N,07723.714,E,194.4,105.0,130624,000.0,W*75
$GPGGA,085314.671,2840.051,N,07723.773,E,1,12,1.0,0.0,M,0.0,M,,*6D
$GPGSA,A,3,01,02,03,04,05,06,07,08,09,10,11,12,1.0,1.0,1.0*30
$GPRMC,085314.671,A,2840.051,N,07723.773,E,194.4,105.0,130624,000.0,W*77
$GPGGA,085315.671,2840.035,N,07723.832,E,1,12,1.0,0.0,M,0.0,M,,*64
$GPGSA,A,3,01,02,03,04,05,06,07,08,09,10,11,12,1.0,1.0,1.0*30
$GPRMC,085315.671,A,2840.035,N,07723.832,E,194.4,105.0,130624,000.0,W*7E
$GPGGA,085316.671,2840.019,N,07723.891,E,1,12,1.0,0.0,M,0.0,M,,*60
$GPGSA,A,3,01,02,03,04,05,06,07,08,09,10,11,12,1.0,1.0,1.0*30
$GPRMC,085316.671,A,2840.019,N,07723.891,E,194.4,105.0,130624,000.0,W*7A
$GPGGA,085317.671,2840.003,N,07723.950,E,1,12,1.0,0.0,M,0.0,M,,*66
$GPGSA,A,3,01,02,03,04,05,06,07,08,09,10,11,12,1.0,1.0,1.0*30
$GPRMC,085317.671,A,2840.003,N,07723.950,E,194.4,105.0,130624,000.0,W*7C
$GPGGA,085318.671,2839.988,N,07724.008,E,1,12,1.0,0.0,M,0.0,M,,*6E
$GPGSA,A,3,01,02,03,04,05,06,07,08,09,10,11,12,1.0,1.0,1.0*30
$GPRMC,085318.671,A,2839.988,N,07724.008,E,194.4,105.0,130624,000.0,W*74
$GPGGA,085319.671,2839.972,N,07724.067,E,1,12,1.0,0.0,M,0.0,M,,*63
$GPGSA,A,3,01,02,03,04,05,06,07,08,09,10,11,12,1.0,1.0,1.0*30
$GPRMC,085319.671,A,2839.972,N,07724.067,E,194.4,105.0,130624,000.0,W*79
$GPGGA,085320.671,2839.956,N,07724.126,E,1,12,1.0,0.0,M,0.0,M,,*6B
$GPGSA,A,3,01,02,03,04,05,06,07,08,09,10,11,12,1.0,1.0,1.0*30
$GPRMC,085320.671,A,2839.956,N,07724.126,E,194.4,105.0,130624,000.0,W*71
$GPGGA,085321.671,2839.940,N,07724.185,E,1,12,1.0,0.0,M,0.0,M,,*64
$GPGSA,A,3,01,02,03,04,05,06,07,08,09,10,11,12,1.0,1.0,1.0*30
$GPRMC,085321.671,A,2839.940,N,07724.185,E,194.4,105.0,130624,000.0,W*7E
$GPGGA,085322.671,2839.925,N,07724.244,E,1,12,1.0,0.0,M,0.0,M,,*6A
$GPGSA,A,3,01,02,03,04,05,06,07,08,09,10,11,12,1.0,1.0,1.0*30
$GPRMC,085322.671,A,2839.925,N,07724.244,E,194.4,105.0,130624,000.0,W*70
$GPGGA,085323.671,2839.909,N,07724.302,E,1,12,1.0,0.0,M,0.0,M,,*66
$GPGSA,A,3,01,02,03,04,05,06,07,08,09,10,11,12,1.0,1.0,1.0*30
$GPRMC,085323.671,A,2839.909,N,07724.302,E,194.4,105.0,130624,000.0,W*7C
$GPGGA,085324.671,2839.893,N,07724.361,E,1,12,1.0,0.0,M,0.0,M,,*66
$GPGSA,A,3,01,02,03,04,05,06,07,08,09,10,11,12,1.0,1.0,1.0*30
$GPRMC,085324.671,A,2839.893,N,07724.361,E,194.4,105.0,130624,000.0,W*7C
$GPGGA,085325.671,2839.877,N,07724.420,E,1,12,1.0,0.0,M,0.0,M,,*6F
$GPGSA,A,3,01,02,03,04,05,06,07,08,09,10,11,12,1.0,1.0,1.0*30
$GPRMC,085325.671,A,2839.877,N,07724.420,E,194.4,105.0,130624,000.0,W*75
$GPGGA,085326.671,2839.862,N,07724.479,E,1,12,1.0,0.0,M,0.0,M,,*64
$GPGSA,A,3,01,02,03,04,05,06,07,08,09,10,11,12,1.0,1.0,1.0*30
$GPRMC,085326.671,A,2839.862,N,07724.479,E,194.4,105.0,130624,000.0,W*7E
$GPGGA,085327.671,2839.846,N,07724.538,E,1,12,1.0,0.0,M,0.0,M,,*67
$GPGSA,A,3,01,02,03,04,05,06,07,08,09,10,11,12,1.0,1.0,1.0*30
$GPRMC,085327.671,A,2839.846,N,07724.538,E,194.4,105.0,130624,000.0,W*7D
$GPGGA,085328.671,2839.830,N,07724.597,E,1,12,1.0,0.0,M,0.0,M,,*6C
$GPGSA,A,3,01,02,03,04,05,06,07,08,09,10,11,12,1.0,1.0,1.0*30
$GPRMC,085328.671,A,2839.830,N,07724.597,E,194.4,105.8,130624,000.0,W*7E
$GPGGA,085329.671,2839.814,N,07724.655,E,1,12,1.0,0.0,M,0.0,M,,*66
$GPGSA,A,3,01,02,03,04,05,06,07,08,09,10,11,12,1.0,1.0,1.0*30
$GPRMC,085329.671,A,2839.814,N,07724.655,E,194.4,105.8,130624,000.0,W*74
$GPGGA,085330.671,2839.797,N,07724.714,E,1,12,1.0,0.0,M,0.0,M,,*6E
$GPGSA,A,3,01,02,03,04,05,06,07,08,09,10,11,12,1.0,1.0,1.0*30
$GPRMC,085330.671,A,2839.797,N,07724.714,E,194.4,105.8,130624,000.0,W*7C
$GPGGA,085331.671,2839.780,N,07724.772,E,1,12,1.0,0.0,M,0.0,M,,*69
$GPGSA,A,3,01,02,03,04,05,06,07,08,09,10,11,12,1.0,1.0,1.0*30
$GPRMC,085331.671,A,2839.780,N,07724.772,E,194.4,105.8,130624,000.0,W*7B
$GPGGA,085332.671,2839.764,N,07724.831,E,1,12,1.0,0.0,M,0.0,M,,*68
$GPGSA,A,3,01,02,03,04,05,06,07,08,09,10,11,12,1.0,1.0,1.0*30
$GPRMC,085332.671,A,2839.764,N,07724.831,E,194.4,112.7,130624,000.0,W*73
$GPGGA,085333.671,2839.741,N,07724.886,E,1,12,1.0,0.0,M,0.0,M,,*62
$GPGSA,A,3,01,02,03,04,05,06,07,08,09,10,11,12,1.0,1.0,1.0*30
$GPRMC,085333.671,A,2839.741,N,07724.886,E,194.4,112.7,130624,000.0,W*79
$GPGGA,085334.671,2839.717,N,07724.942,E,1,12,1.0,0.0,M,0.0,M,,*6F
$GPGSA,A,3,01,02,03,04,05,06,07,08,09,10,11,12,1.0,1.0,1.0*30
$GPRMC,085334.671,A,2839.717,N,07724.942,E,194.4,112.7,130624,000.0,W*74
$GPGGA,085335.671,2839.694,N,07724.997,E,1,12,1.0,0.0,M,0.0,M,,*6C
$GPGSA,A,3,01,02,03,04,05,06,07,08,09,10,11,12,1.0,1.0,1.0*30
$GPRMC,085335.671,A,2839.694,N,07724.997,E,194.4,119.5,130624,000.0,W*7E
$GPGGA,085336.671,2839.665,N,07725.049,E,1,12,1.0,0.0,M,0.0,M,,*6A
$GPGSA,A,3,01,02,03,04,05,06,07,08,09,10,11,12,1.0,1.0,1.0*30
$GPRMC,085336.671,A,2839.665,N,07725.049,E,194.4,119.5,130624,000.0,W*78
$GPGGA,085337.671,2839.636,N,07725.101,E,1,12,1.0,0.0,M,0.0,M,,*60
$GPGSA,A,3,01,02,03,04,05,06,07,08,09,10,11,12,1.0,1.0,1.0*30
$GPRMC,085337.671,A,2839.636,N,07725.101,E,194.4,119.5,130624,000.0,W*72
$GPGGA,085338.671,2839.607,N,07725.152,E,1,12,1.0,0.0,M,0.0,M,,*6B
$GPGSA,A,3,01,02,03,04,05,06,07,08,09,10,11,12,1.0,1.0,1.0*30
$GPRMC,085338.671,A,2839.607,N,07725.152,E,194.4,127.1,130624,000.0,W*70
$GPGGA,085339.671,2839.571,N,07725.199,E,1,12,1.0,0.0,M,0.0,M,,*6F
$GPGSA,A,3,01,02,03,04,05,06,07,08,09,10,11,12,1.0,1.0,1.0*30
$GPRMC,085339.671,A,2839.571,N,07725.199,E,194.4,127.1,130624,000.0,W*74
$GPGGA,085340.671,2839.536,N,07725.246,E,1,12,1.0,0.0,M,0.0,M,,*63
$GPGSA,A,3,01,02,03,04,05,06,07,08,09,10,11,12,1.0,1.0,1.0*30
$GPRMC,085340.671,A,2839.536,N,07725.246,E,194.4,127.1,130624,000.0,W*78
$GPGGA,085341.671,2839.501,N,07725.292,E,1,12,1.0,0.0,M,0.0,M,,*6F
$GPGSA,A,3,01,02,03,04,05,06,07,08,09,10,11,12,1.0,1.0,1.0*30
$GPRMC,085341.671,A,2839.501,N,07725.292,E,194.4,127.1,130624,000.0,W*74
$GPGGA,085342.671,2839.466,N,07725.339,E,1,12,1.0,0.0,M,0.0,M,,*6C
$GPGSA,A,3,01,02,03,04,05,06,07,08,09,10,11,12,1.0,1.0,1.0*30
$GPRMC,085342.671,A,2839.466,N,07725.339,E,194.4,127.1,130624,000.0,W*77
$GPGGA,085343.671,2839.431,N,07725.385,E,1,12,1.0,0.0,M,0.0,M,,*68
$GPGSA,A,3,01,02,03,04,05,06,07,08,09,10,11,12,1.0,1.0,1.0*30
$GPRMC,085343.671,A,2839.431,N,07725.385,E,194.4,127.1,130624,000.0,W*73
$GPGGA,085344.671,2839.395,N,07725.432,E,1,12,1.0,0.0,M,0.0,M,,*6D
$GPGSA,A,3,01,02,03,04,05,06,07,08,09,10,11,12,1.0,1.0,1.0*30
$GPRMC,085344.671,A,2839.395,N,07725.432,E,194.4,128.1,130624,000.0,W*79
$GPGGA,085345.671,2839.360,N,07725.478,E,1,12,1.0,0.0,M,0.0,M,,*68
$GPGSA,A,3,01,02,03,04,05,06,07,08,09,10,11,12,1.0,1.0,1.0*30
$GPRMC,085345.671,A,2839.360,N,07725.478,E,194.4,128.1,130624,000.0,W*7C
$GPGGA,085346.671,2839.324,N,07725.524,E,1,12,1.0,0.0,M,0.0,M,,*63
$GPGSA,A,3,01,02,03,04,05,06,07,08,09,10,11,12,1.0,1.0,1.0*30
$GPRMC,085346.671,A,2839.324,N,07725.524,E,194.4,128.1,130624,000.0,W*77
$GPGGA,085347.671,2839.288,N,07725.570,E,1,12,1.0,0.0,M,0.0,M,,*64
$GPGSA,A,3,01,02,03,04,05,06,07,08,09,10,11,12,1.0,1.0,1.0*30
$GPRMC,085347.671,A,2839.288,N,07725.570,E,194.4,128.1,130624,000.0,W*70
$GPGGA,085348.671,2839.252,N,07725.616,E,1,12,1.0,0.0,M,0.0,M,,*6F
$GPGSA,A,3,01,02,03,04,05,06,07,08,09,10,11,12,1.0,1.0,1.0*30
$GPRMC,085348.671,A,2839.252,N,07725.616,E,194.4,128.1,130624,000.0,W*7B
$GPGGA,085349.671,2839.216,N,07725.662,E,1,12,1.0,0.0,M,0.0,M,,*6D
$GPGSA,A,3,01,02,03,04,05,06,07,08,09,10,11,12,1.0,1.0,1.0*30
$GPRMC,085349.671,A,2839.216,N,07725.662,E,194.4,128.1,130624,000.0,W*79
$GPGGA,085350.671,2839.180,N,07725.707,E,1,12,1.0,0.0,M,0.0,M,,*6B
$GPGSA,A,3,01,02,03,04,05,06,07,08,09,10,11,12,1.0,1.0,1.0*30
$GPRMC,085350.671,A,2839.180,N,07725.707,E,194.4,128.1,130624,000.0,W*7F
$GPGGA,085351.671,2839.144,N,07725.753,E,1,12,1.0,0.0,M,0.0,M,,*63
$GPGSA,A,3,01,02,03,04,05,06,07,08,09,10,11,12,1.0,1.0,1.0*30
$GPRMC,085351.671,A,2839.144,N,07725.753,E,194.4,128.1,130624,000.0,W*77
$GPGGA,085352.671,2839.108,N,07725.799,E,1,12,1.0,0.0,M,0.0,M,,*6E
$GPGSA,A,3,01,02,03,04,05,06,07,08,09,10,11,12,1.0,1.0,1.0*30
$GPRMC,085352.671,A,2839.108,N,07725.799,E,194.4,124.9,130624,000.0,W*7E
$GPGGA,085353.671,2839.075,N,07725.847,E,1,12,1.0,0.0,M,0.0,M,,*68
$GPGSA,A,3,01,02,03,04,05,06,07,08,09,10,11,12,1.0,1.0,1.0*30
$GPRMC,085353.671,A,2839.075,N,07725.847,E,194.4,124.9,130624,000.0,W*78
$GPGGA,085354.671,2839.041,N,07725.896,E,1,12,1.0,0.0,M,0.0,M,,*64
$GPGSA,A,3,01,02,03,04,05,06,07,08,09,10,11,12,1.0,1.0,1.0*30
$GPRMC,085354.671,A,2839.041,N,07725.896,E,194.4,124.9,130624,000.0,W*74
$GPGGA,085355.671,2839.008,N,07725.944,E,1,12,1.0,0.0,M,0.0,M,,*66
$GPGSA,A,3,01,02,03,04,05,06,07,08,09,10,11,12,1.0,1.0,1.0*30
$GPRMC,085355.671,A,2839.008,N,07725.944,E,194.4,124.9,130624,000.0,W*76
$GPGGA,085356.671,2838.974,N,07725.992,E,1,12,1.0,0.0,M,0.0,M,,*6D
$GPGSA,A,3,01,02,03,04,05,06,07,08,09,10,11,12,1.0,1.0,1.0*30
$GPRMC,085356.671,A,2838.974,N,07725.992,E,194.4,130.6,130624,000.0,W*77
$GPGGA,085357.671,2838.936,N,07726.036,E,1,12,1.0,0.0,M,0.0,M,,*6E
$GPGSA,A,3,01,02,03,04,05,06,07,08,09,10,11,12,1.0,1.0,1.0*30
$GPRMC,085357.671,A,2838.936,N,07726.036,E,194.4,130.6,130624,000.0,W*74
$GPGGA,085358.671,2838.899,N,07726.080,E,1,12,1.0,0.0,M,0.0,M,,*68
$GPGSA,A,3,01,02,03,04,05,06,07,08,09,10,11,12,1.0,1.0,1.0*30
$GPRMC,085358.671,A,2838.899,N,07726.080,E,194.4,130.6,130624,000.0,W*72
$GPGGA,085359.671,2838.861,N,07726.124,E,1,12,1.0,0.0,M,0.0,M,,*61
$GPGSA,A,3,01,02,03,04,05,06,07,08,09,10,11,12,1.0,1.0,1.0*30
$GPRMC,085359.671,A,2838.861,N,07726.124,E,194.4,130.6,130624,000.0,W*7B
$GPGGA,085400.671,2838.823,N,07726.168,E,1,12,1.0,0.0,M,0.0,M,,*64
$GPGSA,A,3,01,02,03,04,05,06,07,08,09,10,11,12,1.0,1.0,1.0*30
$GPRMC,085400.671,A,2838.823,N,07726.168,E,194.4,130.6,130624,000.0,W*7E
$GPGGA,085401.671,2838.786,N,07726.212,E,1,12,1.0,0.0,M,0.0,M,,*6B
$GPGSA,A,3,01,02,03,04,05,06,07,08,09,10,11,12,1.0,1.0,1.0*30
$GPRMC,085401.671,A,2838.786,N,07726.212,E,194.4,126.2,130624,000.0,W*72
$GPGGA,085402.671,2838.751,N,07726.259,E,1,12,1.0,0.0,M,0.0,M,,*6D
$GPGSA,A,3,01,02,03,04,05,06,07,08,09,10,11,12,1.0,1.0,1.0*30
$GPRMC,085402.671,A,2838.751,N,07726.259,E,194.4,126.2,130624,000.0,W*74
$GPGGA,085403.671,2838.717,N,07726.307,E,1,12,1.0,0.0,M,0.0,M,,*64
$GPGSA,A,3,01,02,03,04,05,06,07,08,09,10,11,12,1.0,1.0,1.0*30
$GPRMC,085403.671,A,2838.717,N,07726.307,E,194.4,126.2,130624,000.0,W*7D
$GPGGA,085404.671,2838.682,N,07726.354,E,1,12,1.0,0.0,M,0.0,M,,*68
$GPGSA,A,3,01,02,03,04,05,06,07,08,09,10,11,12,1.0,1.0,1.0*30
$GPRMC,085404.671,A,2838.682,N,07726.354,E,194.4,105.5,130624,000.0,W*77
$GPGGA,085405.671,2838.666,N,07726.412,E,1,12,1.0,0.0,M,0.0,M,,*66
$GPGSA,A,3,01,02,03,04,05,06,07,08,09,10,11,12,1.0,1.0,1.0*30
$GPRMC,085405.671,A,2838.666,N,07726.412,E,194.4,105.5,130624,000.0,W*79
$GPGGA,085406.671,2838.650,N,07726.471,E,1,12,1.0,0.0,M,0.0,M,,*65
$GPGSA,A,3,01,02,03,04,05,06,07,08,09,10,11,12,1.0,1.0,1.0*30
$GPRMC,085406.671,A,2838.650,N,07726.471,E,194.4,105.5,130624,000.0,W*7A
$GPGGA,085407.671,2838.633,N,07726.530,E,1,12,1.0,0.0,M,0.0,M,,*65
$GPGSA,A,3,01,02,03,04,05,06,07,08,09,10,11,12,1.0,1.0,1.0*30
$GPRMC,085407.671,A,2838.633,N,07726.530,E,194.4,078.5,130624,000.0,W*71
$GPGGA,085408.671,2838.646,N,07726.590,E,1,12,1.0,0.0,M,0.0,M,,*62
$GPGSA,A,3,01,02,03,04,05,06,07,08,09,10,11,12,1.0,1.0,1.0*30
$GPRMC,085408.671,A,2838.646,N,07726.590,E,194.4,078.5,130624,000.0,W*76
$GPGGA,085409.671,2838.658,N,07726.649,E,1,12,1.0,0.0,M,0.0,M,,*6B
$GPGSA,A,3,01,02,03,04,05,06,07,08,09,10,11,12,1.0,1.0,1.0*30
$GPRMC,085409.671,A,2838.658,N,07726.649,E,194.4,067.6,130624,000.0,W*72
$GPGGA,085410.671,2838.681,N,07726.705,E,1,12,1.0,0.0,M,0.0,M,,*6E
$GPGSA,A,3,01,02,03,04,05,06,07,08,09,10,11,12,1.0,1.0,1.0*30
$GPRMC,085410.671,A,2838.681,N,07726.705,E,194.4,060.0,130624,000.0,W*76
$GPGGA,085411.671,2838.710,N,07726.757,E,1,12,1.0,0.0,M,0.0,M,,*61
$GPGSA,A,3,01,02,03,04,05,06,07,08,09,10,11,12,1.0,1.0,1.0*30
$GPRMC,085411.671,A,2838.710,N,07726.757,E,194.4,050.9,130624,000.0,W*73
$GPGGA,085412.671,2838.747,N,07726.802,E,1,12,1.0,0.0,M,0.0,M,,*6F
$GPGSA,A,3,01,02,03,04,05,06,07,08,09,10,11,12,1.0,1.0,1.0*30
$GPRMC,085412.671,A,2838.747,N,07726.802,E,194.4,051.0,130624,000.0,W*75
$GPGGA,085413.671,2838.783,N,07726.847,E,1,12,1.0,0.0,M,0.0,M,,*67
$GPGSA,A,3,01,02,03,04,05,06,07,08,09,10,11,12,1.0,1.0,1.0*30
$GPRMC,085413.671,A,2838.783,N,07726.847,E,194.4,051.0,130624,000.0,W*7D
$GPGGA,085414.671,2838.820,N,07726.892,E,1,12,1.0,0.0,M,0.0,M,,*6E
$GPGSA,A,3,01,02,03,04,05,06,07,08,09,10,11,12,1.0,1.0,1.0*30
$GPRMC,085414.671,A,2838.820,N,07726.892,E,194.4,051.0,130624,000.0,W*74
$GPGGA,085415.671,2838.857,N,07726.937,E,1,12,1.0,0.0,M,0.0,M,,*61
$GPGSA,A,3,01,02,03,04,05,06,07,08,09,10,11,12,1.0,1.0,1.0*30
$GPRMC,085415.671,A,2838.857,N,07726.937,E,194.4,051.0,130624,000.0,W*7B
$GPGGA,085416.671,2838.893,N,07726.983,E,1,12,1.0,0.0,M,0.0,M,,*65
$GPGSA,A,3,01,02,03,04,05,06,07,08,09,10,11,12,1.0,1.0,1.0*30
$GPRMC,085416.671,A,2838.893,N,07726.983,E,194.4,051.0,130624,000.0,W*7F
$GPGGA,085417.671,2838.930,N,07727.028,E,1,12,1.0,0.0,M,0.0,M,,*65
$GPGSA,A,3,01,02,03,04,05,06,07,08,09,10,11,12,1.0,1.0,1.0*30
$GPRMC,085417.671,A,2838.930,N,07727.028,E,194.4,051.0,130624,000.0,W*7F
$GPGGA,085418.671,2838.966,N,07727.073,E,1,12,1.0,0.0,M,0.0,M,,*67
$GPGSA,A,3,01,02,03,04,05,06,07,08,09,10,11,12,1.0,1.0,1.0*30
$GPRMC,085418.671,A,2838.966,N,07727.073,E,194.4,051.0,130624,000.0,W*7D
$GPGGA,085419.671,2839.003,N,07727.118,E,1,12,1.0,0.0,M,0.0,M,,*61
$GPGSA,A,3,01,02,03,04,05,06,07,08,09,10,11,12,1.0,1.0,1.0*30
$GPRMC,085419.671,A,2839.003,N,07727.118,E,194.4,051.0,130624,000.0,W*7B
$GPGGA,085420.671,2839.039,N,07727.163,E,1,12,1.0,0.0,M,0.0,M,,*6E
$GPGSA,A,3,01,02,03,04,05,06,07,08,09,10,11,12,1.0,1.0,1.0*30
$GPRMC,085420.671,A,2839.039,N,07727.163,E,194.4,051.0,130624,000.0,W*74
$GPGGA,085421.671,2839.076,N,07727.209,E,1,12,1.0,0.0,M,0.0,M,,*6B
$GPGSA,A,3,01,02,03,04,05,06,07,08,09,10,11,12,1.0,1.0,1.0*30
$GPRMC,085421.671,A,2839.076,N,07727.209,E,194.4,051.0,130624,000.0,W*71
$GPGGA,085422.671,2839.113,N,07727.254,E,1,12,1.0,0.0,M,0.0,M,,*62
$GPGSA,A,3,01,02,03,04,05,06,07,08,09,10,11,12,1.0,1.0,1.0*30
$GPRMC,085422.671,A,2839.113,N,07727.254,E,194.4,051.0,130624,000.0,W*78
$GPGGA,085423.671,2839.149,N,07727.299,E,1,12,1.0,0.0,M,0.0,M,,*6D
$GPGSA,A,3,01,02,03,04,05,06,07,08,09,10,11,12,1.0,1.0,1.0*30
$GPRMC,085423.671,A,2839.149,N,07727.299,E,194.4,051.0,130624,000.0,W*77
$GPGGA,085424.671,2839.186,N,07727.344,E,1,12,1.0,0.0,M,0.0,M,,*68
$GPGSA,A,3,01,02,03,04,05,06,07,08,09,10,11,12,1.0,1.0,1.0*30
$GPRMC,085424.671,A,2839.186,N,07727.344,E,194.4,051.0,130624,000.0,W*72
$GPGGA,085425.671,2839.222,N,07727.389,E,1,12,1.0,0.0,M,0.0,M,,*65
$GPGSA,A,3,01,02,03,04,05,06,07,08,09,10,11,12,1.0,1.0,1.0*30
$GPRMC,085425.671,A,2839.222,N,07727.389,E,194.4,051.0,130624,000.0,W*7F
$GPGGA,085426.671,2839.259,N,07727.435,E,1,12,1.0,0.0,M,0.0,M,,*6A
$GPGSA,A,3,01,02,03,04,05,06,07,08,09,10,11,12,1.0,1.0,1.0*30
$GPRMC,085426.671,A,2839.259,N,07727.435,E,194.4,051.0,130624,000.0,W*70
$GPGGA,085427.671,2839.295,N,07727.480,E,1,12,1.0,0.0,M,0.0,M,,*65
$GPGSA,A,3,01,02,03,04,05,06,07,08,09,10,11,12,1.0,1.0,1.0*30
$GPRMC,085427.671,A,2839.295,N,07727.480,E,194.4,049.6,130624,000.0,W*70
$GPGGA,085428.671,2839.333,N,07727.524,E,1,12,1.0,0.0,M,0.0,M,,*68
$GPGSA,A,3,01,02,03,04,05,06,07,08,09,10,11,12,1.0,1.0,1.0*30
$GPRMC,085428.671,A,2839.333,N,07727.524,E,194.4,049.6,130624,000.0,W*7D
$GPGGA,085429.671,2839.370,N,07727.568,E,1,12,1.0,0.0,M,0.0,M,,*66
$GPGSA,A,3,01,02,03,04,05,06,07,08,09,10,11,12,1.0,1.0,1.0*30
$GPRMC,085429.671,A,2839.370,N,07727.568,E,194.4,049.6,130624,000.0,W*73
$GPGGA,085430.671,2839.408,N,07727.612,E,1,12,1.0,0.0,M,0.0,M,,*68
$GPGSA,A,3,01,02,03,04,05,06,07,08,09,10,11,12,1.0,1.0,1.0*30
$GPRMC,085430.671,A,2839.408,N,07727.612,E,194.4,049.6,130624,000.0,W*7D
$GPGGA,085431.671,2839.446,N,07727.657,E,1,12,1.0,0.0,M,0.0,M,,*62
$GPGSA,A,3,01,02,03,04,05,06,07,08,09,10,11,12,1.0,1.0,1.0*30
$GPRMC,085431.671,A,2839.446,N,07727.657,E,194.4,049.6,130624,000.0,W*77
$GPGGA,085432.671,2839.483,N,07727.701,E,1,12,1.0,0.0,M,0.0,M,,*6A
$GPGSA,A,3,01,02,03,04,05,06,07,08,09,10,11,12,1.0,1.0,1.0*30
$GPRMC,085432.671,A,2839.483,N,07727.701,E,194.4,049.6,130624,000.0,W*7F
$GPGGA,085433.671,2839.521,N,07727.745,E,1,12,1.0,0.0,M,0.0,M,,*62
$GPGSA,A,3,01,02,03,04,05,06,07,08,09,10,11,12,1.0,1.0,1.0*30
$GPRMC,085433.671,A,2839.521,N,07727.745,E,194.4,051.1,130624,000.0,W*79
$GPGGA,085434.671,2839.557,N,07727.790,E,1,12,1.0,0.0,M,0.0,M,,*6C
$GPGSA,A,3,01,02,03,04,05,06,07,08,09,10,11,12,1.0,1.0,1.0*30
$GPRMC,085434.671,A,2839.557,N,07727.790,E,194.4,051.1,130624,000.0,W*77
$GPGGA,085435.671,2839.594,N,07727.836,E,1,12,1.0,0.0,M,0.0,M,,*61
$GPGSA,A,3,01,02,03,04,05,06,07,08,09,10,11,12,1.0,1.0,1.0*30
$GPRMC,085435.671,A,2839.594,N,07727.836,E,194.4,051.1,130624,000.0,W*7A
