$GPGGA,043727.981,2838.558,N,07713.192,E,1,12,1.0,0.0,M,0.0,M,,*6A
$GPGSA,A,3,01,02,03,04,05,06,07,08,09,10,11,12,1.0,1.0,1.0*30
$GPRMC,043727.981,A,2838.558,N,07713.192,E,000.0,000.0,200224,000.0,W*78
$GPGGA,043728.981,2838.558,N,07713.192,E,1,12,1.0,0.0,M,0.0,M,,*65
$GPGSA,A,3,01,02,03,04,05,06,07,08,09,10,11,12,1.0,1.0,1.0*30
$GPRMC,043728.981,A,2838.558,N,07713.192,E,000.0,000.0,200224,000.0,W*77
$GPGGA,043729.981,2838.558,N,07713.192,E,1,12,1.0,0.0,M,0.0,M,,*64
$GPGSA,A,3,01,02,03,04,05,06,07,08,09,10,11,12,1.0,1.0,1.0*30
$GPRMC,043729.981,A,2838.558,N,07713.192,E,000.0,000.0,200224,000.0,W*76
$GPGGA,043730.981,2838.558,N,07713.192,E,1,12,1.0,0.0,M,0.0,M,,*6C
$GPGSA,A,3,01,02,03,04,05,06,07,08,09,10,11,12,1.0,1.0,1.0*30
$GPRMC,043730.981,A,2838.558,N,07713.192,E,000.0,000.0,200224,000.0,W*7E
$GPGGA,043731.981,2838.558,N,07713.192,E,1,12,1.0,0.0,M,0.0,M,,*6D
$GPGSA,A,3,01,02,03,04,05,06,07,08,09,10,11,12,1.0,1.0,1.0*30
$GPRMC,043731.981,A,2838.558,N,07713.192,E,000.0,000.0,200224,000.0,W*7F
$GPGGA,043732.981,2838.558,N,07713.192,E,1,12,1.0,0.0,M,0.0,M,,*6E
$GPGSA,A,3,01,02,03,04,05,06,07,08,09,10,11,12,1.0,1.0,1.0*30
$GPRMC,043732.981,A,2838.558,N,07713.192,E,000.0,000.0,200224,000.0,W*7C
$GPGGA,043733.981,2838.558,N,07713.192,E,1,12,1.0,0.0,M,0.0,M,,*6F
$GPGSA,A,3,01,02,03,04,05,06,07,08,09,10,11,12,1.0,1.0,1.0*30
$GPRMC,043733.981,A,2838.558,N,07713.192,E,000.0,000.0,200224,000.0,W*7D
$GPGGA,043734.981,2838.558,N,07713.192,E,1,12,1.0,0.0,M,0.0,M,,*68
$GPGSA,A,3,01,02,03,04,05,06,07,08,09,10,11,12,1.0,1.0,1.0*30
$GPRMC,043734.981,A,2838.558,N,07713.192,E,000.0,000.0,200224,000.0,W*7A
$GPGGA,043735.981,2838.558,N,07713.192,E,1,12,1.0,0.0,M,0.0,M,,*69
$GPGSA,A,3,01,02,03,04,05,06,07,08,09,10,11,12,1.0,1.0,1.0*30
$GPRMC,043735.981,A,2838.558,N,07713.192,E,000.0,000.0,200224,000.0,W*7B
$GPGGA,043736.981,2838.558,N,07713.192,E,1,12,1.0,0.0,M,0.0,M,,*6A
$GPGSA,A,3,01,02,03,04,05,06,07,08,09,10,11,12,1.0,1.0,1.0*30
$GPRMC,043736.981,A,2838.558,N,07713.192,E,000.0,000.0,200224,000.0,W*78
$GPGGA,043737.981,2838.558,N,07713.192,E,1,12,1.0,0.0,M,0.0,M,,*6B
$GPGSA,A,3,01,02,03,04,05,06,07,08,09,10,11,12,1.0,1.0,1.0*30
$GPRMC,043737.981,A,2838.558,N,07713.192,E,000.0,000.0,200224,000.0,W*79
$GPGGA,043738.981,2838.558,N,07713.192,E,1,12,1.0,0.0,M,0.0,M,,*64
$GPGSA,A,3,01,02,03,04,05,06,07,08,09,10,11,12,1.0,1.0,1.0*30
$GPRMC,043738.981,A,2838.558,N,07713.192,E,000.0,000.0,200224,000.0,W*76
$GPGGA,043739.981,2838.558,N,07713.192,E,1,12,1.0,0.0,M,0.0,M,,*65
$GPGSA,A,3,01,02,03,04,05,06,07,08,09,10,11,12,1.0,1.0,1.0*30
$GPRMC,043739.981,A,2838.558,N,07713.192,E,000.0,000.0,200224,000.0,W*77
$GPGGA,043740.981,2838.558,N,07713.192,E,1,12,1.0,0.0,M,0.0,M,,*6B
$GPGSA,A,3,01,02,03,04,05,06,07,08,09,10,11,12,1.0,1.0,1.0*30
$GPRMC,043740.981,A,2838.558,N,07713.192,E,000.0,000.0,200224,000.0,W*79
$GPGGA,043741.981,2838.558,N,07713.192,E,1,12,1.0,0.0,M,0.0,M,,*6A
$GPGSA,A,3,01,02,03,04,05,06,07,08,09,10,11,12,1.0,1.0,1.0*30
$GPRMC,043741.981,A,2838.558,N,07713.192,E,000.0,000.0,200224,000.0,W*78
$GPGGA,043742.981,2838.558,N,07713.192,E,1,12,1.0,0.0,M,0.0,M,,*69
$GPGSA,A,3,01,02,03,04,05,06,07,08,09,10,11,12,1.0,1.0,1.0*30
$GPRMC,043742.981,A,2838.558,N,07713.192,E,000.0,000.0,200224,000.0,W*7B
$GPGGA,043743.981,2838.558,N,07713.192,E,1,12,1.0,0.0,M,0.0,M,,*68
$GPGSA,A,3,01,02,03,04,05,06,07,08,09,10,11,12,1.0,1.0,1.0*30
$GPRMC,043743.981,A,2838.558,N,07713.192,E,000.0,000.0,200224,000.0,W*7A
$GPGGA,043744.981,2838.558,N,07713.192,E,1,12,1.0,0.0,M,0.0,M,,*6F
$GPGSA,A,3,01,02,03,04,05,06,07,08,09,10,11,12,1.0,1.0,1.0*30
$GPRMC,043744.981,A,2838.558,N,07713.192,E,000.0,000.0,200224,000.0,W*7D
$GPGGA,043745.981,2838.558,N,07713.192,E,1,12,1.0,0.0,M,0.0,M,,*6E
$GPGSA,A,3,01,02,03,04,05,06,07,08,09,10,11,12,1.0,1.0,1.0*30
$GPRMC,043745.981,A,2838.558,N,07713.192,E,000.0,000.0,200224,000.0,W*7C
$GPGGA,043746.981,2838.558,N,07713.192,E,1,12,1.0,0.0,M,0.0,M,,*6D
$GPGSA,A,3,01,02,03,04,05,06,07,08,09,10,11,12,1.0,1.0,1.0*30
$GPRMC,043746.981,A,2838.558,N,07713.192,E,000.0,000.0,200224,000.0,W*7F
$GPGGA,043747.981,2838.558,N,07713.192,E,1,12,1.0,0.0,M,0.0,M,,*6C
$GPGSA,A,3,01,02,03,04,05,06,07,08,09,10,11,12,1.0,1.0,1.0*30
$GPRMC,043747.981,A,2838.558,N,07713.192,E,000.0,000.0,200224,000.0,W*7E
$GPGGA,043748.981,2838.558,N,07713.192,E,1,12,1.0,0.0,M,0.0,M,,*63
$GPGSA,A,3,01,02,03,04,05,06,07,08,09,10,11,12,1.0,1.0,1.0*30
$GPRMC,043748.981,A,2838.558,N,07713.192,E,000.0,000.0,200224,000.0,W*71
$GPGGA,043749.981,2838.558,N,07713.192,E,1,12,1.0,0.0,M,0.0,M,,*62
$GPGSA,A,3,01,02,03,04,05,06,07,08,09,10,11,12,1.0,1.0,1.0*30
$GPRMC,043749.981,A,2838.558,N,07713.192,E,000.0,000.0,200224,000.0,W*70
$GPGGA,043750.981,2838.558,N,07713.192,E,1,12,1.0,0.0,M,0.0,M,,*6A
$GPGSA,A,3,01,02,03,04,05,06,07,08,09,10,11,12,1.0,1.0,1.0*30
$GPRMC,043750.981,A,2838.558,N,07713.192,E,000.0,000.0,200224,000.0,W*78
$GPGGA,043751.981,2838.558,N,07713.192,E,1,12,1.0,0.0,M,0.0,M,,*6B
$GPGSA,A,3,01,02,03,04,05,06,07,08,09,10,11,12,1.0,1.0,1.0*30
$GPRMC,043751.981,A,2838.558,N,07713.192,E,000.0,000.0,200224,000.0,W*79
$GPGGA,043752.981,2838.558,N,07713.192,E,1,12,1.0,0.0,M,0.0,M,,*68
$GPGSA,A,3,01,02,03,04,05,06,07,08,09,10,11,12,1.0,1.0,1.0*30
$GPRMC,043752.981,A,2838.558,N,07713.192,E,000.0,000.0,200224,000.0,W*7A
$GPGGA,043753.981,2838.558,N,07713.192,E,1,12,1.0,0.0,M,0.0,M,,*69
$GPGSA,A,3,01,02,03,04,05,06,07,08,09,10,11,12,1.0,1.0,1.0*30
$GPRMC,043753.981,A,2838.558,N,07713.192,E,000.0,000.0,200224,000.0,W*7B
$GPGGA,043754.981,2838.558,N,07713.192,E,1,12,1.0,0.0,M,0.0,M,,*6E
$GPGSA,A,3,01,02,03,04,05,06,07,08,09,10,11,12,1.0,1.0,1.0*30
$GPRMC,043754.981,A,2838.558,N,07713.192,E,000.0,000.0,200224,000.0,W*7C
$GPGGA,043755.981,2838.558,N,07713.192,E,1,12,1.0,0.0,M,0.0,M,,*6F
$GPGSA,A,3,01,02,03,04,05,06,07,08,09,10,11,12,1.0,1.0,1.0*30
$GPRMC,043755.981,A,2838.558,N,07713.192,E,000.0,000.0,200224,000.0,W*7D
$GPGGA,043756.981,2838.558,N,07713.192,E,1,12,1.0,0.0,M,0.0,M,,*6C
$GPGSA,A,3,01,02,03,04,05,06,07,08,09,10,11,12,1.0,1.0,1.0*30
$GPRMC,043756.981,A,2838.558,N,07713.192,E,000.0,000.0,200224,000.0,W*7E
$GPGGA,043757.981,2838.558,N,07713.192,E,1,12,1.0,0.0,M,0.0,M,,*6D
$GPGSA,A,3,01,02,03,04,05,06,07,08,09,10,11,12,1.0,1.0,1.0*30
$GPRMC,043757.981,A,2838.558,N,07713.192,E,000.0,000.0,200224,000.0,W*7F
$GPGGA,043758.981,2838.558,N,07713.192,E,1,12,1.0,0.0,M,0.0,M,,*62
$GPGSA,A,3,01,02,03,04,05,06,07,08,09,10,11,12,1.0,1.0,1.0*30
$GPRMC,043758.981,A,2838.558,N,07713.192,E,000.0,000.0,200224,000.0,W*70
$GPGGA,043759.981,2838.558,N,07713.192,E,1,12,1.0,0.0,M,0.0,M,,*63
$GPGSA,A,3,01,02,03,04,05,06,07,08,09,10,11,12,1.0,1.0,1.0*30
$GPRMC,043759.981,A,2838.558,N,07713.192,E,000.0,000.0,200224,000.0,W*71
$GPGGA,043800.981,2838.558,N,07713.192,E,1,12,1.0,0.0,M,0.0,M,,*60
$GPGSA,A,3,01,02,03,04,05,06,07,08,09,10,11,12,1.0,1.0,1.0*30
$GPRMC,043800.981,A,2838.558,N,07713.192,E,000.0,000.0,200224,000.0,W*72
$GPGGA,043801.981,2838.558,N,07713.192,E,1,12,1.0,0.0,M,0.0,M,,*61
$GPGSA,A,3,01,02,03,04,05,06,07,08,09,10,11,12,1.0,1.0,1.0*30
$GPRMC,043801.981,A,2838.558,N,07713.192,E,000.0,000.0,200224,000.0,W*73
$GPGGA,043802.981,2838.558,N,07713.192,E,1,12,1.0,0.0,M,0.0,M,,*62
$GPGSA,A,3,01,02,03,04,05,06,07,08,09,10,11,12,1.0,1.0,1.0*30
$GPRMC,043802.981,A,2838.558,N,07713.192,E,000.0,000.0,200224,000.0,W*70
$GPGGA,043803.981,2838.558,N,07713.192,E,1,12,1.0,0.0,M,0.0,M,,*63
$GPGSA,A,3,01,02,03,04,05,06,07,08,09,10,11,12,1.0,1.0,1.0*30
$GPRMC,043803.981,A,2838.558,N,07713.192,E,000.0,000.0,200224,000.0,W*71
$GPGGA,043804.981,2838.558,N,07713.192,E,1,12,1.0,0.0,M,0.0,M,,*64
$GPGSA,A,3,01,02,03,04,05,06,07,08,09,10,11,12,1.0,1.0,1.0*30
$GPRMC,043804.981,A,2838.558,N,07713.192,E,000.0,000.0,200224,000.0,W*76
$GPGGA,043805.981,2838.558,N,07713.192,E,1,12,1.0,0.0,M,0.0,M,,*65
$GPGSA,A,3,01,02,03,04,05,06,07,08,09,10,11,12,1.0,1.0,1.0*30
$GPRMC,043805.981,A,2838.558,N,07713.192,E,000.0,000.0,200224,000.0,W*77
$GPGGA,043806.981,2838.558,N,07713.192,E,1,12,1.0,0.0,M,0.0,M,,*66
$GPGSA,A,3,01,02,03,04,05,06,07,08,09,10,11,12,1.0,1.0,1.0*30
$GPRMC,043806.981,A,2838.558,N,07713.192,E,000.0,000.0,200224,000.0,W*74
$GPGGA,043807.981,2838.558,N,07713.192,E,1,12,1.0,0.0,M,0.0,M,,*67
$GPGSA,A,3,01,02,03,04,05,06,07,08,09,10,11,12,1.0,1.0,1.0*30
$GPRMC,043807.981,A,2838.558,N,07713.192,E,000.0,000.0,200224,000.0,W*75
$GPGGA,043808.981,2838.558,N,07713.192,E,1,12,1.0,0.0,M,0.0,M,,*68
$GPGSA,A,3,01,02,03,04,05,06,07,08,09,10,11,12,1.0,1.0,1.0*30
$GPRMC,043808.981,A,2838.558,N,07713.192,E,000.0,000.0,200224,000.0,W*7A
$GPGGA,043809.981,2838.558,N,07713.192,E,1,12,1.0,0.0,M,0.0,M,,*69
$GPGSA,A,3,01,02,03,04,05,06,07,08,09,10,11,12,1.0,1.0,1.0*30
$GPRMC,043809.981,A,2838.558,N,07713.192,E,000.0,000.0,200224,000.0,W*7B
$GPGGA,043810.981,2838.558,N,07713.192,E,1,12,1.0,0.0,M,0.0,M,,*61
$GPGSA,A,3,01,02,03,04,05,06,07,08,09,10,11,12,1.0,1.0,1.0*30
$GPRMC,043810.981,A,2838.558,N,07713.192,E,000.0,000.0,200224,000.0,W*73
$GPGGA,043811.981,2838.558,N,07713.192,E,1,12,1.0,0.0,M,0.0,M,,*60
$GPGSA,A,3,01,02,03,04,05,06,07,08,09,10,11,12,1.0,1.0,1.0*30
$GPRMC,043811.981,A,2838.558,N,07713.192,E,000.0,000.0,200224,000.0,W*72
$GPGGA,043812.981,2838.558,N,07713.192,E,1,12,1.0,0.0,M,0.0,M,,*63
$GPGSA,A,3,01,02,03,04,05,06,07,08,09,10,11,12,1.0,1.0,1.0*30
$GPRMC,043812.981,A,2838.558,N,07713.192,E,000.0,000.0,200224,000.0,W*71
$GPGGA,043813.981,2838.558,N,07713.192,E,1,12,1.0,0.0,M,0.0,M,,*62
$GPGSA,A,3,01,02,03,04,05,06,07,08,09,10,11,12,1.0,1.0,1.0*30
$GPRMC,043813.981,A,2838.558,N,07713.192,E,000.0,000.0,200224,000.0,W*70
$GPGGA,043814.981,2838.558,N,07713.192,E,1,12,1.0,0.0,M,0.0,M,,*65
$GPGSA,A,3,01,02,03,04,05,06,07,08,09,10,11,12,1.0,1.0,1.0*30
$GPRMC,043814.981,A,2838.558,N,07713.192,E,000.0,000.0,200224,000.0,W*77
$GPGGA,043815.981,2838.558,N,07713.192,E,1,12,1.0,0.0,M,0.0,M,,*64
$GPGSA,A,3,01,02,03,04,05,06,07,08,09,10,11,12,1.0,1.0,1.0*30
$GPRMC,043815.981,A,2838.558,N,07713.192,E,000.0,000.0,200224,000.0,W*76
$GPGGA,043816.981,2838.558,N,07713.192,E,1,12,1.0,0.0,M,0.0,M,,*67
$GPGSA,A,3,01,02,03,04,05,06,07,08,09,10,11,12,1.0,1.0,1.0*30
$GPRMC,043816.981,A,2838.558,N,07713.192,E,000.0,000.0,200224,000.0,W*75
$GPGGA,043817.981,2838.558,N,07713.192,E,1,12,1.0,0.0,M,0.0,M,,*66
$GPGSA,A,3,01,02,03,04,05,06,07,08,09,10,11,12,1.0,1.0,1.0*30
$GPRMC,043817.981,A,2838.558,N,07713.192,E,000.0,000.0,200224,000.0,W*74
$GPGGA,043818.981,2838.558,N,07713.192,E,1,12,1.0,0.0,M,0.0,M,,*69
$GPGSA,A,3,01,02,03,04,05,06,07,08,09,10,11,12,1.0,1.0,1.0*30
$GPRMC,043818.981,A,2838.558,N,07713.192,E,000.0,000.0,200224,000.0,W*7B
$GPGGA,043819.981,2838.558,N,07713.192,E,1,12,1.0,0.0,M,0.0,M,,*68
$GPGSA,A,3,01,02,03,04,05,06,07,08,09,10,11,12,1.0,1.0,1.0*30
$GPRMC,043819.981,A,2838.558,N,07713.192,E,000.0,000.0,200224,000.0,W*7A
$GPGGA,043820.981,2838.558,N,07713.192,E,1,12,1.0,0.0,M,0.0,M,,*62
$GPGSA,A,3,01,02,03,04,05,06,07,08,09,10,11,12,1.0,1.0,1.0*30
$GPRMC,043820.981,A,2838.558,N,07713.192,E,000.0,000.0,200224,000.0,W*70
$GPGGA,043821.981,2838.558,N,07713.192,E,1,12,1.0,0.0,M,0.0,M,,*63
$GPGSA,A,3,01,02,03,04,05,06,07,08,09,10,11,12,1.0,1.0,1.0*30
$GPRMC,043821.981,A,2838.558,N,07713.192,E,000.0,000.0,200224,000.0,W*71
$GPGGA,043822.981,2838.558,N,07713.192,E,1,12,1.0,0.0,M,0.0,M,,*60
$GPGSA,A,3,01,02,03,04,05,06,07,08,09,10,11,12,1.0,1.0,1.0*30
$GPRMC,043822.981,A,2838.558,N,07713.192,E,000.0,000.0,200224,000.0,W*72
$GPGGA,043823.981,2838.558,N,07713.192,E,1,12,1.0,0.0,M,0.0,M,,*61
$GPGSA,A,3,01,02,03,04,05,06,07,08,09,10,11,12,1.0,1.0,1.0*30
$GPRMC,043823.981,A,2838.558,N,07713.192,E,000.0,000.0,200224,000.0,W*73
$GPGGA,043824.981,2838.558,N,07713.192,E,1,12,1.0,0.0,M,0.0,M,,*66
$GPGSA,A,3,01,02,03,04,05,06,07,08,09,10,11,12,1.0,1.0,1.0*30
$GPRMC,043824.981,A,2838.558,N,07713.192,E,000.0,000.0,200224,000.0,W*74
$GPGGA,043825.981,2838.558,N,07713.192,E,1,12,1.0,0.0,M,0.0,M,,*67
$GPGSA,A,3,01,02,03,04,05,06,07,08,09,10,11,12,1.0,1.0,1.0*30
$GPRMC,043825.981,A,2838.558,N,07713.192,E,000.0,000.0,200224,000.0,W*75
$GPGGA,043826.981,2838.558,N,07713.192,E,1,12,1.0,0.0,M,0.0,M,,*64
$GPGSA,A,3,01,02,03,04,05,06,07,08,09,10,11,12,1.0,1.0,1.0*30
$GPRMC,043826.981,A,2838.558,N,07713.192,E,000.0,000.0,200224,000.0,W*76
$GPGGA,043827.981,2838.558,N,07713.192,E,1,12,1.0,0.0,M,0.0,M,,*65
$GPGSA,A,3,01,02,03,04,05,06,07,08,09,10,11,12,1.0,1.0,1.0*30
$GPRMC,043827.981,A,2838.558,N,07713.192,E,000.0,000.0,200224,000.0,W*77
$GPGGA,043828.981,2838.558,N,07713.192,E,1,12,1.0,0.0,M,0.0,M,,*6A
$GPGSA,A,3,01,02,03,04,05,06,07,08,09,10,11,12,1.0,1.0,1.0*30
$GPRMC,043828.981,A,2838.558,N,07713.192,E,000.0,000.0,200224,000.0,W*78
$GPGGA,043829.981,2838.558,N,07713.192,E,1,12,1.0,0.0,M,0.0,M,,*6B
$GPGSA,A,3,01,02,03,04,05,06,07,08,09,10,11,12,1.0,1.0,1.0*30
$GPRMC,043829.981,A,2838.558,N,07713.192,E,000.0,000.0,200224,000.0,W*79
$GPGGA,043830.981,2838.558,N,07713.192,E,1,12,1.0,0.0,M,0.0,M,,*63
$GPGSA,A,3,01,02,03,04,05,06,07,08,09,10,11,12,1.0,1.0,1.0*30
$GPRMC,043830.981,A,2838.558,N,07713.192,E,000.0,000.0,200224,000.0,W*71
$GPGGA,043831.981,2838.558,N,07713.192,E,1,12,1.0,0.0,M,0.0,M,,*62
$GPGSA,A,3,01,02,03,04,05,06,07,08,09,10,11,12,1.0,1.0,1.0*30
$GPRMC,043831.981,A,2838.558,N,07713.192,E,000.0,000.0,200224,000.0,W*70
$GPGGA,043832.981,2838.558,N,07713.192,E,1,12,1.0,0.0,M,0.0,M,,*61
$GPGSA,A,3,01,02,03,04,05,06,07,08,09,10,11,12,1.0,1.0,1.0*30
$GPRMC,043832.981,A,2838.558,N,07713.192,E,000.0,000.0,200224,000.0,W*73
$GPGGA,043833.981,2838.558,N,07713.192,E,1,12,1.0,0.0,M,0.0,M,,*60
$GPGSA,A,3,01,02,03,04,05,06,07,08,09,10,11,12,1.0,1.0,1.0*30
$GPRMC,043833.981,A,2838.558,N,07713.192,E,000.0,000.0,200224,000.0,W*72
$GPGGA,043834.981,2838.558,N,07713.192,E,1,12,1.0,0.0,M,0.0,M,,*67
$GPGSA,A,3,01,02,03,04,05,06,07,08,09,10,11,12,1.0,1.0,1.0*30
$GPRMC,043834.981,A,2838.558,N,07713.192,E,000.0,000.0,200224,000.0,W*75
$GPGGA,043835.981,2838.558,N,07713.192,E,1,12,1.0,0.0,M,0.0,M,,*66
$GPGSA,A,3,01,02,03,04,05,06,07,08,09,10,11,12,1.0,1.0,1.0*30
$GPRMC,043835.981,A,2838.558,N,07713.192,E,000.0,000.0,200224,000.0,W*74
$GPGGA,043836.981,2838.558,N,07713.192,E,1,12,1.0,0.0,M,0.0,M,,*65
$GPGSA,A,3,01,02,03,04,05,06,07,08,09,10,11,12,1.0,1.0,1.0*30
$GPRMC,043836.981,A,2838.558,N,07713.192,E,000.0,000.0,200224,000.0,W*77
$GPGGA,043837.981,2838.558,N,07713.192,E,1,12,1.0,0.0,M,0.0,M,,*64
$GPGSA,A,3,01,02,03,04,05,06,07,08,09,10,11,12,1.0,1.0,1.0*30
$GPRMC,043837.981,A,2838.558,N,07713.192,E,000.0,000.0,200224,000.0,W*76
$GPGGA,043838.981,2838.558,N,07713.192,E,1,12,1.0,0.0,M,0.0,M,,*6B
$GPGSA,A,3,01,02,03,04,05,06,07,08,09,10,11,12,1.0,1.0,1.0*30
$GPRMC,043838.981,A,2838.558,N,07713.192,E,000.0,000.0,200224,000.0,W*79
$GPGGA,043839.981,2838.558,N,07713.192,E,1,12,1.0,0.0,M,0.0,M,,*6A
$GPGSA,A,3,01,02,03,04,05,06,07,08,09,10,11,12,1.0,1.0,1.0*30
$GPRMC,043839.981,A,2838.558,N,07713.192,E,000.0,000.0,200224,000.0,W*78
$GPGGA,043840.981,2838.558,N,07713.192,E,1,12,1.0,0.0,M,0.0,M,,*64
$GPGSA,A,3,01,02,03,04,05,06,07,08,09,10,11,12,1.0,1.0,1.0*30
$GPRMC,043840.981,A,2838.558,N,07713.192,E,000.0,000.0,200224,000.0,W*76
$GPGGA,043841.981,2838.558,N,07713.192,E,1,12,1.0,0.0,M,0.0,M,,*65
$GPGSA,A,3,01,02,03,04,05,06,07,08,09,10,11,12,1.0,1.0,1.0*30
$GPRMC,043841.981,A,2838.558,N,07713.192,E,000.0,000.0,200224,000.0,W*77
$GPGGA,043842.981,2838.558,N,07713.192,E,1,12,1.0,0.0,M,0.0,M,,*66
$GPGSA,A,3,01,02,03,04,05,06,07,08,09,10,11,12,1.0,1.0,1.0*30
$GPRMC,043842.981,A,2838.558,N,07713.192,E,000.0,000.0,200224,000.0,W*74
$GPGGA,043843.981,2838.558,N,07713.192,E,1,12,1.0,0.0,M,0.0,M,,*67
$GPGSA,A,3,01,02,03,04,05,06,07,08,09,10,11,12,1.0,1.0,1.0*30
$GPRMC,043843.981,A,2838.558,N,07713.192,E,000.0,000.0,200224,000.0,W*75
$GPGGA,043844.981,2838.558,N,07713.192,E,1,12,1.0,0.0,M,0.0,M,,*60
$GPGSA,A,3,01,02,03,04,05,06,07,08,09,10,11,12,1.0,1.0,1.0*30
$GPRMC,043844.981,A,2838.558,N,07713.192,E,000.0,000.0,200224,000.0,W*72
$GPGGA,043845.981,2838.558,N,07713.192,E,1,12,1.0,0.0,M,0.0,M,,*61
$GPGSA,A,3,01,02,03,04,05,06,07,08,09,10,11,12,1.0,1.0,1.0*30
$GPRMC,043845.981,A,2838.558,N,07713.192,E,000.0,000.0,200224,000.0,W*73
$GPGGA,043846.981,2838.558,N,07713.192,E,1,12,1.0,0.0,M,0.0,M,,*62
$GPGSA,A,3,01,02,03,04,05,06,07,08,09,10,11,12,1.0,1.0,1.0*30
$GPRMC,043846.981,A,2838.558,N,07713.192,E,000.0,000.0,200224,000.0,W*70
$GPGGA,043847.981,2838.558,N,07713.192,E,1,12,1.0,0.0,M,0.0,M,,*63
$GPGSA,A,3,01,02,03,04,05,06,07,08,09,10,11,12,1.0,1.0,1.0*30
$GPRMC,043847.981,A,2838.558,N,07713.192,E,000.0,000.0,200224,000.0,W*71
$GPGGA,043848.981,2838.558,N,07713.192,E,1,12,1.0,0.0,M,0.0,M,,*6C
$GPGSA,A,3,01,02,03,04,05,06,07,08,09,10,11,12,1.0,1.0,1.0*30
$GPRMC,043848.981,A,2838.558,N,07713.192,E,000.0,000.0,200224,000.0,W*7E
$GPGGA,043849.981,2838.558,N,07713.192,E,1,12,1.0,0.0,M,0.0,M,,*6D
$GPGSA,A,3,01,02,03,04,05,06,07,08,09,10,11,12,1.0,1.0,1.0*30
$GPRMC,043849.981,A,2838.558,N,07713.192,E,000.0,000.0,200224,000.0,W*7F
$GPGGA,043850.981,2838.558,N,07713.192,E,1,12,1.0,0.0,M,0.0,M,,*65
$GPGSA,A,3,01,02,03,04,05,06,07,08,09,10,11,12,1.0,1.0,1.0*30
$GPRMC,043850.981,A,2838.558,N,07713.192,E,000.0,000.0,200224,000.0,W*77
$GPGGA,043851.981,2838.558,N,07713.192,E,1,12,1.0,0.0,M,0.0,M,,*64
$GPGSA,A,3,01,02,03,04,05,06,07,08,09,10,11,12,1.0,1.0,1.0*30
$GPRMC,043851.981,A,2838.558,N,07713.192,E,000.0,000.0,200224,000.0,W*76
$GPGGA,043852.981,2838.558,N,07713.192,E,1,12,1.0,0.0,M,0.0,M,,*67
$GPGSA,A,3,01,02,03,04,05,06,07,08,09,10,11,12,1.0,1.0,1.0*30
$GPRMC,043852.981,A,2838.558,N,07713.192,E,000.0,000.0,200224,000.0,W*75
$GPGGA,043853.981,2838.558,N,07713.192,E,1,12,1.0,0.0,M,0.0,M,,*66
$GPGSA,A,3,01,02,03,04,05,06,07,08,09,10,11,12,1.0,1.0,1.0*30
$GPRMC,043853.981,A,2838.558,N,07713.192,E,000.0,000.0,200224,000.0,W*74
$GPGGA,043854.981,2838.558,N,07713.192,E,1,12,1.0,0.0,M,0.0,M,,*61
$GPGSA,A,3,01,02,03,04,05,06,07,08,09,10,11,12,1.0,1.0,1.0*30
$GPRMC,043854.981,A,2838.558,N,07713.192,E,000.0,000.0,200224,000.0,W*73
$GPGGA,043855.981,2838.558,N,07713.192,E,1,12,1.0,0.0,M,0.0,M,,*60
$GPGSA,A,3,01,02,03,04,05,06,07,08,09,10,11,12,1.0,1.0,1.0*30
$GPRMC,043855.981,A,2838.558,N,07713.192,E,000.0,000.0,200224,000.0,W*72
$GPGGA,043856.981,2838.558,N,07713.192,E,1,12,1.0,0.0,M,0.0,M,,*63
$GPGSA,A,3,01,02,03,04,05,06,07,08,09,10,11,12,1.0,1.0,1.0*30
$GPRMC,043856.981,A,2838.558,N,07713.192,E,000.0,000.0,200224,000.0,W*71
$GPGGA,043857.981,2838.558,N,07713.192,E,1,12,1.0,0.0,M,0.0,M,,*62
$GPGSA,A,3,01,02,03,04,05,06,07,08,09,10,11,12,1.0,1.0,1.0*30
$GPRMC,043857.981,A,2838.558,N,07713.192,E,000.0,000.0,200224,000.0,W*70
$GPGGA,043858.981,2838.558,N,07713.192,E,1,12,1.0,0.0,M,0.0,M,,*6D
$GPGSA,A,3,01,02,03,04,05,06,07,08,09,10,11,12,1.0,1.0,1.0*30
$GPRMC,043858.981,A,2838.558,N,07713.192,E,000.0,000.0,200224,000.0,W*7F
$GPGGA,043859.981,2838.558,N,07713.192,E,1,12,1.0,0.0,M,0.0,M,,*6C
$GPGSA,A,3,01,02,03,04,05,06,07,08,09,10,11,12,1.0,1.0,1.0*30
$GPRMC,043859.981,A,2838.558,N,07713.192,E,000.0,000.0,200224,000.0,W*7E
$GPGGA,043900.981,2838.558,N,07713.192,E,1,12,1.0,0.0,M,0.0,M,,*61
$GPGSA,A,3,01,02,03,04,05,06,07,08,09,10,11,12,1.0,1.0,1.0*30
$GPRMC,043900.981,A,2838.558,N,07713.192,E,000.0,000.0,200224,000.0,W*73
$GPGGA,043901.981,2838.558,N,07713.192,E,1,12,1.0,0.0,M,0.0,M,,*60
$GPGSA,A,3,01,02,03,04,05,06,07,08,09,10,11,12,1.0,1.0,1.0*30
$GPRMC,043901.981,A,2838.558,N,07713.192,E,000.0,000.0,200224,000.0,W*72
$GPGGA,043902.981,2838.558,N,07713.192,E,1,12,1.0,0.0,M,0.0,M,,*63
$GPGSA,A,3,01,02,03,04,05,06,07,08,09,10,11,12,1.0,1.0,1.0*30
$GPRMC,043902.981,A,2838.558,N,07713.192,E,000.0,000.0,200224,000.0,W*71
$GPGGA,043903.981,2838.558,N,07713.192,E,1,12,1.0,0.0,M,0.0,M,,*62
$GPGSA,A,3,01,02,03,04,05,06,07,08,09,10,11,12,1.0,1.0,1.0*30
$GPRMC,043903.981,A,2838.558,N,07713.192,E,000.0,000.0,200224,000.0,W*70
$GPGGA,043904.981,2838.558,N,07713.192,E,1,12,1.0,0.0,M,0.0,M,,*65
$GPGSA,A,3,01,02,03,04,05,06,07,08,09,10,11,12,1.0,1.0,1.0*30
$GPRMC,043904.981,A,2838.558,N,07713.192,E,000.0,000.0,200224,000.0,W*77
$GPGGA,043905.981,2838.558,N,07713.192,E,1,12,1.0,0.0,M,0.0,M,,*64
$GPGSA,A,3,01,02,03,04,05,06,07,08,09,10,11,12,1.0,1.0,1.0*30
$GPRMC,043905.981,A,2838.558,N,07713.192,E,000.0,000.0,200224,000.0,W*76
$GPGGA,043906.981,2838.558,N,07713.192,E,1,12,1.0,0.0,M,0.0,M,,*67
$GPGSA,A,3,01,02,03,04,05,06,07,08,09,10,11,12,1.0,1.0,1.0*30
$GPRMC,043906.981,A,2838.558,N,07713.192,E,000.0,000.0,200224,000.0,W*75
$GPGGA,043907.981,2838.558,N,07713.192,E,1,12,1.0,0.0,M,0.0,M,,*66
$GPGSA,A,3,01,02,03,04,05,06,07,08,09,10,11,12,1.0,1.0,1.0*30
$GPRMC,043907.981,A,2838.558,N,07713.192,E,000.0,000.0,200224,000.0,W*74
$GPGGA,043908.981,2838.558,N,07713.192,E,1,12,1.0,0.0,M,0.0,M,,*69
$GPGSA,A,3,01,02,03,04,05,06,07,08,09,10,11,12,1.0,1.0,1.0*30
$GPRMC,043908.981,A,2838.558,N,07713.192,E,000.0,000.0,200224,000.0,W*7B
$GPGGA,043909.981,2838.558,N,07713.192,E,1,12,1.0,0.0,M,0.0,M,,*68
$GPGSA,A,3,01,02,03,04,05,06,07,08,09,10,11,12,1.0,1.0,1.0*30
$GPRMC,043909.981,A,2838.558,N,07713.192,E,000.0,000.0,200224,000.0,W*7A
$GPGGA,043910.981,2838.558,N,07713.192,E,1,12,1.0,0.0,M,0.0,M,,*60
$GPGSA,A,3,01,02,03,04,05,06,07,08,09,10,11,12,1.0,1.0,1.0*30
$GPRMC,043910.981,A,2838.558,N,07713.192,E,000.0,000.0,200224,000.0,W*72
$GPGGA,043911.981,2838.558,N,07713.192,E,1,12,1.0,0.0,M,0.0,M,,*61
$GPGSA,A,3,01,02,03,04,05,06,07,08,09,10,11,12,1.0,1.0,1.0*30
$GPRMC,043911.981,A,2838.558,N,07713.192,E,000.0,000.0,200224,000.0,W*73
$GPGGA,043912.981,2838.558,N,07713.192,E,1,12,1.0,0.0,M,0.0,M,,*62
$GPGSA,A,3,01,02,03,04,05,06,07,08,09,10,11,12,1.0,1.0,1.0*30
$GPRMC,043912.981,A,2838.558,N,07713.192,E,000.0,000.0,200224,000.0,W*70
$GPGGA,043913.981,2838.558,N,07713.192,E,1,12,1.0,0.0,M,0.0,M,,*63
$GPGSA,A,3,01,02,03,04,05,06,07,08,09,10,11,12,1.0,1.0,1.0*30
$GPRMC,043913.981,A,2838.558,N,07713.192,E,000.0,000.0,200224,000.0,W*71
$GPGGA,043914.981,2838.558,N,07713.192,E,1,12,1.0,0.0,M,0.0,M,,*64
$GPGSA,A,3,01,02,03,04,05,06,07,08,09,10,11,12,1.0,1.0,1.0*30
$GPRMC,043914.981,A,2838.558,N,07713.192,E,000.0,000.0,200224,000.0,W*76
$GPGGA,043915.981,2838.558,N,07713.192,E,1,12,1.0,0.0,M,0.0,M,,*65
$GPGSA,A,3,01,02,03,04,05,06,07,08,09,10,11,12,1.0,1.0,1.0*30
$GPRMC,043915.981,A,2838.558,N,07713.192,E,000.0,000.0,200224,000.0,W*77
$GPGGA,043916.981,2838.558,N,07713.192,E,1,12,1.0,0.0,M,0.0,M,,*66
$GPGSA,A,3,01,02,03,04,05,06,07,08,09,10,11,12,1.0,1.0,1.0*30
$GPRMC,043916.981,A,2838.558,N,07713.192,E,000.0,000.0,200224,000.0,W*74
$GPGGA,043917.981,2838.558,N,07713.192,E,1,12,1.0,0.0,M,0.0,M,,*67
$GPGSA,A,3,01,02,03,04,05,06,07,08,09,10,11,12,1.0,1.0,1.0*30
$GPRMC,043917.981,A,2838.558,N,07713.192,E,000.0,000.0,200224,000.0,W*75
$GPGGA,043918.981,2838.558,N,07713.192,E,1,12,1.0,0.0,M,0.0,M,,*68
$GPGSA,A,3,01,02,03,04,05,06,07,08,09,10,11,12,1.0,1.0,1.0*30
$GPRMC,043918.981,A,2838.558,N,07713.192,E,000.0,000.0,200224,000.0,W*7A
$GPGGA,043919.981,2838.558,N,07713.192,E,1,12,1.0,0.0,M,0.0,M,,*69
$GPGSA,A,3,01,02,03,04,05,06,07,08,09,10,11,12,1.0,1.0,1.0*30
$GPRMC,043919.981,A,2838.558,N,07713.192,E,000.0,000.0,200224,000.0,W*7B
$GPGGA,043920.981,2838.558,N,07713.192,E,1,12,1.0,0.0,M,0.0,M,,*63
$GPGSA,A,3,01,02,03,04,05,06,07,08,09,10,11,12,1.0,1.0,1.0*30
$GPRMC,043920.981,A,2838.558,N,07713.192,E,000.0,000.0,200224,000.0,W*71
$GPGGA,043921.981,2838.558,N,07713.192,E,1,12,1.0,0.0,M,0.0,M,,*62
$GPGSA,A,3,01,02,03,04,05,06,07,08,09,10,11,12,1.0,1.0,1.0*30
$GPRMC,043921.981,A,2838.558,N,07713.192,E,000.0,000.0,200224,000.0,W*70
$GPGGA,043922.981,2838.558,N,07713.192,E,1,12,1.0,0.0,M,0.0,M,,*61
$GPGSA,A,3,01,02,03,04,05,06,07,08,09,10,11,12,1.0,1.0,1.0*30
$GPRMC,043922.981,A,2838.558,N,07713.192,E,000.0,000.0,200224,000.0,W*73
$GPGGA,043923.981,2838.558,N,07713.192,E,1,12,1.0,0.0,M,0.0,M,,*60
$GPGSA,A,3,01,02,03,04,05,06,07,08,09,10,11,12,1.0,1.0,1.0*30
$GPRMC,043923.981,A,2838.558,N,07713.192,E,000.0,000.0,200224,000.0,W*72
$GPGGA,043924.981,2838.558,N,07713.192,E,1,12,1.0,0.0,M,0.0,M,,*67
$GPGSA,A,3,01,02,03,04,05,06,07,08,09,10,11,12,1.0,1.0,1.0*30
$GPRMC,043924.981,A,2838.558,N,07713.192,E,000.0,000.0,200224,000.0,W*75
$GPGGA,043925.981,2838.558,N,07713.192,E,1,12,1.0,0.0,M,0.0,M,,*66
$GPGSA,A,3,01,02,03,04,05,06,07,08,09,10,11,12,1.0,1.0,1.0*30
$GPRMC,043925.981,A,2838.558,N,07713.192,E,000.0,000.0,200224,000.0,W*74
$GPGGA,043926.981,2838.558,N,07713.192,E,1,12,1.0,0.0,M,0.0,M,,*65
$GPGSA,A,3,01,02,03,04,05,06,07,08,09,10,11,12,1.0,1.0,1.0*30
$GPRMC,043926.981,A,2838.558,N,07713.192,E,000.0,000.0,200224,000.0,W*77
$GPGGA,043927.981,2838.558,N,07713.192,E,1,12,1.0,0.0,M,0.0,M,,*64
$GPGSA,A,3,01,02,03,04,05,06,07,08,09,10,11,12,1.0,1.0,1.0*30
$GPRMC,043927.981,A,2838.558,N,07713.192,E,000.0,000.0,200224,000.0,W*76
$GPGGA,043928.981,2838.558,N,07713.192,E,1,12,1.0,0.0,M,0.0,M,,*6B
$GPGSA,A,3,01,02,03,04,05,06,07,08,09,10,11,12,1.0,1.0,1.0*30
$GPRMC,043928.981,A,2838.558,N,07713.192,E,000.0,000.0,200224,000.0,W*79
$GPGGA,043929.981,2838.558,N,07713.192,E,1,12,1.0,0.0,M,0.0,M,,*6A
$GPGSA,A,3,01,02,03,04,05,06,07,08,09,10,11,12,1.0,1.0,1.0*30
$GPRMC,043929.981,A,2838.558,N,07713.192,E,000.0,000.0,200224,000.0,W*78
$GPGGA,043930.981,2838.558,N,07713.192,E,1,12,1.0,0.0,M,0.0,M,,*62
$GPGSA,A,3,01,02,03,04,05,06,07,08,09,10,11,12,1.0,1.0,1.0*30
$GPRMC,043930.981,A,2838.558,N,07713.192,E,000.0,000.0,200224,000.0,W*70
$GPGGA,043931.981,2838.558,N,07713.192,E,1,12,1.0,0.0,M,0.0,M,,*63
$GPGSA,A,3,01,02,03,04,05,06,07,08,09,10,11,12,1.0,1.0,1.0*30
$GPRMC,043931.981,A,2838.558,N,07713.192,E,000.0,000.0,200224,000.0,W*71
$GPGGA,043932.981,2838.558,N,07713.192,E,1,12,1.0,0.0,M,0.0,M,,*60
$GPGSA,A,3,01,02,03,04,05,06,07,08,09,10,11,12,1.0,1.0,1.0*30
$GPRMC,043932.981,A,2838.558,N,07713.192,E,000.0,000.0,200224,000.0,W*72
$GPGGA,043933.981,2838.558,N,07713.192,E,1,12,1.0,0.0,M,0.0,M,,*61
$GPGSA,A,3,01,02,03,04,05,06,07,08,09,10,11,12,1.0,1.0,1.0*30
$GPRMC,043933.981,A,2838.558,N,07713.192,E,000.0,000.0,200224,000.0,W*73
$GPGGA,043934.981,2838.558,N,07713.192,E,1,12,1.0,0.0,M,0.0,M,,*66
$GPGSA,A,3,01,02,03,04,05,06,07,08,09,10,11,12,1.0,1.0,1.0*30
$GPRMC,043934.981,A,2838.558,N,07713.192,E,000.0,000.0,200224,000.0,W*74
$GPGGA,043935.981,2838.558,N,07713.192,E,1,12,1.0,0.0,M,0.0,M,,*67
$GPGSA,A,3,01,02,03,04,05,06,07,08,09,10,11,12,1.0,1.0,1.0*30
$GPRMC,043935.981,A,2838.558,N,07713.192,E,000.0,000.0,200224,000.0,W*75
$GPGGA,043936.981,2838.558,N,07713.192,E,1,12,1.0,0.0,M,0.0,M,,*64
$GPGSA,A,3,01,02,03,04,05,06,07,08,09,10,11,12,1.0,1.0,1.0*30
$GPRMC,043936.981,A,2838.558,N,07713.192,E,000.0,000.0,200224,000.0,W*76
$GPGGA,043937.981,2838.558,N,07713.192,E,1,12,1.0,0.0,M,0.0,M,,*65
$GPGSA,A,3,01,02,03,04,05,06,07,08,09,10,11,12,1.0,1.0,1.0*30
$GPRMC,043937.981,A,2838.558,N,07713.192,E,000.0,000.0,200224,000.0,W*77
$GPGGA,043938.981,2838.558,N,07713.192,E,1,12,1.0,0.0,M,0.0,M,,*6A
$GPGSA,A,3,01,02,03,04,05,06,07,08,09,10,11,12,1.0,1.0,1.0*30
$GPRMC,043938.981,A,2838.558,N,07713.192,E,000.0,000.0,200224,000.0,W*78
$GPGGA,043939.981,2838.558,N,07713.192,E,1,12,1.0,0.0,M,0.0,M,,*6B
$GPGSA,A,3,01,02,03,04,05,06,07,08,09,10,11,12,1.0,1.0,1.0*30
$GPRMC,043939.981,A,2838.558,N,07713.192,E,000.0,000.0,200224,000.0,W*79
$GPGGA,043940.981,2838.558,N,07713.192,E,1,12,1.0,0.0,M,0.0,M,,*65
$GPGSA,A,3,01,02,03,04,05,06,07,08,09,10,11,12,1.0,1.0,1.0*30
$GPRMC,043940.981,A,2838.558,N,07713.192,E,000.0,000.0,200224,000.0,W*77
$GPGGA,043941.981,2838.558,N,07713.192,E,1,12,1.0,0.0,M,0.0,M,,*64
$GPGSA,A,3,01,02,03,04,05,06,07,08,09,10,11,12,1.0,1.0,1.0*30
$GPRMC,043941.981,A,2838.558,N,07713.192,E,000.0,000.0,200224,000.0,W*76
$GPGGA,043942.981,2838.558,N,07713.192,E,1,12,1.0,0.0,M,0.0,M,,*67
$GPGSA,A,3,01,02,03,04,05,06,07,08,09,10,11,12,1.0,1.0,1.0*30
$GPRMC,043942.981,A,2838.558,N,07713.192,E,000.0,000.0,200224,000.0,W*75
$GPGGA,043943.981,2838.558,N,07713.192,E,1,12,1.0,0.0,M,0.0,M,,*66
$GPGSA,A,3,01,02,03,04,05,06,07,08,09,10,11,12,1.0,1.0,1.0*30
$GPRMC,043943.981,A,2838.558,N,07713.192,E,000.0,000.0,200224,000.0,W*74
$GPGGA,043944.981,2838.558,N,07713.192,E,1,12,1.0,0.0,M,0.0,M,,*61
$GPGSA,A,3,01,02,03,04,05,06,07,08,09,10,11,12,1.0,1.0,1.0*30
$GPRMC,043944.981,A,2838.558,N,07713.192,E,000.0,000.0,200224,000.0,W*73
$GPGGA,043945.981,2838.558,N,07713.192,E,1,12,1.0,0.0,M,0.0,M,,*60
$GPGSA,A,3,01,02,03,04,05,06,07,08,09,10,11,12,1.0,1.0,1.0*30
$GPRMC,043945.981,A,2838.558,N,07713.192,E,000.0,000.0,200224,000.0,W*72
$GPGGA,043946.981,2838.558,N,07713.192,E,1,12,1.0,0.0,M,0.0,M,,*63
$GPGSA,A,3,01,02,03,04,05,06,07,08,09,10,11,12,1.0,1.0,1.0*30
$GPRMC,043946.981,A,2838.558,N,07713.192,E,000.0,000.0,200224,000.0,W*71
$GPGGA,043947.981,2838.558,N,07713.192,E,1,12,1.0,0.0,M,0.0,M,,*62
$GPGSA,A,3,01,02,03,04,05,06,07,08,09,10,11,12,1.0,1.0,1.0*30
$GPRMC,043947.981,A,2838.558,N,07713.192,E,000.0,000.0,200224,000.0,W*70
$GPGGA,043948.981,2838.558,N,07713.192,E,1,12,1.0,0.0,M,0.0,M,,*6D
$GPGSA,A,3,01,02,03,04,05,06,07,08,09,10,11,12,1.0,1.0,1.0*30
$GPRMC,043948.981,A,2838.558,N,07713.192,E,000.0,000.0,200224,000.0,W*7F
$GPGGA,043949.981,2838.558,N,07713.192,E,1,12,1.0,0.0,M,0.0,M,,*6C
$GPGSA,A,3,01,02,03,04,05,06,07,08,09,10,11,12,1.0,1.0,1.0*30
$GPRMC,043949.981,A,2838.558,N,07713.192,E,000.0,000.0,200224,000.0,W*7E
$GPGGA,043950.981,2838.558,N,07713.192,E,1,12,1.0,0.0,M,0.0,M,,*64
$GPGSA,A,3,01,02,03,04,05,06,07,08,09,10,11,12,1.0,1.0,1.0*30
$GPRMC,043950.981,A,2838.558,N,07713.192,E,000.0,000.0,200224,000.0,W*76
$GPGGA,043951.981,2838.558,N,07713.192,E,1,12,1.0,0.0,M,0.0,M,,*65
$GPGSA,A,3,01,02,03,04,05,06,07,08,09,10,11,12,1.0,1.0,1.0*30
$GPRMC,043951.981,A,2838.558,N,07713.192,E,000.0,000.0,200224,000.0,W*77
$GPGGA,043952.981,2838.558,N,07713.192,E,1,12,1.0,0.0,M,0.0,M,,*66
$GPGSA,A,3,01,02,03,04,05,06,07,08,09,10,11,12,1.0,1.0,1.0*30
$GPRMC,043952.981,A,2838.558,N,07713.192,E,000.0,000.0,200224,000.0,W*74
$GPGGA,043953.981,2838.558,N,07713.192,E,1,12,1.0,0.0,M,0.0,M,,*67
$GPGSA,A,3,01,02,03,04,05,06,07,08,09,10,11,12,1.0,1.0,1.0*30
$GPRMC,043953.981,A,2838.558,N,07713.192,E,000.0,000.0,200224,000.0,W*75
$GPGGA,043954.981,2838.558,N,07713.192,E,1,12,1.0,0.0,M,0.0,M,,*60
$GPGSA,A,3,01,02,03,04,05,06,07,08,09,10,11,12,1.0,1.0,1.0*30
$GPRMC,043954.981,A,2838.558,N,07713.192,E,000.0,000.0,200224,000.0,W*72
$GPGGA,043955.981,2838.558,N,07713.192,E,1,12,1.0,0.0,M,0.0,M,,*61
$GPGSA,A,3,01,02,03,04,05,06,07,08,09,10,11,12,1.0,1.0,1.0*30
$GPRMC,043955.981,A,2838.558,N,07713.192,E,000.0,000.0,200224,000.0,W*73
$GPGGA,043956.981,2838.558,N,07713.192,E,1,12,1.0,0.0,M,0.0,M,,*62
$GPGSA,A,3,01,02,03,04,05,06,07,08,09,10,11,12,1.0,1.0,1.0*30
$GPRMC,043956.981,A,2838.558,N,07713.192,E,000.0,000.0,200224,000.0,W*70
$GPGGA,043957.981,2838.558,N,07713.192,E,1,12,1.0,0.0,M,0.0,M,,*63
$GPGSA,A,3,01,02,03,04,05,06,07,08,09,10,11,12,1.0,1.0,1.0*30
$GPRMC,043957.981,A,2838.558,N,07713.192,E,000.0,000.0,200224,000.0,W*71
$GPGGA,043958.981,2838.558,N,07713.192,E,1,12,1.0,0.0,M,0.0,M,,*6C
$GPGSA,A,3,01,02,03,04,05,06,07,08,09,10,11,12,1.0,1.0,1.0*30
$GPRMC,043958.981,A,2838.558,N,07713.192,E,000.0,000.0,200224,000.0,W*7E
$GPGGA,043959.981,2838.558,N,07713.192,E,1,12,1.0,0.0,M,0.0,M,,*6D
$GPGSA,A,3,01,02,03,04,05,06,07,08,09,10,11,12,1.0,1.0,1.0*30
$GPRMC,043959.981,A,2838.558,N,07713.192,E,000.0,000.0,200224,000.0,W*7F
$GPGGA,044000.981,2838.558,N,07713.192,E,1,12,1.0,0.0,M,0.0,M,,*6F
$GPGSA,A,3,01,02,03,04,05,06,07,08,09,10,11,12,1.0,1.0,1.0*30
$GPRMC,044000.981,A,2838.558,N,07713.192,E,000.0,000.0,200224,000.0,W*7D
$GPGGA,044001.981,2838.558,N,07713.192,E,1,12,1.0,0.0,M,0.0,M,,*6E
$GPGSA,A,3,01,02,03,04,05,06,07,08,09,10,11,12,1.0,1.0,1.0*30
$GPRMC,044001.981,A,2838.558,N,07713.192,E,000.0,000.0,200224,000.0,W*7C
$GPGGA,044002.981,2838.558,N,07713.192,E,1,12,1.0,0.0,M,0.0,M,,*6D
$GPGSA,A,3,01,02,03,04,05,06,07,08,09,10,11,12,1.0,1.0,1.0*30
$GPRMC,044002.981,A,2838.558,N,07713.192,E,000.0,000.0,200224,000.0,W*7F
$GPGGA,044003.981,2838.558,N,07713.192,E,1,12,1.0,0.0,M,0.0,M,,*6C
$GPGSA,A,3,01,02,03,04,05,06,07,08,09,10,11,12,1.0,1.0,1.0*30
$GPRMC,044003.981,A,2838.558,N,07713.192,E,000.0,000.0,200224,000.0,W*7E
$GPGGA,044004.981,2838.558,N,07713.192,E,1,12,1.0,0.0,M,0.0,M,,*6B
$GPGSA,A,3,01,02,03,04,05,06,07,08,09,10,11,12,1.0,1.0,1.0*30
$GPRMC,044004.981,A,2838.558,N,07713.192,E,000.0,000.0,200224,000.0,W*79
$GPGGA,044005.981,2838.558,N,07713.192,E,1,12,1.0,0.0,M,0.0,M,,*6A
$GPGSA,A,3,01,02,03,04,05,06,07,08,09,10,11,12,1.0,1.0,1.0*30
$GPRMC,044005.981,A,2838.558,N,07713.192,E,000.0,000.0,200224,000.0,W*78
$GPGGA,044006.981,2838.558,N,07713.192,E,1,12,1.0,0.0,M,0.0,M,,*69
$GPGSA,A,3,01,02,03,04,05,06,07,08,09,10,11,12,1.0,1.0,1.0*30
$GPRMC,044006.981,A,2838.558,N,07713.192,E,000.0,000.0,200224,000.0,W*7B
$GPGGA,044007.981,2838.558,N,07713.192,E,1,12,1.0,0.0,M,0.0,M,,*68
$GPGSA,A,3,01,02,03,04,05,06,07,08,09,10,11,12,1.0,1.0,1.0*30
$GPRMC,044007.981,A,2838.558,N,07713.192,E,000.0,000.0,200224,000.0,W*7A
$GPGGA,044008.981,2838.558,N,07713.192,E,1,12,1.0,0.0,M,0.0,M,,*67
$GPGSA,A,3,01,02,03,04,05,06,07,08,09,10,11,12,1.0,1.0,1.0*30
$GPRMC,044008.981,A,2838.558,N,07713.192,E,000.0,000.0,200224,000.0,W*75
$GPGGA,044009.981,2838.558,N,07713.192,E,1,12,1.0,0.0,M,0.0,M,,*66
$GPGSA,A,3,01,02,03,04,05,06,07,08,09,10,11,12,1.0,1.0,1.0*30
$GPRMC,044009.981,A,2838.558,N,07713.192,E,000.0,000.0,200224,000.0,W*74
$GPGGA,044010.981,2838.558,N,07713.192,E,1,12,1.0,0.0,M,0.0,M,,*6E
$GPGSA,A,3,01,02,03,04,05,06,07,08,09,10,11,12,1.0,1.0,1.0*30
$GPRMC,044010.981,A,2838.558,N,07713.192,E,000.0,000.0,200224,000.0,W*7C
$GPGGA,044011.981,2838.558,N,07713.192,E,1,12,1.0,0.0,M,0.0,M,,*6F
$GPGSA,A,3,01,02,03,04,05,06,07,08,09,10,11,12,1.0,1.0,1.0*30
$GPRMC,044011.981,A,2838.558,N,07713.192,E,000.0,000.0,200224,000.0,W*7D
$GPGGA,044012.981,2838.558,N,07713.192,E,1,12,1.0,0.0,M,0.0,M,,*6C
$GPGSA,A,3,01,02,03,04,05,06,07,08,09,10,11,12,1.0,1.0,1.0*30
$GPRMC,044012.981,A,2838.558,N,07713.192,E,000.0,000.0,200224,000.0,W*7E
$GPGGA,044013.981,2838.558,N,07713.192,E,1,12,1.0,0.0,M,0.0,M,,*6D
$GPGSA,A,3,01,02,03,04,05,06,07,08,09,10,11,12,1.0,1.0,1.0*30
$GPRMC,044013.981,A,2838.558,N,07713.192,E,000.0,000.0,200224,000.0,W*7F
$GPGGA,044014.981,2838.558,N,07713.192,E,1,12,1.0,0.0,M,0.0,M,,*6A
$GPGSA,A,3,01,02,03,04,05,06,07,08,09,10,11,12,1.0,1.0,1.0*30
$GPRMC,044014.981,A,2838.558,N,07713.192,E,000.0,000.0,200224,000.0,W*78
$GPGGA,044015.981,2838.558,N,07713.192,E,1,12,1.0,0.0,M,0.0,M,,*6B
$GPGSA,A,3,01,02,03,04,05,06,07,08,09,10,11,12,1.0,1.0,1.0*30
$GPRMC,044015.981,A,2838.558,N,07713.192,E,000.0,000.0,200224,000.0,W*79
$GPGGA,044016.981,2838.558,N,07713.192,E,1,12,1.0,0.0,M,0.0,M,,*68
$GPGSA,A,3,01,02,03,04,05,06,07,08,09,10,11,12,1.0,1.0,1.0*30
$GPRMC,044016.981,A,2838.558,N,07713.192,E,000.0,000.0,200224,000.0,W*7A
$GPGGA,044017.981,2838.558,N,07713.192,E,1,12,1.0,0.0,M,0.0,M,,*69
$GPGSA,A,3,01,02,03,04,05,06,07,08,09,10,11,12,1.0,1.0,1.0*30
$GPRMC,044017.981,A,2838.558,N,07713.192,E,000.0,000.0,200224,000.0,W*7B
$GPGGA,044018.981,2838.558,N,07713.192,E,1,12,1.0,0.0,M,0.0,M,,*66
$GPGSA,A,3,01,02,03,04,05,06,07,08,09,10,11,12,1.0,1.0,1.0*30
$GPRMC,044018.981,A,2838.558,N,07713.192,E,000.0,000.0,200224,000.0,W*74
$GPGGA,044019.981,2838.558,N,07713.192,E,1,12,1.0,0.0,M,0.0,M,,*67
$GPGSA,A,3,01,02,03,04,05,06,07,08,09,10,11,12,1.0,1.0,1.0*30
$GPRMC,044019.981,A,2838.558,N,07713.192,E,000.0,000.0,200224,000.0,W*75
$GPGGA,044020.981,2838.558,N,07713.192,E,1,12,1.0,0.0,M,0.0,M,,*6D
$GPGSA,A,3,01,02,03,04,05,06,07,08,09,10,11,12,1.0,1.0,1.0*30
$GPRMC,044020.981,A,2838.558,N,07713.192,E,000.0,000.0,200224,000.0,W*7F
$GPGGA,044021.981,2838.558,N,07713.192,E,1,12,1.0,0.0,M,0.0,M,,*6C
$GPGSA,A,3,01,02,03,04,05,06,07,08,09,10,11,12,1.0,1.0,1.0*30
$GPRMC,044021.981,A,2838.558,N,07713.192,E,000.0,000.0,200224,000.0,W*7E
$GPGGA,044022.981,2838.558,N,07713.192,E,1,12,1.0,0.0,M,0.0,M,,*6F
$GPGSA,A,3,01,02,03,04,05,06,07,08,09,10,11,12,1.0,1.0,1.0*30
$GPRMC,044022.981,A,2838.558,N,07713.192,E,000.0,000.0,200224,000.0,W*7D
$GPGGA,044023.981,2838.558,N,07713.192,E,1,12,1.0,0.0,M,0.0,M,,*6E
$GPGSA,A,3,01,02,03,04,05,06,07,08,09,10,11,12,1.0,1.0,1.0*30
$GPRMC,044023.981,A,2838.558,N,07713.192,E,000.0,000.0,200224,000.0,W*7C
$GPGGA,044024.981,2838.558,N,07713.192,E,1,12,1.0,0.0,M,0.0,M,,*69
$GPGSA,A,3,01,02,03,04,05,06,07,08,09,10,11,12,1.0,1.0,1.0*30
$GPRMC,044024.981,A,2838.558,N,07713.192,E,000.0,000.0,200224,000.0,W*7B
$GPGGA,044025.981,2838.558,N,07713.192,E,1,12,1.0,0.0,M,0.0,M,,*68
$GPGSA,A,3,01,02,03,04,05,06,07,08,09,10,11,12,1.0,1.0,1.0*30
$GPRMC,044025.981,A,2838.558,N,07713.192,E,000.0,000.0,200224,000.0,W*7A
$GPGGA,044026.981,2838.558,N,07713.192,E,1,12,1.0,0.0,M,0.0,M,,*6B
$GPGSA,A,3,01,02,03,04,05,06,07,08,09,10,11,12,1.0,1.0,1.0*30
$GPRMC,044026.981,A,2838.558,N,07713.192,E,000.0,000.0,200224,000.0,W*79
$GPGGA,044027.981,2838.558,N,07713.192,E,1,12,1.0,0.0,M,0.0,M,,*6A
$GPGSA,A,3,01,02,03,04,05,06,07,08,09,10,11,12,1.0,1.0,1.0*30
$GPRMC,044027.981,A,2838.558,N,07713.192,E,000.0,000.0,200224,000.0,W*78
$GPGGA,044028.981,2838.558,N,07713.192,E,1,12,1.0,0.0,M,0.0,M,,*65
$GPGSA,A,3,01,02,03,04,05,06,07,08,09,10,11,12,1.0,1.0,1.0*30
$GPRMC,044028.981,A,2838.558,N,07713.192,E,000.0,000.0,200224,000.0,W*77
$GPGGA,044029.981,2838.558,N,07713.192,E,1,12,1.0,0.0,M,0.0,M,,*64
$GPGSA,A,3,01,02,03,04,05,06,07,08,09,10,11,12,1.0,1.0,1.0*30
$GPRMC,044029.981,A,2838.558,N,07713.192,E,000.0,000.0,200224,000.0,W*76
$GPGGA,044030.981,2838.558,N,07713.192,E,1,12,1.0,0.0,M,0.0,M,,*6C
$GPGSA,A,3,01,02,03,04,05,06,07,08,09,10,11,12,1.0,1.0,1.0*30
$GPRMC,044030.981,A,2838.558,N,07713.192,E,000.0,000.0,200224,000.0,W*7E
$GPGGA,044031.981,2838.558,N,07713.192,E,1,12,1.0,0.0,M,0.0,M,,*6D
$GPGSA,A,3,01,02,03,04,05,06,07,08,09,10,11,12,1.0,1.0,1.0*30
$GPRMC,044031.981,A,2838.558,N,07713.192,E,000.0,000.0,200224,000.0,W*7F
$GPGGA,044032.981,2838.558,N,07713.192,E,1,12,1.0,0.0,M,0.0,M,,*6E
$GPGSA,A,3,01,02,03,04,05,06,07,08,09,10,11,12,1.0,1.0,1.0*30
$GPRMC,044032.981,A,2838.558,N,07713.192,E,000.0,000.0,200224,000.0,W*7C
$GPGGA,044033.981,2838.558,N,07713.192,E,1,12,1.0,0.0,M,0.0,M,,*6F
$GPGSA,A,3,01,02,03,04,05,06,07,08,09,10,11,12,1.0,1.0,1.0*30
$GPRMC,044033.981,A,2838.558,N,07713.192,E,000.0,000.0,200224,000.0,W*7D
$GPGGA,044034.981,2838.558,N,07713.192,E,1,12,1.0,0.0,M,0.0,M,,*68
$GPGSA,A,3,01,02,03,04,05,06,07,08,09,10,11,12,1.0,1.0,1.0*30
$GPRMC,044034.981,A,2838.558,N,07713.192,E,000.0,000.0,200224,000.0,W*7A
$GPGGA,044035.981,2838.558,N,07713.192,E,1,12,1.0,0.0,M,0.0,M,,*69
$GPGSA,A,3,01,02,03,04,05,06,07,08,09,10,11,12,1.0,1.0,1.0*30
$GPRMC,044035.981,A,2838.558,N,07713.192,E,000.0,000.0,200224,000.0,W*7B
$GPGGA,044036.981,2838.558,N,07713.192,E,1,12,1.0,0.0,M,0.0,M,,*6A
$GPGSA,A,3,01,02,03,04,05,06,07,08,09,10,11,12,1.0,1.0,1.0*30
$GPRMC,044036.981,A,2838.558,N,07713.192,E,000.0,000.0,200224,000.0,W*78
$GPGGA,044037.981,2838.558,N,07713.192,E,1,12,1.0,0.0,M,0.0,M,,*6B
$GPGSA,A,3,01,02,03,04,05,06,07,08,09,10,11,12,1.0,1.0,1.0*30
$GPRMC,044037.981,A,2838.558,N,07713.192,E,000.0,000.0,200224,000.0,W*79
$GPGGA,044038.981,2838.558,N,07713.192,E,1,12,1.0,0.0,M,0.0,M,,*64
$GPGSA,A,3,01,02,03,04,05,06,07,08,09,10,11,12,1.0,1.0,1.0*30
$GPRMC,044038.981,A,2838.558,N,07713.192,E,000.0,000.0,200224,000.0,W*76
$GPGGA,044039.981,2838.558,N,07713.192,E,1,12,1.0,0.0,M,0.0,M,,*65
$GPGSA,A,3,01,02,03,04,05,06,07,08,09,10,11,12,1.0,1.0,1.0*30
$GPRMC,044039.981,A,2838.558,N,07713.192,E,000.0,000.0,200224,000.0,W*77
$GPGGA,044040.981,2838.558,N,07713.192,E,1,12,1.0,0.0,M,0.0,M,,*6B
$GPGSA,A,3,01,02,03,04,05,06,07,08,09,10,11,12,1.0,1.0,1.0*30
$GPRMC,044040.981,A,2838.558,N,07713.192,E,000.0,000.0,200224,000.0,W*79
$GPGGA,044041.981,2838.558,N,07713.192,E,1,12,1.0,0.0,M,0.0,M,,*6A
$GPGSA,A,3,01,02,03,04,05,06,07,08,09,10,11,12,1.0,1.0,1.0*30
$GPRMC,044041.981,A,2838.558,N,07713.192,E,000.0,000.0,200224,000.0,W*78
$GPGGA,044042.981,2838.558,N,07713.192,E,1,12,1.0,0.0,M,0.0,M,,*69
$GPGSA,A,3,01,02,03,04,05,06,07,08,09,10,11,12,1.0,1.0,1.0*30
$GPRMC,044042.981,A,2838.558,N,07713.192,E,000.0,000.0,200224,000.0,W*7B
$GPGGA,044043.981,2838.558,N,07713.192,E,1,12,1.0,0.0,M,0.0,M,,*68
$GPGSA,A,3,01,02,03,04,05,06,07,08,09,10,11,12,1.0,1.0,1.0*30
$GPRMC,044043.981,A,2838.558,N,07713.192,E,000.0,000.0,200224,000.0,W*7A
$GPGGA,044044.981,2838.558,N,07713.192,E,1,12,1.0,0.0,M,0.0,M,,*6F
$GPGSA,A,3,01,02,03,04,05,06,07,08,09,10,11,12,1.0,1.0,1.0*30
$GPRMC,044044.981,A,2838.558,N,07713.192,E,000.0,000.0,200224,000.0,W*7D
$GPGGA,044045.981,2838.558,N,07713.192,E,1,12,1.0,0.0,M,0.0,M,,*6E
$GPGSA,A,3,01,02,03,04,05,06,07,08,09,10,11,12,1.0,1.0,1.0*30
$GPRMC,044045.981,A,2838.558,N,07713.192,E,000.0,000.0,200224,000.0,W*7C
$GPGGA,044046.981,2838.558,N,07713.192,E,1,12,1.0,0.0,M,0.0,M,,*6D
$GPGSA,A,3,01,02,03,04,05,06,07,08,09,10,11,12,1.0,1.0,1.0*30
$GPRMC,044046.981,A,2838.558,N,07713.192,E,000.0,000.0,200224,000.0,W*7F
$GPGGA,044047.981,2838.558,N,07713.192,E,1,12,1.0,0.0,M,0.0,M,,*6C
$GPGSA,A,3,01,02,03,04,05,06,07,08,09,10,11,12,1.0,1.0,1.0*30
$GPRMC,044047.981,A,2838.558,N,07713.192,E,097.2,169.6,200224,000.0,W*7A
$GPGGA,044048.981,2838.531,N,07713.197,E,1,12,1.0,0.0,M,0.0,M,,*69
$GPGSA,A,3,01,02,03,04,05,06,07,08,09,10,11,12,1.0,1.0,1.0*30
$GPRMC,044048.981,A,2838.531,N,07713.197,E,097.2,169.6,200224,000.0,W*7F
$GPGGA,044049.981,2838.504,N,07713.202,E,1,12,1.0,0.0,M,0.0,M,,*61
$GPGSA,A,3,01,02,03,04,05,06,07,08,09,10,11,12,1.0,1.0,1.0*30
$GPRMC,044049.981,A,2838.504,N,07713.202,E,097.2,169.6,200224,000.0,W*77
$GPGGA,044050.981,2838.478,N,07713.207,E,1,12,1.0,0.0,M,0.0,M,,*66
$GPGSA,A,3,01,02,03,04,05,06,07,08,09,10,11,12,1.0,1.0,1.0*30
$GPRMC,044050.981,A,2838.478,N,07713.207,E,097.2,166.5,200224,000.0,W*7C
$GPGGA,044051.981,2838.451,N,07713.213,E,1,12,1.0,0.0,M,0.0,M,,*69
$GPGSA,A,3,01,02,03,04,05,06,07,08,09,10,11,12,1.0,1.0,1.0*30
$GPRMC,044051.981,A,2838.451,N,07713.213,E,097.2,166.5,200224,000.0,W*73
$GPGGA,044052.981,2838.425,N,07713.220,E,1,12,1.0,0.0,M,0.0,M,,*69
$GPGSA,A,3,01,02,03,04,05,06,07,08,09,10,11,12,1.0,1.0,1.0*30
$GPRMC,044052.981,A,2838.425,N,07713.220,E,097.2,166.5,200224,000.0,W*73
$GPGGA,044053.981,2838.399,N,07713.226,E,1,12,1.0,0.0,M,0.0,M,,*6E
$GPGSA,A,3,01,02,03,04,05,06,07,08,09,10,11,12,1.0,1.0,1.0*30
$GPRMC,044053.981,A,2838.399,N,07713.226,E,097.2,166.5,200224,000.0,W*74
$GPGGA,044054.981,2838.372,N,07713.232,E,1,12,1.0,0.0,M,0.0,M,,*69
$GPGSA,A,3,01,02,03,04,05,06,07,08,09,10,11,12,1.0,1.0,1.0*30
$GPRMC,044054.981,A,2838.372,N,07713.232,E,097.2,157.3,200224,000.0,W*77
$GPGGA,044055.981,2838.347,N,07713.243,E,1,12,1.0,0.0,M,0.0,M,,*68
$GPGSA,A,3,01,02,03,04,05,06,07,08,09,10,11,12,1.0,1.0,1.0*30
$GPRMC,044055.981,A,2838.347,N,07713.243,E,097.2,153.6,200224,000.0,W*77
$GPGGA,044056.981,2838.322,N,07713.255,E,1,12,1.0,0.0,M,0.0,M,,*6F
$GPGSA,A,3,01,02,03,04,05,06,07,08,09,10,11,12,1.0,1.0,1.0*30
$GPRMC,044056.981,A,2838.322,N,07713.255,E,097.2,153.6,200224,000.0,W*70
$GPGGA,044057.981,2838.297,N,07713.268,E,1,12,1.0,0.0,M,0.0,M,,*6F
$GPGSA,A,3,01,02,03,04,05,06,07,08,09,10,11,12,1.0,1.0,1.0*30
$GPRMC,044057.981,A,2838.297,N,07713.268,E,097.2,146.8,200224,000.0,W*7A
$GPGGA,044058.981,2838.274,N,07713.283,E,1,12,1.0,0.0,M,0.0,M,,*68
$GPGSA,A,3,01,02,03,04,05,06,07,08,09,10,11,12,1.0,1.0,1.0*30
$GPRMC,044058.981,A,2838.274,N,07713.283,E,097.2,146.8,200224,000.0,W*7D
$GPGGA,044059.981,2838.251,N,07713.298,E,1,12,1.0,0.0,M,0.0,M,,*64
$GPGSA,A,3,01,02,03,04,05,06,07,08,09,10,11,12,1.0,1.0,1.0*30
$GPRMC,044059.981,A,2838.251,N,07713.298,E,097.2,145.8,200224,000.0,W*72
$GPGGA,044100.981,2838.227,N,07713.314,E,1,12,1.0,0.0,M,0.0,M,,*6D
$GPGSA,A,3,01,02,03,04,05,06,07,08,09,10,11,12,1.0,1.0,1.0*30
$GPRMC,044100.981,A,2838.227,N,07713.314,E,097.2,145.8,200224,000.0,W*7B
$GPGGA,044101.981,2838.204,N,07713.330,E,1,12,1.0,0.0,M,0.0,M,,*6B
$GPGSA,A,3,01,02,03,04,05,06,07,08,09,10,11,12,1.0,1.0,1.0*30
$GPRMC,044101.981,A,2838.204,N,07713.330,E,097.2,145.8,200224,000.0,W*7D
$GPGGA,044102.981,2838.181,N,07713.345,E,1,12,1.0,0.0,M,0.0,M,,*64
$GPGSA,A,3,01,02,03,04,05,06,07,08,09,10,11,12,1.0,1.0,1.0*30
$GPRMC,044102.981,A,2838.181,N,07713.345,E,097.2,145.8,200224,000.0,W*72
$GPGGA,044103.981,2838.158,N,07713.361,E,1,12,1.0,0.0,M,0.0,M,,*67
$GPGSA,A,3,01,02,03,04,05,06,07,08,09,10,11,12,1.0,1.0,1.0*30
$GPRMC,044103.981,A,2838.158,N,07713.361,E,097.2,144.7,200224,000.0,W*7F
$GPGGA,044104.981,2838.135,N,07713.378,E,1,12,1.0,0.0,M,0.0,M,,*63
$GPGSA,A,3,01,02,03,04,05,06,07,08,09,10,11,12,1.0,1.0,1.0*30
$GPRMC,044104.981,A,2838.135,N,07713.378,E,097.2,136.4,200224,000.0,W*7D
$GPGGA,044105.981,2838.114,N,07713.397,E,1,12,1.0,0.0,M,0.0,M,,*60
$GPGSA,A,3,01,02,03,04,05,06,07,08,09,10,11,12,1.0,1.0,1.0*30
$GPRMC,044105.981,A,2838.114,N,07713.397,E,097.2,130.8,200224,000.0,W*74
$GPGGA,044106.981,2838.095,N,07713.419,E,1,12,1.0,0.0,M,0.0,M,,*6A
$GPGSA,A,3,01,02,03,04,05,06,07,08,09,10,11,12,1.0,1.0,1.0*30
$GPRMC,044106.981,A,2838.095,N,07713.419,E,097.2,128.2,200224,000.0,W*7D
$GPGGA,044107.981,2838.077,N,07713.442,E,1,12,1.0,0.0,M,0.0,M,,*69
$GPGSA,A,3,01,02,03,04,05,06,07,08,09,10,11,12,1.0,1.0,1.0*30
$GPRMC,044107.981,A,2838.077,N,07713.442,E,097.2,127.1,200224,000.0,W*72
$GPGGA,044108.981,2838.060,N,07713.465,E,1,12,1.0,0.0,M,0.0,M,,*65
$GPGSA,A,3,01,02,03,04,05,06,07,08,09,10,11,12,1.0,1.0,1.0*30
$GPRMC,044108.981,A,2838.060,N,07713.465,E,097.2,120.9,200224,000.0,W*71
$GPGGA,044109.981,2838.045,N,07713.491,E,1,12,1.0,0.0,M,0.0,M,,*68
$GPGSA,A,3,01,02,03,04,05,06,07,08,09,10,11,12,1.0,1.0,1.0*30
$GPRMC,044109.981,A,2838.045,N,07713.491,E,097.2,116.6,200224,000.0,W*76
$GPGGA,044110.981,2838.031,N,07713.517,E,1,12,1.0,0.0,M,0.0,M,,*6C
$GPGSA,A,3,01,02,03,04,05,06,07,08,09,10,11,12,1.0,1.0,1.0*30
$GPRMC,044110.981,A,2838.031,N,07713.517,E,097.2,116.6,200224,000.0,W*72
$GPGGA,044111.981,2838.018,N,07713.544,E,1,12,1.0,0.0,M,0.0,M,,*60
$GPGSA,A,3,01,02,03,04,05,06,07,08,09,10,11,12,1.0,1.0,1.0*30
$GPRMC,044111.981,A,2838.018,N,07713.544,E,097.2,116.6,200224,000.0,W*7E
$GPGGA,044112.981,2838.005,N,07713.571,E,1,12,1.0,0.0,M,0.0,M,,*69
$GPGSA,A,3,01,02,03,04,05,06,07,08,09,10,11,12,1.0,1.0,1.0*30
$GPRMC,044112.981,A,2838.005,N,07713.571,E,097.2,114.4,200224,000.0,W*77
$GPGGA,044113.981,2837.992,N,07713.598,E,1,12,1.0,0.0,M,0.0,M,,*67
$GPGSA,A,3,01,02,03,04,05,06,07,08,09,10,11,12,1.0,1.0,1.0*30
$GPRMC,044113.981,A,2837.992,N,07713.598,E,194.4,115.0,200224,000.0,W*78
$GPGGA,044114.981,2837.967,N,07713.652,E,1,12,1.0,0.0,M,0.0,M,,*6F
$GPGSA,A,3,01,02,03,04,05,06,07,08,09,10,11,12,1.0,1.0,1.0*30
$GPRMC,044114.981,A,2837.967,N,07713.652,E,194.4,110.7,200224,000.0,W*72
$GPGGA,044115.981,2837.946,N,07713.709,E,1,12,1.0,0.0,M,0.0,M,,*62
$GPGSA,A,3,01,02,03,04,05,06,07,08,09,10,11,12,1.0,1.0,1.0*30
$GPRMC,044115.981,A,2837.946,N,07713.709,E,194.4,115.3,200224,000.0,W*7E
$GPGGA,044116.981,2837.920,N,07713.763,E,1,12,1.0,0.0,M,0.0,M,,*6D
$GPGSA,A,3,01,02,03,04,05,06,07,08,09,10,11,12,1.0,1.0,1.0*30
$GPRMC,044116.981,A,2837.920,N,07713.763,E,194.4,115.5,200224,000.0,W*77
$GPGGA,044117.981,2837.894,N,07713.817,E,1,12,1.0,0.0,M,0.0,M,,*6E
$GPGSA,A,3,01,02,03,04,05,06,07,08,09,10,11,12,1.0,1.0,1.0*30
$GPRMC,044117.981,A,2837.894,N,07713.817,E,194.4,115.3,200224,000.0,W*72
$GPGGA,044118.981,2837.869,N,07713.871,E,1,12,1.0,0.0,M,0.0,M,,*63
$GPGSA,A,3,01,02,03,04,05,06,07,08,09,10,11,12,1.0,1.0,1.0*30
$GPRMC,044118.981,A,2837.869,N,07713.871,E,194.4,115.3,200224,000.0,W*7F
$GPGGA,044119.981,2837.843,N,07713.925,E,1,12,1.0,0.0,M,0.0,M,,*6A
$GPGSA,A,3,01,02,03,04,05,06,07,08,09,10,11,12,1.0,1.0,1.0*30
$GPRMC,044119.981,A,2837.843,N,07713.925,E,194.4,115.4,200224,000.0,W*71
$GPGGA,044120.981,2837.818,N,07713.979,E,1,12,1.0,0.0,M,0.0,M,,*67
$GPGSA,A,3,01,02,03,04,05,06,07,08,09,10,11,12,1.0,1.0,1.0*30
$GPRMC,044120.981,A,2837.818,N,07713.979,E,194.4,115.4,200224,000.0,W*7C
$GPGGA,044121.981,2837.792,N,07714.034,E,1,12,1.0,0.0,M,0.0,M,,*6C
$GPGSA,A,3,01,02,03,04,05,06,07,08,09,10,11,12,1.0,1.0,1.0*30
$GPRMC,044121.981,A,2837.792,N,07714.034,E,194.4,116.3,200224,000.0,W*73
$GPGGA,044122.981,2837.765,N,07714.087,E,1,12,1.0,0.0,M,0.0,M,,*6F
$GPGSA,A,3,01,02,03,04,05,06,07,08,09,10,11,12,1.0,1.0,1.0*30
$GPRMC,044122.981,A,2837.765,N,07714.087,E,194.4,118.8,200224,000.0,W*75
$GPGGA,044123.981,2837.737,N,07714.139,E,1,12,1.0,0.0,M,0.0,M,,*6D
$GPGSA,A,3,01,02,03,04,05,06,07,08,09,10,11,12,1.0,1.0,1.0*30
$GPRMC,044123.981,A,2837.737,N,07714.139,E,194.4,123.6,200224,000.0,W*71
$GPGGA,044124.981,2837.704,N,07714.188,E,1,12,1.0,0.0,M,0.0,M,,*60
$GPGSA,A,3,01,02,03,04,05,06,07,08,09,10,11,12,1.0,1.0,1.0*30
$GPRMC,044124.981,A,2837.704,N,07714.188,E,194.4,120.3,200224,000.0,W*7A
$GPGGA,044125.981,2837.674,N,07714.239,E,1,12,1.0,0.0,M,0.0,M,,*6E
$GPGSA,A,3,01,02,03,04,05,06,07,08,09,10,11,12,1.0,1.0,1.0*30
$GPRMC,044125.981,A,2837.674,N,07714.239,E,194.4,119.0,200224,000.0,W*7D
$GPGGA,044126.981,2837.645,N,07714.291,E,1,12,1.0,0.0,M,0.0,M,,*6D
$GPGSA,A,3,01,02,03,04,05,06,07,08,09,10,11,12,1.0,1.0,1.0*30
$GPRMC,044126.981,A,2837.645,N,07714.291,E,194.4,119.0,200224,000.0,W*7E
$GPGGA,044127.981,2837.617,N,07714.343,E,1,12,1.0,0.0,M,0.0,M,,*65
$GPGSA,A,3,01,02,03,04,05,06,07,08,09,10,11,12,1.0,1.0,1.0*30
$GPRMC,044127.981,A,2837.617,N,07714.343,E,194.4,119.0,200224,000.0,W*76
$GPGGA,044128.981,2837.588,N,07714.395,E,1,12,1.0,0.0,M,0.0,M,,*64
$GPGSA,A,3,01,02,03,04,05,06,07,08,09,10,11,12,1.0,1.0,1.0*30
$GPRMC,044128.981,A,2837.588,N,07714.395,E,194.4,119.2,200224,000.0,W*75
$GPGGA,044129.981,2837.559,N,07714.447,E,1,12,1.0,0.0,M,0.0,M,,*61
$GPGSA,A,3,01,02,03,04,05,06,07,08,09,10,11,12,1.0,1.0,1.0*30
$GPRMC,044129.981,A,2837.559,N,07714.447,E,194.4,119.2,200224,000.0,W*70
$GPGGA,044130.981,2837.530,N,07714.499,E,1,12,1.0,0.0,M,0.0,M,,*65
$GPGSA,A,3,01,02,03,04,05,06,07,08,09,10,11,12,1.0,1.0,1.0*30
$GPRMC,044130.981,A,2837.530,N,07714.499,E,194.4,124.4,200224,000.0,W*7C
$GPGGA,044131.981,2837.497,N,07714.548,E,1,12,1.0,0.0,M,0.0,M,,*65
$GPGSA,A,3,01,02,03,04,05,06,07,08,09,10,11,12,1.0,1.0,1.0*30
$GPRMC,044131.981,A,2837.497,N,07714.548,E,194.4,130.5,200224,000.0,W*78
$GPGGA,044132.981,2837.459,N,07714.592,E,1,12,1.0,0.0,M,0.0,M,,*63
$GPGSA,A,3,01,02,03,04,05,06,07,08,09,10,11,12,1.0,1.0,1.0*30
$GPRMC,044132.981,A,2837.459,N,07714.592,E,194.4,131.1,200224,000.0,W*7B
$GPGGA,044133.981,2837.421,N,07714.635,E,1,12,1.0,0.0,M,0.0,M,,*63
$GPGSA,A,3,01,02,03,04,05,06,07,08,09,10,11,12,1.0,1.0,1.0*30
$GPRMC,044133.981,A,2837.421,N,07714.635,E,194.4,136.8,200224,000.0,W*75
$GPGGA,044134.981,2837.380,N,07714.674,E,1,12,1.0,0.0,M,0.0,M,,*6D
$GPGSA,A,3,01,02,03,04,05,06,07,08,09,10,11,12,1.0,1.0,1.0*30
$GPRMC,044134.981,A,2837.380,N,07714.674,E,194.4,144.9,200224,000.0,W*7F
$GPGGA,044135.981,2837.334,N,07714.707,E,1,12,1.0,0.0,M,0.0,M,,*66
$GPGSA,A,3,01,02,03,04,05,06,07,08,09,10,11,12,1.0,1.0,1.0*30
$GPRMC,044135.981,A,2837.334,N,07714.707,E,194.4,144.9,200224,000.0,W*74
$GPGGA,044136.981,2837.288,N,07714.739,E,1,12,1.0,0.0,M,0.0,M,,*6E
$GPGSA,A,3,01,02,03,04,05,06,07,08,09,10,11,12,1.0,1.0,1.0*30
$GPRMC,044136.981,A,2837.288,N,07714.739,E,194.4,151.8,200224,000.0,W*79
$GPGGA,044137.981,2837.239,N,07714.765,E,1,12,1.0,0.0,M,0.0,M,,*6C
$GPGSA,A,3,01,02,03,04,05,06,07,08,09,10,11,12,1.0,1.0,1.0*30
$GPRMC,044137.981,A,2837.239,N,07714.765,E,194.4,159.6,200224,000.0,W*7D
$GPGGA,044138.981,2837.188,N,07714.784,E,1,12,1.0,0.0,M,0.0,M,,*65
$GPGSA,A,3,01,02,03,04,05,06,07,08,09,10,11,12,1.0,1.0,1.0*30
$GPRMC,044138.981,A,2837.188,N,07714.784,E,194.4,162.0,200224,000.0,W*7A
$GPGGA,044139.981,2837.136,N,07714.801,E,1,12,1.0,0.0,M,0.0,M,,*63
$GPGSA,A,3,01,02,03,04,05,06,07,08,09,10,11,12,1.0,1.0,1.0*30
$GPRMC,044139.981,A,2837.136,N,07714.801,E,194.4,162.0,200224,000.0,W*7C
$GPGGA,044140.981,2837.084,N,07714.818,E,1,12,1.0,0.0,M,0.0,M,,*6D
$GPGSA,A,3,01,02,03,04,05,06,07,08,09,10,11,12,1.0,1.0,1.0*30
$GPRMC,044140.981,A,2837.084,N,07714.818,E,194.4,161.6,200224,000.0,W*77
$GPGGA,044141.981,2837.032,N,07714.835,E,1,12,1.0,0.0,M,0.0,M,,*6E
$GPGSA,A,3,01,02,03,04,05,06,07,08,09,10,11,12,1.0,1.0,1.0*30
$GPRMC,044141.981,A,2837.032,N,07714.835,E,194.4,161.6,200224,000.0,W*74
$GPGGA,044142.981,2836.980,N,07714.853,E,1,12,1.0,0.0,M,0.0,M,,*6C
$GPGSA,A,3,01,02,03,04,05,06,07,08,09,10,11,12,1.0,1.0,1.0*30
$GPRMC,044142.981,A,2836.980,N,07714.853,E,194.4,157.4,200224,000.0,W*71
$GPGGA,044143.981,2836.930,N,07714.874,E,1,12,1.0,0.0,M,0.0,M,,*63
$GPGSA,A,3,01,02,03,04,05,06,07,08,09,10,11,12,1.0,1.0,1.0*30
$GPRMC,044143.981,A,2836.930,N,07714.874,E,194.4,143.8,200224,000.0,W*77
$GPGGA,044144.981,2836.884,N,07714.907,E,1,12,1.0,0.0,M,0.0,M,,*6F
$GPGSA,A,3,01,02,03,04,05,06,07,08,09,10,11,12,1.0,1.0,1.0*30
$GPRMC,044144.981,A,2836.884,N,07714.907,E,194.4,129.8,200224,000.0,W*77
$GPGGA,044145.981,2836.847,N,07714.952,E,1,12,1.0,0.0,M,0.0,M,,*61
$GPGSA,A,3,01,02,03,04,05,06,07,08,09,10,11,12,1.0,1.0,1.0*30
$GPRMC,044145.981,A,2836.847,N,07714.952,E,194.4,118.2,200224,000.0,W*71
$GPGGA,044146.981,2836.819,N,07715.004,E,1,12,1.0,0.0,M,0.0,M,,*62
$GPGSA,A,3,01,02,03,04,05,06,07,08,09,10,11,12,1.0,1.0,1.0*30
$GPRMC,044146.981,A,2836.819,N,07715.004,E,194.4,107.3,200224,000.0,W*7D
$GPGGA,044147.981,2836.801,N,07715.062,E,1,12,1.0,0.0,M,0.0,M,,*6A
$GPGSA,A,3,01,02,03,04,05,06,07,08,09,10,11,12,1.0,1.0,1.0*30
$GPRMC,044147.981,A,2836.801,N,07715.062,E,194.4,095.7,200224,000.0,W*7B
$GPGGA,044148.981,2836.795,N,07715.123,E,1,12,1.0,0.0,M,0.0,M,,*63
$GPGSA,A,3,01,02,03,04,05,06,07,08,09,10,11,12,1.0,1.0,1.0*30
$GPRMC,044148.981,A,2836.795,N,07715.123,E,194.4,086.0,200224,000.0,W*77
$GPGGA,044149.981,2836.799,N,07715.184,E,1,12,1.0,0.0,M,0.0,M,,*63
$GPGSA,A,3,01,02,03,04,05,06,07,08,09,10,11,12,1.0,1.0,1.0*30
$GPRMC,044149.981,A,2836.799,N,07715.184,E,194.4,084.1,200224,000.0,W*74
$GPGGA,044150.981,2836.806,N,07715.246,E,1,12,1.0,0.0,M,0.0,M,,*6F
$GPGSA,A,3,01,02,03,04,05,06,07,08,09,10,11,12,1.0,1.0,1.0*30
$GPRMC,044150.981,A,2836.806,N,07715.246,E,194.4,080.6,200224,000.0,W*7B
$GPGGA,044151.981,2836.815,N,07715.306,E,1,12,1.0,0.0,M,0.0,M,,*69
$GPGSA,A,3,01,02,03,04,05,06,07,08,09,10,11,12,1.0,1.0,1.0*30
$GPRMC,044151.981,A,2836.815,N,07715.306,E,194.4,078.6,200224,000.0,W*7A
$GPGGA,044152.981,2836.828,N,07715.366,E,1,12,1.0,0.0,M,0.0,M,,*62
$GPGSA,A,3,01,02,03,04,05,06,07,08,09,10,11,12,1.0,1.0,1.0*30
$GPRMC,044152.981,A,2836.828,N,07715.366,E,194.4,078.6,200224,000.0,W*71
$GPGGA,044153.981,2836.840,N,07715.426,E,1,12,1.0,0.0,M,0.0,M,,*6E
$GPGSA,A,3,01,02,03,04,05,06,07,08,09,10,11,12,1.0,1.0,1.0*30
$GPRMC,044153.981,A,2836.840,N,07715.426,E,194.4,078.6,200224,000.0,W*7D
$GPGGA,044154.981,2836.852,N,07715.486,E,1,12,1.0,0.0,M,0.0,M,,*60
$GPGSA,A,3,01,02,03,04,05,06,07,08,09,10,11,12,1.0,1.0,1.0*30
$GPRMC,044154.981,A,2836.852,N,07715.486,E,194.4,078.6,200224,000.0,W*73
$GPGGA,044155.981,2836.864,N,07715.546,E,1,12,1.0,0.0,M,0.0,M,,*69
$GPGSA,A,3,01,02,03,04,05,06,07,08,09,10,11,12,1.0,1.0,1.0*30
$GPRMC,044155.981,A,2836.864,N,07715.546,E,194.4,078.6,200224,000.0,W*7A
$GPGGA,044156.981,2836.876,N,07715.606,E,1,12,1.0,0.0,M,0.0,M,,*6E
$GPGSA,A,3,01,02,03,04,05,06,07,08,09,10,11,12,1.0,1.0,1.0*30
$GPRMC,044156.981,A,2836.876,N,07715.606,E,194.4,078.6,200224,000.0,W*7D
$GPGGA,044157.981,2836.888,N,07715.665,E,1,12,1.0,0.0,M,0.0,M,,*6B
$GPGSA,A,3,01,02,03,04,05,06,07,08,09,10,11,12,1.0,1.0,1.0*30
$GPRMC,044157.981,A,2836.888,N,07715.665,E,194.4,078.3,200224,000.0,W*7D
$GPGGA,044158.981,2836.900,N,07715.725,E,1,12,1.0,0.0,M,0.0,M,,*60
$GPGSA,A,3,01,02,03,04,05,06,07,08,09,10,11,12,1.0,1.0,1.0*30
$GPRMC,044158.981,A,2836.900,N,07715.725,E,194.4,078.3,200224,000.0,W*76
$GPGGA,044159.981,2836.913,N,07715.785,E,1,12,1.0,0.0,M,0.0,M,,*69
$GPGSA,A,3,01,02,03,04,05,06,07,08,09,10,11,12,1.0,1.0,1.0*30
$GPRMC,044159.981,A,2836.913,N,07715.785,E,194.4,078.3,200224,000.0,W*7F
$GPGGA,044200.981,2836.925,N,07715.845,E,1,12,1.0,0.0,M,0.0,M,,*60
$GPGSA,A,3,01,02,03,04,05,06,07,08,09,10,11,12,1.0,1.0,1.0*30
$GPRMC,044200.981,A,2836.925,N,07715.845,E,194.4,078.3,200224,000.0,W*76
$GPGGA,044201.981,2836.937,N,07715.905,E,1,12,1.0,0.0,M,0.0,M,,*67
$GPGSA,A,3,01,02,03,04,05,06,07,08,09,10,11,12,1.0,1.0,1.0*30
$GPRMC,044201.981,A,2836.937,N,07715.905,E,194.4,078.4,200224,000.0,W*76
$GPGGA,044202.981,2836.950,N,07715.965,E,1,12,1.0,0.0,M,0.0,M,,*63
$GPGSA,A,3,01,02,03,04,05,06,07,08,09,10,11,12,1.0,1.0,1.0*30
$GPRMC,044202.981,A,2836.950,N,07715.965,E,194.4,078.4,200224,000.0,W*72
$GPGGA,044203.981,2836.962,N,07716.024,E,1,12,1.0,0.0,M,0.0,M,,*6C
$GPGSA,A,3,01,02,03,04,05,06,07,08,09,10,11,12,1.0,1.0,1.0*30
$GPRMC,044203.981,A,2836.962,N,07716.024,E,194.4,078.4,200224,000.0,W*7D
$GPGGA,044204.981,2836.974,N,07716.084,E,1,12,1.0,0.0,M,0.0,M,,*66
$GPGSA,A,3,01,02,03,04,05,06,07,08,09,10,11,12,1.0,1.0,1.0*30
$GPRMC,044204.981,A,2836.974,N,07716.084,E,194.4,076.1,200224,000.0,W*7C
$GPGGA,044205.981,2836.989,N,07716.144,E,1,12,1.0,0.0,M,0.0,M,,*68
$GPGSA,A,3,01,02,03,04,05,06,07,08,09,10,11,12,1.0,1.0,1.0*30
$GPRMC,044205.981,A,2836.989,N,07716.144,E,194.4,076.1,200224,000.0,W*72
$GPGGA,044206.981,2837.003,N,07716.203,E,1,12,1.0,0.0,M,0.0,M,,*61
$GPGSA,A,3,01,02,03,04,05,06,07,08,09,10,11,12,1.0,1.0,1.0*30
$GPRMC,044206.981,A,2837.003,N,07716.203,E,194.4,071.6,200224,000.0,W*7B
$GPGGA,044207.981,2837.022,N,07716.260,E,1,12,1.0,0.0,M,0.0,M,,*66
$GPGSA,A,3,01,02,03,04,05,06,07,08,09,10,11,12,1.0,1.0,1.0*30
$GPRMC,044207.981,A,2837.022,N,07716.260,E,194.4,068.7,200224,000.0,W*75
$GPGGA,044208.981,2837.044,N,07716.316,E,1,12,1.0,0.0,M,0.0,M,,*69
$GPGSA,A,3,01,02,03,04,05,06,07,08,09,10,11,12,1.0,1.0,1.0*30
$GPRMC,044208.981,A,2837.044,N,07716.316,E,194.4,065.7,200224,000.0,W*77
$GPGGA,044209.981,2837.069,N,07716.371,E,1,12,1.0,0.0,M,0.0,M,,*66
$GPGSA,A,3,01,02,03,04,05,06,07,08,09,10,11,12,1.0,1.0,1.0*30
$GPRMC,044209.981,A,2837.069,N,07716.371,E,194.4,062.0,200224,000.0,W*78
$GPGGA,044210.981,2837.097,N,07716.424,E,1,12,1.0,0.0,M,0.0,M,,*68
$GPGSA,A,3,01,02,03,04,05,06,07,08,09,10,11,12,1.0,1.0,1.0*30
$GPRMC,044210.981,A,2837.097,N,07716.424,E,194.4,060.6,200224,000.0,W*72
$GPGGA,044211.981,2837.126,N,07716.475,E,1,12,1.0,0.0,M,0.0,M,,*66
$GPGSA,A,3,01,02,03,04,05,06,07,08,09,10,11,12,1.0,1.0,1.0*30
$GPRMC,044211.981,A,2837.126,N,07716.475,E,194.4,056.3,200224,000.0,W*7C
$GPGGA,044212.981,2837.159,N,07716.524,E,1,12,1.0,0.0,M,0.0,M,,*68
$GPGSA,A,3,01,02,03,04,05,06,07,08,09,10,11,12,1.0,1.0,1.0*30
$GPRMC,044212.981,A,2837.159,N,07716.524,E,194.4,052.8,200224,000.0,W*7D
$GPGGA,044213.981,2837.194,N,07716.571,E,1,12,1.0,0.0,M,0.0,M,,*68
$GPGSA,A,3,01,02,03,04,05,06,07,08,09,10,11,12,1.0,1.0,1.0*30
$GPRMC,044213.981,A,2837.194,N,07716.571,E,194.4,052.8,200224,000.0,W*7D
$GPGGA,044214.981,2837.229,N,07716.617,E,1,12,1.0,0.0,M,0.0,M,,*69
$GPGSA,A,3,01,02,03,04,05,06,07,08,09,10,11,12,1.0,1.0,1.0*30
$GPRMC,044214.981,A,2837.229,N,07716.617,E,194.4,052.3,200224,000.0,W*77
$GPGGA,044215.981,2837.265,N,07716.663,E,1,12,1.0,0.0,M,0.0,M,,*63
$GPGSA,A,3,01,02,03,04,05,06,07,08,09,10,11,12,1.0,1.0,1.0*30
$GPRMC,044215.981,A,2837.265,N,07716.663,E,194.4,052.3,200224,000.0,W*7D
$GPGGA,044216.981,2837.301,N,07716.710,E,1,12,1.0,0.0,M,0.0,M,,*66
$GPGSA,A,3,01,02,03,04,05,06,07,08,09,10,11,12,1.0,1.0,1.0*30
$GPRMC,044216.981,A,2837.301,N,07716.710,E,194.4,052.0,200224,000.0,W*7B
$GPGGA,044217.981,2837.336,N,07716.756,E,1,12,1.0,0.0,M,0.0,M,,*61
$GPGSA,A,3,01,02,03,04,05,06,07,08,09,10,11,12,1.0,1.0,1.0*30
$GPRMC,044217.981,A,2837.336,N,07716.756,E,194.4,052.0,200224,000.0,W*7C
$GPGGA,044218.981,2837.372,N,07716.802,E,1,12,1.0,0.0,M,0.0,M,,*60
$GPGSA,A,3,01,02,03,04,05,06,07,08,09,10,11,12,1.0,1.0,1.0*30
$GPRMC,044218.981,A,2837.372,N,07716.802,E,194.4,052.0,200224,000.0,W*7D
$GPGGA,044219.981,2837.408,N,07716.847,E,1,12,1.0,0.0,M,0.0,M,,*6A
$GPGSA,A,3,01,02,03,04,05,06,07,08,09,10,11,12,1.0,1.0,1.0*30
$GPRMC,044219.981,A,2837.408,N,07716.847,E,194.4,051.7,200224,000.0,W*73
$GPGGA,044220.981,2837.444,N,07716.893,E,1,12,1.0,0.0,M,0.0,M,,*61
$GPGSA,A,3,01,02,03,04,05,06,07,08,09,10,11,12,1.0,1.0,1.0*30
$GPRMC,044220.981,A,2837.444,N,07716.893,E,194.4,051.7,200224,000.0,W*78
$GPGGA,044221.981,2837.480,N,07716.939,E,1,12,1.0,0.0,M,0.0,M,,*69
$GPGSA,A,3,01,02,03,04,05,06,07,08,09,10,11,12,1.0,1.0,1.0*30
$GPRMC,044221.981,A,2837.480,N,07716.939,E,194.4,051.7,200224,000.0,W*70
$GPGGA,044222.981,2837.516,N,07716.985,E,1,12,1.0,0.0,M,0.0,M,,*63
$GPGSA,A,3,01,02,03,04,05,06,07,08,09,10,11,12,1.0,1.0,1.0*30
$GPRMC,044222.981,A,2837.516,N,07716.985,E,194.4,051.8,200224,000.0,W*75
$GPGGA,044223.981,2837.552,N,07717.031,E,1,12,1.0,0.0,M,0.0,M,,*65
$GPGSA,A,3,01,02,03,04,05,06,07,08,09,10,11,12,1.0,1.0,1.0*30
$GPRMC,044223.981,A,2837.552,N,07717.031,E,194.4,051.8,200224,000.0,W*73
