$GPGGA,045140.393,2607.341,N,08522.677,E,1,12,1.0,0.0,M,0.0,M,,*6D
$GPGSA,A,3,01,02,03,04,05,06,07,08,09,10,11,12,1.0,1.0,1.0*30
$GPRMC,045140.393,A,2607.341,N,08522.677,E,000.0,000.0,130624,000.0,W*7B
$GPGGA,045141.393,2607.341,N,08522.677,E,1,12,1.0,0.0,M,0.0,M,,*6C
$GPGSA,A,3,01,02,03,04,05,06,07,08,09,10,11,12,1.0,1.0,1.0*30
$GPRMC,045141.393,A,2607.341,N,08522.677,E,000.0,000.0,130624,000.0,W*7A
$GPGGA,045142.393,2607.341,N,08522.677,E,1,12,1.0,0.0,M,0.0,M,,*6F
$GPGSA,A,3,01,02,03,04,05,06,07,08,09,10,11,12,1.0,1.0,1.0*30
$GPRMC,045142.393,A,2607.341,N,08522.677,E,000.0,000.0,130624,000.0,W*79
$GPGGA,045143.393,2607.341,N,08522.677,E,1,12,1.0,0.0,M,0.0,M,,*6E
$GPGSA,A,3,01,02,03,04,05,06,07,08,09,10,11,12,1.0,1.0,1.0*30
$GPRMC,045143.393,A,2607.341,N,08522.677,E,000.0,000.0,130624,000.0,W*78
$GPGGA,045144.393,2607.341,N,08522.677,E,1,12,1.0,0.0,M,0.0,M,,*69
$GPGSA,A,3,01,02,03,04,05,06,07,08,09,10,11,12,1.0,1.0,1.0*30
$GPRMC,045144.393,A,2607.341,N,08522.677,E,000.0,000.0,130624,000.0,W*7F
$GPGGA,045145.393,2607.341,N,08522.677,E,1,12,1.0,0.0,M,0.0,M,,*68
$GPGSA,A,3,01,02,03,04,05,06,07,08,09,10,11,12,1.0,1.0,1.0*30
$GPRMC,045145.393,A,2607.341,N,08522.677,E,000.0,000.0,130624,000.0,W*7E
$GPGGA,045146.393,2607.341,N,08522.677,E,1,12,1.0,0.0,M,0.0,M,,*6B
$GPGSA,A,3,01,02,03,04,05,06,07,08,09,10,11,12,1.0,1.0,1.0*30
$GPRMC,045146.393,A,2607.341,N,08522.677,E,000.0,000.0,130624,000.0,W*7D
$GPGGA,045147.393,2607.341,N,08522.677,E,1,12,1.0,0.0,M,0.0,M,,*6A
$GPGSA,A,3,01,02,03,04,05,06,07,08,09,10,11,12,1.0,1.0,1.0*30
$GPRMC,045147.393,A,2607.341,N,08522.677,E,000.0,000.0,130624,000.0,W*7C
$GPGGA,045148.393,2607.341,N,08522.677,E,1,12,1.0,0.0,M,0.0,M,,*65
$GPGSA,A,3,01,02,03,04,05,06,07,08,09,10,11,12,1.0,1.0,1.0*30
$GPRMC,045148.393,A,2607.341,N,08522.677,E,000.0,000.0,130624,000.0,W*73
$GPGGA,045149.393,2607.341,N,08522.677,E,1,12,1.0,0.0,M,0.0,M,,*64
$GPGSA,A,3,01,02,03,04,05,06,07,08,09,10,11,12,1.0,1.0,1.0*30
$GPRMC,045149.393,A,2607.341,N,08522.677,E,000.0,000.0,130624,000.0,W*72
$GPGGA,045150.393,2607.341,N,08522.677,E,1,12,1.0,0.0,M,0.0,M,,*6C
$GPGSA,A,3,01,02,03,04,05,06,07,08,09,10,11,12,1.0,1.0,1.0*30
$GPRMC,045150.393,A,2607.341,N,08522.677,E,000.0,000.0,130624,000.0,W*7A
$GPGGA,045151.393,2607.341,N,08522.677,E,1,12,1.0,0.0,M,0.0,M,,*6D
$GPGSA,A,3,01,02,03,04,05,06,07,08,09,10,11,12,1.0,1.0,1.0*30
$GPRMC,045151.393,A,2607.341,N,08522.677,E,000.0,000.0,130624,000.0,W*7B
$GPGGA,045152.393,2607.341,N,08522.677,E,1,12,1.0,0.0,M,0.0,M,,*6E
$GPGSA,A,3,01,02,03,04,05,06,07,08,09,10,11,12,1.0,1.0,1.0*30
$GPRMC,045152.393,A,2607.341,N,08522.677,E,000.0,000.0,130624,000.0,W*78
$GPGGA,045153.393,2607.341,N,08522.677,E,1,12,1.0,0.0,M,0.0,M,,*6F
$GPGSA,A,3,01,02,03,04,05,06,07,08,09,10,11,12,1.0,1.0,1.0*30
$GPRMC,045153.393,A,2607.341,N,08522.677,E,000.0,000.0,130624,000.0,W*79
$GPGGA,045154.393,2607.341,N,08522.677,E,1,12,1.0,0.0,M,0.0,M,,*68
$GPGSA,A,3,01,02,03,04,05,06,07,08,09,10,11,12,1.0,1.0,1.0*30
$GPRMC,045154.393,A,2607.341,N,08522.677,E,000.0,000.0,130624,000.0,W*7E
$GPGGA,045155.393,2607.341,N,08522.677,E,1,12,1.0,0.0,M,0.0,M,,*69
$GPGSA,A,3,01,02,03,04,05,06,07,08,09,10,11,12,1.0,1.0,1.0*30
$GPRMC,045155.393,A,2607.341,N,08522.677,E,000.0,000.0,130624,000.0,W*7F
$GPGGA,045156.393,2607.341,N,08522.677,E,1,12,1.0,0.0,M,0.0,M,,*6A
$GPGSA,A,3,01,02,03,04,05,06,07,08,09,10,11,12,1.0,1.0,1.0*30
$GPRMC,045156.393,A,2607.341,N,08522.677,E,000.0,000.0,130624,000.0,W*7C
$GPGGA,045157.393,2607.341,N,08522.677,E,1,12,1.0,0.0,M,0.0,M,,*6B
$GPGSA,A,3,01,02,03,04,05,06,07,08,09,10,11,12,1.0,1.0,1.0*30
$GPRMC,045157.393,A,2607.341,N,08522.677,E,000.0,000.0,130624,000.0,W*7D
$GPGGA,045158.393,2607.341,N,08522.677,E,1,12,1.0,0.0,M,0.0,M,,*64
$GPGSA,A,3,01,02,03,04,05,06,07,08,09,10,11,12,1.0,1.0,1.0*30
$GPRMC,045158.393,A,2607.341,N,08522.677,E,000.0,000.0,130624,000.0,W*72
$GPGGA,045159.393,2607.341,N,08522.677,E,1,12,1.0,0.0,M,0.0,M,,*65
$GPGSA,A,3,01,02,03,04,05,06,07,08,09,10,11,12,1.0,1.0,1.0*30
$GPRMC,045159.393,A,2607.341,N,08522.677,E,000.0,000.0,130624,000.0,W*73
$GPGGA,045200.393,2607.341,N,08522.677,E,1,12,1.0,0.0,M,0.0,M,,*6A
$GPGSA,A,3,01,02,03,04,05,06,07,08,09,10,11,12,1.0,1.0,1.0*30
$GPRMC,045200.393,A,2607.341,N,08522.677,E,000.0,000.0,130624,000.0,W*7C
$GPGGA,045201.393,2607.341,N,08522.677,E,1,12,1.0,0.0,M,0.0,M,,*6B
$GPGSA,A,3,01,02,03,04,05,06,07,08,09,10,11,12,1.0,1.0,1.0*30
$GPRMC,045201.393,A,2607.341,N,08522.677,E,000.0,000.0,130624,000.0,W*7D
$GPGGA,045202.393,2607.341,N,08522.677,E,1,12,1.0,0.0,M,0.0,M,,*68
$GPGSA,A,3,01,02,03,04,05,06,07,08,09,10,11,12,1.0,1.0,1.0*30
$GPRMC,045202.393,A,2607.341,N,08522.677,E,000.0,000.0,130624,000.0,W*7E
$GPGGA,045203.393,2607.341,N,08522.677,E,1,12,1.0,0.0,M,0.0,M,,*69
$GPGSA,A,3,01,02,03,04,05,06,07,08,09,10,11,12,1.0,1.0,1.0*30
$GPRMC,045203.393,A,2607.341,N,08522.677,E,000.0,000.0,130624,000.0,W*7F
$GPGGA,045204.393,2607.341,N,08522.677,E,1,12,1.0,0.0,M,0.0,M,,*6E
$GPGSA,A,3,01,02,03,04,05,06,07,08,09,10,11,12,1.0,1.0,1.0*30
$GPRMC,045204.393,A,2607.341,N,08522.677,E,000.0,000.0,130624,000.0,W*78
$GPGGA,045205.393,2607.341,N,08522.677,E,1,12,1.0,0.0,M,0.0,M,,*6F
$GPGSA,A,3,01,02,03,04,05,06,07,08,09,10,11,12,1.0,1.0,1.0*30
$GPRMC,045205.393,A,2607.341,N,08522.677,E,000.0,000.0,130624,000.0,W*79
$GPGGA,045206.393,2607.341,N,08522.677,E,1,12,1.0,0.0,M,0.0,M,,*6C
$GPGSA,A,3,01,02,03,04,05,06,07,08,09,10,11,12,1.0,1.0,1.0*30
$GPRMC,045206.393,A,2607.341,N,08522.677,E,000.0,000.0,130624,000.0,W*7A
$GPGGA,045207.393,2607.341,N,08522.677,E,1,12,1.0,0.0,M,0.0,M,,*6D
$GPGSA,A,3,01,02,03,04,05,06,07,08,09,10,11,12,1.0,1.0,1.0*30
$GPRMC,045207.393,A,2607.341,N,08522.677,E,000.0,000.0,130624,000.0,W*7B
$GPGGA,045208.393,2607.341,N,08522.677,E,1,12,1.0,0.0,M,0.0,M,,*62
$GPGSA,A,3,01,02,03,04,05,06,07,08,09,10,11,12,1.0,1.0,1.0*30
$GPRMC,045208.393,A,2607.341,N,08522.677,E,000.0,000.0,130624,000.0,W*74
$GPGGA,045209.393,2607.341,N,08522.677,E,1,12,1.0,0.0,M,0.0,M,,*63
$GPGSA,A,3,01,02,03,04,05,06,07,08,09,10,11,12,1.0,1.0,1.0*30
$GPRMC,045209.393,A,2607.341,N,08522.677,E,000.0,000.0,130624,000.0,W*75
$GPGGA,045210.393,2607.341,N,08522.677,E,1,12,1.0,0.0,M,0.0,M,,*6B
$GPGSA,A,3,01,02,03,04,05,06,07,08,09,10,11,12,1.0,1.0,1.0*30
$GPRMC,045210.393,A,2607.341,N,08522.677,E,000.0,000.0,130624,000.0,W*7D
$GPGGA,045211.393,2607.341,N,08522.677,E,1,12,1.0,0.0,M,0.0,M,,*6A
$GPGSA,A,3,01,02,03,04,05,06,07,08,09,10,11,12,1.0,1.0,1.0*30
$GPRMC,045211.393,A,2607.341,N,08522.677,E,000.5,059.1,130624,000.0,W*74
$GPGGA,045212.393,2607.341,N,08522.677,E,1,12,1.0,0.0,M,0.0,M,,*69
$GPGSA,A,3,01,02,03,04,05,06,07,08,09,10,11,12,1.0,1.0,1.0*30
$GPRMC,045212.393,A,2607.341,N,08522.677,E,000.5,000.0,130624,000.0,W*7A
$GPGGA,045213.393,2607.341,N,08522.677,E,1,12,1.0,0.0,M,0.0,M,,*68
$GPGSA,A,3,01,02,03,04,05,06,07,08,09,10,11,12,1.0,1.0,1.0*30
$GPRMC,045213.393,A,2607.341,N,08522.677,E,000.0,000.0,130624,000.0,W*7E
$GPGGA,045214.393,2607.341,N,08522.677,E,1,12,1.0,0.0,M,0.0,M,,*6F
$GPGSA,A,3,01,02,03,04,05,06,07,08,09,10,11,12,1.0,1.0,1.0*30
$GPRMC,045214.393,A,2607.341,N,08522.677,E,000.0,000.0,130624,000.0,W*79
$GPGGA,045215.393,2607.341,N,08522.677,E,1,12,1.0,0.0,M,0.0,M,,*6E
$GPGSA,A,3,01,02,03,04,05,06,07,08,09,10,11,12,1.0,1.0,1.0*30
$GPRMC,045215.393,A,2607.341,N,08522.677,E,000.0,000.0,130624,000.0,W*78
$GPGGA,045216.393,2607.341,N,08522.677,E,1,12,1.0,0.0,M,0.0,M,,*6D
$GPGSA,A,3,01,02,03,04,05,06,07,08,09,10,11,12,1.0,1.0,1.0*30
$GPRMC,045216.393,A,2607.341,N,08522.677,E,000.0,000.0,130624,000.0,W*7B
$GPGGA,045217.393,2607.341,N,08522.677,E,1,12,1.0,0.0,M,0.0,M,,*6C
$GPGSA,A,3,01,02,03,04,05,06,07,08,09,10,11,12,1.0,1.0,1.0*30
$GPRMC,045217.393,A,2607.341,N,08522.677,E,000.0,000.0,130624,000.0,W*7A
$GPGGA,045218.393,2607.341,N,08522.677,E,1,12,1.0,0.0,M,0.0,M,,*63
$GPGSA,A,3,01,02,03,04,05,06,07,08,09,10,11,12,1.0,1.0,1.0*30
$GPRMC,045218.393,A,2607.341,N,08522.677,E,000.0,000.0,130624,000.0,W*75
$GPGGA,045219.393,2607.341,N,08522.677,E,1,12,1.0,0.0,M,0.0,M,,*62
$GPGSA,A,3,01,02,03,04,05,06,07,08,09,10,11,12,1.0,1.0,1.0*30
$GPRMC,045219.393,A,2607.341,N,08522.677,E,000.0,000.0,130624,000.0,W*74
$GPGGA,045220.393,2607.341,N,08522.677,E,1,12,1.0,0.0,M,0.0,M,,*68
$GPGSA,A,3,01,02,03,04,05,06,07,08,09,10,11,12,1.0,1.0,1.0*30
$GPRMC,045220.393,A,2607.341,N,08522.677,E,000.0,000.0,130624,000.0,W*7E
$GPGGA,045221.393,2607.341,N,08522.677,E,1,12,1.0,0.0,M,0.0,M,,*69
$GPGSA,A,3,01,02,03,04,05,06,07,08,09,10,11,12,1.0,1.0,1.0*30
$GPRMC,045221.393,A,2607.341,N,08522.677,E,000.0,000.0,130624,000.0,W*7F
$GPGGA,045222.393,2607.341,N,08522.677,E,1,12,1.0,0.0,M,0.0,M,,*6A
$GPGSA,A,3,01,02,03,04,05,06,07,08,09,10,11,12,1.0,1.0,1.0*30
$GPRMC,045222.393,A,2607.341,N,08522.677,E,000.0,000.0,130624,000.0,W*7C
$GPGGA,045223.393,2607.341,N,08522.677,E,1,12,1.0,0.0,M,0.0,M,,*6B
$GPGSA,A,3,01,02,03,04,05,06,07,08,09,10,11,12,1.0,1.0,1.0*30
$GPRMC,045223.393,A,2607.341,N,08522.677,E,000.0,000.0,130624,000.0,W*7D
$GPGGA,045224.393,2607.341,N,08522.677,E,1,12,1.0,0.0,M,0.0,M,,*6C
$GPGSA,A,3,01,02,03,04,05,06,07,08,09,10,11,12,1.0,1.0,1.0*30
$GPRMC,045224.393,A,2607.341,N,08522.677,E,000.0,000.0,130624,000.0,W*7A
$GPGGA,045225.393,2607.341,N,08522.677,E,1,12,1.0,0.0,M,0.0,M,,*6D
$GPGSA,A,3,01,02,03,04,05,06,07,08,09,10,11,12,1.0,1.0,1.0*30
$GPRMC,045225.393,A,2607.341,N,08522.677,E,000.0,000.0,130624,000.0,W*7B
$GPGGA,045226.393,2607.341,N,08522.677,E,1,12,1.0,0.0,M,0.0,M,,*6E
$GPGSA,A,3,01,02,03,04,05,06,07,08,09,10,11,12,1.0,1.0,1.0*30
$GPRMC,045226.393,A,2607.341,N,08522.677,E,000.0,000.0,130624,000.0,W*78
$GPGGA,045227.393,2607.341,N,08522.677,E,1,12,1.0,0.0,M,0.0,M,,*6F
$GPGSA,A,3,01,02,03,04,05,06,07,08,09,10,11,12,1.0,1.0,1.0*30
$GPRMC,045227.393,A,2607.341,N,08522.677,E,000.0,000.0,130624,000.0,W*79
$GPGGA,045228.393,2607.341,N,08522.677,E,1,12,1.0,0.0,M,0.0,M,,*60
$GPGSA,A,3,01,02,03,04,05,06,07,08,09,10,11,12,1.0,1.0,1.0*30
$GPRMC,045228.393,A,2607.341,N,08522.677,E,000.0,000.0,130624,000.0,W*76
$GPGGA,045229.393,2607.341,N,08522.677,E,1,12,1.0,0.0,M,0.0,M,,*61
$GPGSA,A,3,01,02,03,04,05,06,07,08,09,10,11,12,1.0,1.0,1.0*30
$GPRMC,045229.393,A,2607.341,N,08522.677,E,000.0,000.0,130624,000.0,W*77
$GPGGA,045230.393,2607.341,N,08522.677,E,1,12,1.0,0.0,M,0.0,M,,*69
$GPGSA,A,3,01,02,03,04,05,06,07,08,09,10,11,12,1.0,1.0,1.0*30
$GPRMC,045230.393,A,2607.341,N,08522.677,E,000.0,000.0,130624,000.0,W*7F
$GPGGA,045231.393,2607.341,N,08522.677,E,1,12,1.0,0.0,M,0.0,M,,*68
$GPGSA,A,3,01,02,03,04,05,06,07,08,09,10,11,12,1.0,1.0,1.0*30
$GPRMC,045231.393,A,2607.341,N,08522.677,E,000.0,000.0,130624,000.0,W*7E
$GPGGA,045232.393,2607.341,N,08522.677,E,1,12,1.0,0.0,M,0.0,M,,*6B
$GPGSA,A,3,01,02,03,04,05,06,07,08,09,10,11,12,1.0,1.0,1.0*30
$GPRMC,045232.393,A,2607.341,N,08522.677,E,000.0,000.0,130624,000.0,W*7D
$GPGGA,045233.393,2607.341,N,08522.677,E,1,12,1.0,0.0,M,0.0,M,,*6A
$GPGSA,A,3,01,02,03,04,05,06,07,08,09,10,11,12,1.0,1.0,1.0*30
$GPRMC,045233.393,A,2607.341,N,08522.677,E,000.0,000.0,130624,000.0,W*7C
$GPGGA,045234.393,2607.341,N,08522.677,E,1,12,1.0,0.0,M,0.0,M,,*6D
$GPGSA,A,3,01,02,03,04,05,06,07,08,09,10,11,12,1.0,1.0,1.0*30
$GPRMC,045234.393,A,2607.341,N,08522.677,E,000.0,000.0,130624,000.0,W*7B
$GPGGA,045235.393,2607.341,N,08522.677,E,1,12,1.0,0.0,M,0.0,M,,*6C
$GPGSA,A,3,01,02,03,04,05,06,07,08,09,10,11,12,1.0,1.0,1.0*30
$GPRMC,045235.393,A,2607.341,N,08522.677,E,000.0,000.0,130624,000.0,W*7A
$GPGGA,045236.393,2607.341,N,08522.677,E,1,12,1.0,0.0,M,0.0,M,,*6F
$GPGSA,A,3,01,02,03,04,05,06,07,08,09,10,11,12,1.0,1.0,1.0*30
$GPRMC,045236.393,A,2607.341,N,08522.677,E,000.0,000.0,130624,000.0,W*79
$GPGGA,045237.393,2607.341,N,08522.677,E,1,12,1.0,0.0,M,0.0,M,,*6E
$GPGSA,A,3,01,02,03,04,05,06,07,08,09,10,11,12,1.0,1.0,1.0*30
$GPRMC,045237.393,A,2607.341,N,08522.677,E,000.0,000.0,130624,000.0,W*78
$GPGGA,045238.393,2607.341,N,08522.677,E,1,12,1.0,0.0,M,0.0,M,,*61
$GPGSA,A,3,01,02,03,04,05,06,07,08,09,10,11,12,1.0,1.0,1.0*30
$GPRMC,045238.393,A,2607.341,N,08522.677,E,000.0,000.0,130624,000.0,W*77
$GPGGA,045239.393,2607.341,N,08522.677,E,1,12,1.0,0.0,M,0.0,M,,*60
$GPGSA,A,3,01,02,03,04,05,06,07,08,09,10,11,12,1.0,1.0,1.0*30
$GPRMC,045239.393,A,2607.341,N,08522.677,E,000.0,000.0,130624,000.0,W*76
$GPGGA,045240.393,2607.341,N,08522.677,E,1,12,1.0,0.0,M,0.0,M,,*6E
$GPGSA,A,3,01,02,03,04,05,06,07,08,09,10,11,12,1.0,1.0,1.0*30
$GPRMC,045240.393,A,2607.341,N,08522.677,E,000.0,000.0,130624,000.0,W*78
$GPGGA,045241.393,2607.341,N,08522.677,E,1,12,1.0,0.0,M,0.0,M,,*6F
$GPGSA,A,3,01,02,03,04,05,06,07,08,09,10,11,12,1.0,1.0,1.0*30
$GPRMC,045241.393,A,2607.341,N,08522.677,E,000.0,000.0,130624,000.0,W*79
$GPGGA,045242.393,2607.341,N,08522.677,E,1,12,1.0,0.0,M,0.0,M,,*6C
$GPGSA,A,3,01,02,03,04,05,06,07,08,09,10,11,12,1.0,1.0,1.0*30
$GPRMC,045242.393,A,2607.341,N,08522.677,E,000.0,000.0,130624,000.0,W*7A
$GPGGA,045243.393,2607.341,N,08522.677,E,1,12,1.0,0.0,M,0.0,M,,*6D
$GPGSA,A,3,01,02,03,04,05,06,07,08,09,10,11,12,1.0,1.0,1.0*30
$GPRMC,045243.393,A,2607.341,N,08522.677,E,000.0,000.0,130624,000.0,W*7B
$GPGGA,045244.393,2607.341,N,08522.677,E,1,12,1.0,0.0,M,0.0,M,,*6A
$GPGSA,A,3,01,02,03,04,05,06,07,08,09,10,11,12,1.0,1.0,1.0*30
$GPRMC,045244.393,A,2607.341,N,08522.677,E,000.0,000.0,130624,000.0,W*7C
$GPGGA,045245.393,2607.341,N,08522.677,E,1,12,1.0,0.0,M,0.0,M,,*6B
$GPGSA,A,3,01,02,03,04,05,06,07,08,09,10,11,12,1.0,1.0,1.0*30
$GPRMC,045245.393,A,2607.341,N,08522.677,E,000.0,000.0,130624,000.0,W*7D
$GPGGA,045246.393,2607.341,N,08522.677,E,1,12,1.0,0.0,M,0.0,M,,*68
$GPGSA,A,3,01,02,03,04,05,06,07,08,09,10,11,12,1.0,1.0,1.0*30
$GPRMC,045246.393,A,2607.341,N,08522.677,E,000.0,000.0,130624,000.0,W*7E
$GPGGA,045247.393,2607.341,N,08522.677,E,1,12,1.0,0.0,M,0.0,M,,*69
$GPGSA,A,3,01,02,03,04,05,06,07,08,09,10,11,12,1.0,1.0,1.0*30
$GPRMC,045247.393,A,2607.341,N,08522.677,E,000.0,000.0,130624,000.0,W*7F
$GPGGA,045248.393,2607.341,N,08522.677,E,1,12,1.0,0.0,M,0.0,M,,*66
$GPGSA,A,3,01,02,03,04,05,06,07,08,09,10,11,12,1.0,1.0,1.0*30
$GPRMC,045248.393,A,2607.341,N,08522.677,E,000.0,000.0,130624,000.0,W*70
$GPGGA,045249.393,2607.341,N,08522.677,E,1,12,1.0,0.0,M,0.0,M,,*67
$GPGSA,A,3,01,02,03,04,05,06,07,08,09,10,11,12,1.0,1.0,1.0*30
$GPRMC,045249.393,A,2607.341,N,08522.677,E,000.0,000.0,130624,000.0,W*71
$GPGGA,045250.393,2607.341,N,08522.677,E,1,12,1.0,0.0,M,0.0,M,,*6F
$GPGSA,A,3,01,02,03,04,05,06,07,08,09,10,11,12,1.0,1.0,1.0*30
$GPRMC,045250.393,A,2607.341,N,08522.677,E,000.0,000.0,130624,000.0,W*79
$GPGGA,045251.393,2607.341,N,08522.677,E,1,12,1.0,0.0,M,0.0,M,,*6E
$GPGSA,A,3,01,02,03,04,05,06,07,08,09,10,11,12,1.0,1.0,1.0*30
$GPRMC,045251.393,A,2607.341,N,08522.677,E,000.0,000.0,130624,000.0,W*78
$GPGGA,045252.393,2607.341,N,08522.677,E,1,12,1.0,0.0,M,0.0,M,,*6D
$GPGSA,A,3,01,02,03,04,05,06,07,08,09,10,11,12,1.0,1.0,1.0*30
$GPRMC,045252.393,A,2607.341,N,08522.677,E,000.0,000.0,130624,000.0,W*7B
$GPGGA,045253.393,2607.341,N,08522.677,E,1,12,1.0,0.0,M,0.0,M,,*6C
$GPGSA,A,3,01,02,03,04,05,06,07,08,09,10,11,12,1.0,1.0,1.0*30
$GPRMC,045253.393,A,2607.341,N,08522.677,E,000.0,000.0,130624,000.0,W*7A
$GPGGA,045254.393,2607.341,N,08522.677,E,1,12,1.0,0.0,M,0.0,M,,*6B
$GPGSA,A,3,01,02,03,04,05,06,07,08,09,10,11,12,1.0,1.0,1.0*30
$GPRMC,045254.393,A,2607.341,N,08522.677,E,000.0,000.0,130624,000.0,W*7D
$GPGGA,045255.393,2607.341,N,08522.677,E,1,12,1.0,0.0,M,0.0,M,,*6A
$GPGSA,A,3,01,02,03,04,05,06,07,08,09,10,11,12,1.0,1.0,1.0*30
$GPRMC,045255.393,A,2607.341,N,08522.677,E,000.0,000.0,130624,000.0,W*7C
$GPGGA,045256.393,2607.341,N,08522.677,E,1,12,1.0,0.0,M,0.0,M,,*69
$GPGSA,A,3,01,02,03,04,05,06,07,08,09,10,11,12,1.0,1.0,1.0*30
$GPRMC,045256.393,A,2607.341,N,08522.677,E,000.0,000.0,130624,000.0,W*7F
$GPGGA,045257.393,2607.341,N,08522.677,E,1,12,1.0,0.0,M,0.0,M,,*68
$GPGSA,A,3,01,02,03,04,05,06,07,08,09,10,11,12,1.0,1.0,1.0*30
$GPRMC,045257.393,A,2607.341,N,08522.677,E,000.0,000.0,130624,000.0,W*7E
$GPGGA,045258.393,2607.341,N,08522.677,E,1,12,1.0,0.0,M,0.0,M,,*67
$GPGSA,A,3,01,02,03,04,05,06,07,08,09,10,11,12,1.0,1.0,1.0*30
$GPRMC,045258.393,A,2607.341,N,08522.677,E,000.0,000.0,130624,000.0,W*71
$GPGGA,045259.393,2607.341,N,08522.677,E,1,12,1.0,0.0,M,0.0,M,,*66
$GPGSA,A,3,01,02,03,04,05,06,07,08,09,10,11,12,1.0,1.0,1.0*30
$GPRMC,045259.393,A,2607.341,N,08522.677,E,000.0,000.0,130624,000.0,W*70
$GPGGA,045300.393,2607.341,N,08522.677,E,1,12,1.0,0.0,M,0.0,M,,*6B
$GPGSA,A,3,01,02,03,04,05,06,07,08,09,10,11,12,1.0,1.0,1.0*30
$GPRMC,045300.393,A,2607.341,N,08522.677,E,000.0,000.0,130624,000.0,W*7D
$GPGGA,045301.393,2607.341,N,08522.677,E,1,12,1.0,0.0,M,0.0,M,,*6A
$GPGSA,A,3,01,02,03,04,05,06,07,08,09,10,11,12,1.0,1.0,1.0*30
$GPRMC,045301.393,A,2607.341,N,08522.677,E,000.0,000.0,130624,000.0,W*7C
$GPGGA,045302.393,2607.341,N,08522.677,E,1,12,1.0,0.0,M,0.0,M,,*69
$GPGSA,A,3,01,02,03,04,05,06,07,08,09,10,11,12,1.0,1.0,1.0*30
$GPRMC,045302.393,A,2607.341,N,08522.677,E,000.0,000.0,130624,000.0,W*7F
$GPGGA,045303.393,2607.341,N,08522.677,E,1,12,1.0,0.0,M,0.0,M,,*68
$GPGSA,A,3,01,02,03,04,05,06,07,08,09,10,11,12,1.0,1.0,1.0*30
$GPRMC,045303.393,A,2607.341,N,08522.677,E,000.0,000.0,130624,000.0,W*7E
$GPGGA,045304.393,2607.341,N,08522.677,E,1,12,1.0,0.0,M,0.0,M,,*6F
$GPGSA,A,3,01,02,03,04,05,06,07,08,09,10,11,12,1.0,1.0,1.0*30
$GPRMC,045304.393,A,2607.341,N,08522.677,E,000.0,000.0,130624,000.0,W*79
$GPGGA,045305.393,2607.341,N,08522.677,E,1,12,1.0,0.0,M,0.0,M,,*6E
$GPGSA,A,3,01,02,03,04,05,06,07,08,09,10,11,12,1.0,1.0,1.0*30
$GPRMC,045305.393,A,2607.341,N,08522.677,E,000.0,000.0,130624,000.0,W*78
$GPGGA,045306.393,2607.341,N,08522.677,E,1,12,1.0,0.0,M,0.0,M,,*6D
$GPGSA,A,3,01,02,03,04,05,06,07,08,09,10,11,12,1.0,1.0,1.0*30
$GPRMC,045306.393,A,2607.341,N,08522.677,E,000.0,000.0,130624,000.0,W*7B
$GPGGA,045307.393,2607.341,N,08522.677,E,1,12,1.0,0.0,M,0.0,M,,*6C
$GPGSA,A,3,01,02,03,04,05,06,07,08,09,10,11,12,1.0,1.0,1.0*30
$GPRMC,045307.393,A,2607.341,N,08522.677,E,000.0,000.0,130624,000.0,W*7A
$GPGGA,045308.393,2607.341,N,08522.677,E,1,12,1.0,0.0,M,0.0,M,,*63
$GPGSA,A,3,01,02,03,04,05,06,07,08,09,10,11,12,1.0,1.0,1.0*30
$GPRMC,045308.393,A,2607.341,N,08522.677,E,000.0,000.0,130624,000.0,W*75
$GPGGA,045309.393,2607.341,N,08522.677,E,1,12,1.0,0.0,M,0.0,M,,*62
$GPGSA,A,3,01,02,03,04,05,06,07,08,09,10,11,12,1.0,1.0,1.0*30
$GPRMC,045309.393,A,2607.341,N,08522.677,E,000.0,000.0,130624,000.0,W*74
$GPGGA,045310.393,2607.341,N,08522.677,E,1,12,1.0,0.0,M,0.0,M,,*6A
$GPGSA,A,3,01,02,03,04,05,06,07,08,09,10,11,12,1.0,1.0,1.0*30
$GPRMC,045310.393,A,2607.341,N,08522.677,E,000.0,000.0,130624,000.0,W*7C
$GPGGA,045311.393,2607.341,N,08522.677,E,1,12,1.0,0.0,M,0.0,M,,*6B
$GPGSA,A,3,01,02,03,04,05,06,07,08,09,10,11,12,1.0,1.0,1.0*30
$GPRMC,045311.393,A,2607.341,N,08522.677,E,000.0,000.0,130624,000.0,W*7D
$GPGGA,045312.393,2607.341,N,08522.677,E,1,12,1.0,0.0,M,0.0,M,,*68
$GPGSA,A,3,01,02,03,04,05,06,07,08,09,10,11,12,1.0,1.0,1.0*30
$GPRMC,045312.393,A,2607.341,N,08522.677,E,000.0,000.0,130624,000.0,W*7E
$GPGGA,045313.393,2607.341,N,08522.677,E,1,12,1.0,0.0,M,0.0,M,,*69
$GPGSA,A,3,01,02,03,04,05,06,07,08,09,10,11,12,1.0,1.0,1.0*30
$GPRMC,045313.393,A,2607.341,N,08522.677,E,000.0,000.0,130624,000.0,W*7F
$GPGGA,045314.393,2607.341,N,08522.677,E,1,12,1.0,0.0,M,0.0,M,,*6E
$GPGSA,A,3,01,02,03,04,05,06,07,08,09,10,11,12,1.0,1.0,1.0*30
$GPRMC,045314.393,A,2607.341,N,08522.677,E,000.0,000.0,130624,000.0,W*78
$GPGGA,045315.393,2607.341,N,08522.677,E,1,12,1.0,0.0,M,0.0,M,,*6F
$GPGSA,A,3,01,02,03,04,05,06,07,08,09,10,11,12,1.0,1.0,1.0*30
$GPRMC,045315.393,A,2607.341,N,08522.677,E,000.0,000.0,130624,000.0,W*79
$GPGGA,045316.393,2607.341,N,08522.677,E,1,12,1.0,0.0,M,0.0,M,,*6C
$GPGSA,A,3,01,02,03,04,05,06,07,08,09,10,11,12,1.0,1.0,1.0*30
$GPRMC,045316.393,A,2607.341,N,08522.677,E,000.0,000.0,130624,000.0,W*7A
$GPGGA,045317.393,2607.341,N,08522.677,E,1,12,1.0,0.0,M,0.0,M,,*6D
$GPGSA,A,3,01,02,03,04,05,06,07,08,09,10,11,12,1.0,1.0,1.0*30
$GPRMC,045317.393,A,2607.341,N,08522.677,E,000.0,000.0,130624,000.0,W*7B
$GPGGA,045318.393,2607.341,N,08522.677,E,1,12,1.0,0.0,M,0.0,M,,*62
$GPGSA,A,3,01,02,03,04,05,06,07,08,09,10,11,12,1.0,1.0,1.0*30
$GPRMC,045318.393,A,2607.341,N,08522.677,E,000.0,000.0,130624,000.0,W*74
$GPGGA,045319.393,2607.341,N,08522.677,E,1,12,1.0,0.0,M,0.0,M,,*63
$GPGSA,A,3,01,02,03,04,05,06,07,08,09,10,11,12,1.0,1.0,1.0*30
$GPRMC,045319.393,A,2607.341,N,08522.677,E,000.0,000.0,130624,000.0,W*75
$GPGGA,045320.393,2607.341,N,08522.677,E,1,12,1.0,0.0,M,0.0,M,,*69
$GPGSA,A,3,01,02,03,04,05,06,07,08,09,10,11,12,1.0,1.0,1.0*30
$GPRMC,045320.393,A,2607.341,N,08522.677,E,000.0,000.0,130624,000.0,W*7F
$GPGGA,045321.393,2607.341,N,08522.677,E,1,12,1.0,0.0,M,0.0,M,,*68
$GPGSA,A,3,01,02,03,04,05,06,07,08,09,10,11,12,1.0,1.0,1.0*30
$GPRMC,045321.393,A,2607.341,N,08522.677,E,000.0,000.0,130624,000.0,W*7E
$GPGGA,045322.393,2607.341,N,08522.677,E,1,12,1.0,0.0,M,0.0,M,,*6B
$GPGSA,A,3,01,02,03,04,05,06,07,08,09,10,11,12,1.0,1.0,1.0*30
$GPRMC,045322.393,A,2607.341,N,08522.677,E,000.0,000.0,130624,000.0,W*7D
$GPGGA,045323.393,2607.341,N,08522.677,E,1,12,1.0,0.0,M,0.0,M,,*6A
$GPGSA,A,3,01,02,03,04,05,06,07,08,09,10,11,12,1.0,1.0,1.0*30
$GPRMC,045323.393,A,2607.341,N,08522.677,E,000.0,000.0,130624,000.0,W*7C
$GPGGA,045324.393,2607.341,N,08522.677,E,1,12,1.0,0.0,M,0.0,M,,*6D
$GPGSA,A,3,01,02,03,04,05,06,07,08,09,10,11,12,1.0,1.0,1.0*30
$GPRMC,045324.393,A,2607.341,N,08522.677,E,000.0,000.0,130624,000.0,W*7B
$GPGGA,045325.393,2607.341,N,08522.677,E,1,12,1.0,0.0,M,0.0,M,,*6C
$GPGSA,A,3,01,02,03,04,05,06,07,08,09,10,11,12,1.0,1.0,1.0*30
$GPRMC,045325.393,A,2607.341,N,08522.677,E,000.0,000.0,130624,000.0,W*7A
$GPGGA,045326.393,2607.341,N,08522.677,E,1,12,1.0,0.0,M,0.0,M,,*6F
$GPGSA,A,3,01,02,03,04,05,06,07,08,09,10,11,12,1.0,1.0,1.0*30
$GPRMC,045326.393,A,2607.341,N,08522.677,E,000.0,000.0,130624,000.0,W*79
$GPGGA,045327.393,2607.341,N,08522.677,E,1,12,1.0,0.0,M,0.0,M,,*6E
$GPGSA,A,3,01,02,03,04,05,06,07,08,09,10,11,12,1.0,1.0,1.0*30
$GPRMC,045327.393,A,2607.341,N,08522.677,E,000.0,000.0,130624,000.0,W*78
$GPGGA,045328.393,2607.341,N,08522.677,E,1,12,1.0,0.0,M,0.0,M,,*61
$GPGSA,A,3,01,02,03,04,05,06,07,08,09,10,11,12,1.0,1.0,1.0*30
$GPRMC,045328.393,A,2607.341,N,08522.677,E,000.0,000.0,130624,000.0,W*77
$GPGGA,045329.393,2607.341,N,08522.677,E,1,12,1.0,0.0,M,0.0,M,,*60
$GPGSA,A,3,01,02,03,04,05,06,07,08,09,10,11,12,1.0,1.0,1.0*30
$GPRMC,045329.393,A,2607.341,N,08522.677,E,000.8,270.0,130624,000.0,W*7B
$GPGGA,045330.393,2607.341,N,08522.677,E,1,12,1.0,0.0,M,0.0,M,,*68
$GPGSA,A,3,01,02,03,04,05,06,07,08,09,10,11,12,1.0,1.0,1.0*30
$GPRMC,045330.393,A,2607.341,N,08522.677,E,000.8,000.0,130624,000.0,W*76
$GPGGA,045331.393,2607.341,N,08522.677,E,1,12,1.0,0.0,M,0.0,M,,*69
$GPGSA,A,3,01,02,03,04,05,06,07,08,09,10,11,12,1.0,1.0,1.0*30
$GPRMC,045331.393,A,2607.341,N,08522.677,E,000.0,000.0,130624,000.0,W*7F
$GPGGA,045332.393,2607.341,N,08522.677,E,1,12,1.0,0.0,M,0.0,M,,*6A
$GPGSA,A,3,01,02,03,04,05,06,07,08,09,10,11,12,1.0,1.0,1.0*30
$GPRMC,045332.393,A,2607.341,N,08522.677,E,000.0,000.0,130624,000.0,W*7C
$GPGGA,045333.393,2607.341,N,08522.677,E,1,12,1.0,0.0,M,0.0,M,,*6B
$GPGSA,A,3,01,02,03,04,05,06,07,08,09,10,11,12,1.0,1.0,1.0*30
$GPRMC,045333.393,A,2607.341,N,08522.677,E,000.0,000.0,130624,000.0,W*7D
$GPGGA,045334.393,2607.341,N,08522.677,E,1,12,1.0,0.0,M,0.0,M,,*6C
$GPGSA,A,3,01,02,03,04,05,06,07,08,09,10,11,12,1.0,1.0,1.0*30
$GPRMC,045334.393,A,2607.341,N,08522.677,E,000.0,000.0,130624,000.0,W*7A
$GPGGA,045335.393,2607.341,N,08522.677,E,1,12,1.0,0.0,M,0.0,M,,*6D
$GPGSA,A,3,01,02,03,04,05,06,07,08,09,10,11,12,1.0,1.0,1.0*30
$GPRMC,045335.393,A,2607.341,N,08522.677,E,000.0,000.0,130624,000.0,W*7B
$GPGGA,045336.393,2607.341,N,08522.677,E,1,12,1.0,0.0,M,0.0,M,,*6E
$GPGSA,A,3,01,02,03,04,05,06,07,08,09,10,11,12,1.0,1.0,1.0*30
$GPRMC,045336.393,A,2607.341,N,08522.677,E,000.0,000.0,130624,000.0,W*78
$GPGGA,045337.393,2607.341,N,08522.677,E,1,12,1.0,0.0,M,0.0,M,,*6F
$GPGSA,A,3,01,02,03,04,05,06,07,08,09,10,11,12,1.0,1.0,1.0*30
$GPRMC,045337.393,A,2607.341,N,08522.677,E,000.0,000.0,130624,000.0,W*79
$GPGGA,045338.393,2607.341,N,08522.677,E,1,12,1.0,0.0,M,0.0,M,,*60
$GPGSA,A,3,01,02,03,04,05,06,07,08,09,10,11,12,1.0,1.0,1.0*30
$GPRMC,045338.393,A,2607.341,N,08522.677,E,000.4,090.0,130624,000.0,W*7B
$GPGGA,045339.393,2607.341,N,08522.677,E,1,12,1.0,0.0,M,0.0,M,,*61
$GPGSA,A,3,01,02,03,04,05,06,07,08,09,10,11,12,1.0,1.0,1.0*30
$GPRMC,045339.393,A,2607.341,N,08522.677,E,000.4,000.0,130624,000.0,W*73
$GPGGA,045340.393,2607.341,N,08522.677,E,1,12,1.0,0.0,M,0.0,M,,*6F
$GPGSA,A,3,01,02,03,04,05,06,07,08,09,10,11,12,1.0,1.0,1.0*30
$GPRMC,045340.393,A,2607.341,N,08522.677,E,000.0,000.0,130624,000.0,W*79
$GPGGA,045341.393,2607.341,N,08522.677,E,1,12,1.0,0.0,M,0.0,M,,*6E
$GPGSA,A,3,01,02,03,04,05,06,07,08,09,10,11,12,1.0,1.0,1.0*30
$GPRMC,045341.393,A,2607.341,N,08522.677,E,000.0,000.0,130624,000.0,W*78
$GPGGA,045342.393,2607.341,N,08522.677,E,1,12,1.0,0.0,M,0.0,M,,*6D
$GPGSA,A,3,01,02,03,04,05,06,07,08,09,10,11,12,1.0,1.0,1.0*30
$GPRMC,045342.393,A,2607.341,N,08522.677,E,000.1,245.8,130624,000.0,W*71
$GPGGA,045343.393,2607.341,N,08522.677,E,1,12,1.0,0.0,M,0.0,M,,*6C
$GPGSA,A,3,01,02,03,04,05,06,07,08,09,10,11,12,1.0,1.0,1.0*30
$GPRMC,045343.393,A,2607.341,N,08522.677,E,000.1,000.0,130624,000.0,W*7B
$GPGGA,045344.393,2607.341,N,08522.677,E,1,12,1.0,0.0,M,0.0,M,,*6B
$GPGSA,A,3,01,02,03,04,05,06,07,08,09,10,11,12,1.0,1.0,1.0*30
$GPRMC,045344.393,A,2607.341,N,08522.677,E,000.0,000.0,130624,000.0,W*7D
$GPGGA,045345.393,2607.341,N,08522.677,E,1,12,1.0,0.0,M,0.0,M,,*6A
$GPGSA,A,3,01,02,03,04,05,06,07,08,09,10,11,12,1.0,1.0,1.0*30
$GPRMC,045345.393,A,2607.341,N,08522.677,E,000.0,000.0,130624,000.0,W*7C
$GPGGA,045346.393,2607.341,N,08522.677,E,1,12,1.0,0.0,M,0.0,M,,*69
$GPGSA,A,3,01,02,03,04,05,06,07,08,09,10,11,12,1.0,1.0,1.0*30
$GPRMC,045346.393,A,2607.341,N,08522.677,E,000.0,000.0,130624,000.0,W*7F
$GPGGA,045347.393,2607.341,N,08522.677,E,1,12,1.0,0.0,M,0.0,M,,*68
$GPGSA,A,3,01,02,03,04,05,06,07,08,09,10,11,12,1.0,1.0,1.0*30
$GPRMC,045347.393,A,2607.341,N,08522.677,E,000.0,000.0,130624,000.0,W*7E
$GPGGA,045348.393,2607.341,N,08522.677,E,1,12,1.0,0.0,M,0.0,M,,*67
$GPGSA,A,3,01,02,03,04,05,06,07,08,09,10,11,12,1.0,1.0,1.0*30
$GPRMC,045348.393,A,2607.341,N,08522.677,E,000.0,000.0,130624,000.0,W*71
$GPGGA,045349.393,2607.341,N,08522.677,E,1,12,1.0,0.0,M,0.0,M,,*66
$GPGSA,A,3,01,02,03,04,05,06,07,08,09,10,11,12,1.0,1.0,1.0*30
$GPRMC,045349.393,A,2607.341,N,08522.677,E,000.0,000.0,130624,000.0,W*70
$GPGGA,045350.393,2607.341,N,08522.677,E,1,12,1.0,0.0,M,0.0,M,,*6E
$GPGSA,A,3,01,02,03,04,05,06,07,08,09,10,11,12,1.0,1.0,1.0*30
$GPRMC,045350.393,A,2607.341,N,08522.677,E,000.0,000.0,130624,000.0,W*78
$GPGGA,045351.393,2607.341,N,08522.677,E,1,12,1.0,0.0,M,0.0,M,,*6F
$GPGSA,A,3,01,02,03,04,05,06,07,08,09,10,11,12,1.0,1.0,1.0*30
$GPRMC,045351.393,A,2607.341,N,08522.677,E,000.0,000.0,130624,000.0,W*79
$GPGGA,045352.393,2607.341,N,08522.677,E,1,12,1.0,0.0,M,0.0,M,,*6C
$GPGSA,A,3,01,02,03,04,05,06,07,08,09,10,11,12,1.0,1.0,1.0*30
$GPRMC,045352.393,A,2607.341,N,08522.677,E,000.0,000.0,130624,000.0,W*7A
$GPGGA,045353.393,2607.341,N,08522.677,E,1,12,1.0,0.0,M,0.0,M,,*6D
$GPGSA,A,3,01,02,03,04,05,06,07,08,09,10,11,12,1.0,1.0,1.0*30
$GPRMC,045353.393,A,2607.341,N,08522.677,E,000.0,000.0,130624,000.0,W*7B
$GPGGA,045354.393,2607.341,N,08522.677,E,1,12,1.0,0.0,M,0.0,M,,*6A
$GPGSA,A,3,01,02,03,04,05,06,07,08,09,10,11,12,1.0,1.0,1.0*30
$GPRMC,045354.393,A,2607.341,N,08522.677,E,000.0,000.0,130624,000.0,W*7C
$GPGGA,045355.393,2607.341,N,08522.677,E,1,12,1.0,0.0,M,0.0,M,,*6B
$GPGSA,A,3,01,02,03,04,05,06,07,08,09,10,11,12,1.0,1.0,1.0*30
$GPRMC,045355.393,A,2607.341,N,08522.677,E,000.0,000.0,130624,000.0,W*7D
$GPGGA,045356.393,2607.341,N,08522.677,E,1,12,1.0,0.0,M,0.0,M,,*68
$GPGSA,A,3,01,02,03,04,05,06,07,08,09,10,11,12,1.0,1.0,1.0*30
$GPRMC,045356.393,A,2607.341,N,08522.677,E,000.0,000.0,130624,000.0,W*7E
$GPGGA,045357.393,2607.341,N,08522.677,E,1,12,1.0,0.0,M,0.0,M,,*69
$GPGSA,A,3,01,02,03,04,05,06,07,08,09,10,11,12,1.0,1.0,1.0*30
$GPRMC,045357.393,A,2607.341,N,08522.677,E,000.0,000.0,130624,000.0,W*7F
$GPGGA,045358.393,2607.341,N,08522.677,E,1,12,1.0,0.0,M,0.0,M,,*66
$GPGSA,A,3,01,02,03,04,05,06,07,08,09,10,11,12,1.0,1.0,1.0*30
$GPRMC,045358.393,A,2607.341,N,08522.677,E,000.0,000.0,130624,000.0,W*70
$GPGGA,045359.393,2607.341,N,08522.677,E,1,12,1.0,0.0,M,0.0,M,,*67
$GPGSA,A,3,01,02,03,04,05,06,07,08,09,10,11,12,1.0,1.0,1.0*30
$GPRMC,045359.393,A,2607.341,N,08522.677,E,000.0,000.0,130624,000.0,W*71
$GPGGA,045400.393,2607.341,N,08522.677,E,1,12,1.0,0.0,M,0.0,M,,*6C
$GPGSA,A,3,01,02,03,04,05,06,07,08,09,10,11,12,1.0,1.0,1.0*30
$GPRMC,045400.393,A,2607.341,N,08522.677,E,000.0,000.0,130624,000.0,W*7A
$GPGGA,045401.393,2607.341,N,08522.677,E,1,12,1.0,0.0,M,0.0,M,,*6D
$GPGSA,A,3,01,02,03,04,05,06,07,08,09,10,11,12,1.0,1.0,1.0*30
$GPRMC,045401.393,A,2607.341,N,08522.677,E,000.0,000.0,130624,000.0,W*7B
$GPGGA,045402.393,2607.341,N,08522.677,E,1,12,1.0,0.0,M,0.0,M,,*6E
$GPGSA,A,3,01,02,03,04,05,06,07,08,09,10,11,12,1.0,1.0,1.0*30
$GPRMC,045402.393,A,2607.341,N,08522.677,E,000.0,000.0,130624,000.0,W*78
$GPGGA,045403.393,2607.341,N,08522.677,E,1,12,1.0,0.0,M,0.0,M,,*6F
$GPGSA,A,3,01,02,03,04,05,06,07,08,09,10,11,12,1.0,1.0,1.0*30
$GPRMC,045403.393,A,2607.341,N,08522.677,E,000.0,000.0,130624,000.0,W*79
$GPGGA,045404.393,2607.341,N,08522.677,E,1,12,1.0,0.0,M,0.0,M,,*68
$GPGSA,A,3,01,02,03,04,05,06,07,08,09,10,11,12,1.0,1.0,1.0*30
$GPRMC,045404.393,A,2607.341,N,08522.677,E,000.0,000.0,130624,000.0,W*7E
$GPGGA,045405.393,2607.341,N,08522.677,E,1,12,1.0,0.0,M,0.0,M,,*69
$GPGSA,A,3,01,02,03,04,05,06,07,08,09,10,11,12,1.0,1.0,1.0*30
$GPRMC,045405.393,A,2607.341,N,08522.677,E,000.0,000.0,130624,000.0,W*7F
$GPGGA,045406.393,2607.341,N,08522.677,E,1,12,1.0,0.0,M,0.0,M,,*6A
$GPGSA,A,3,01,02,03,04,05,06,07,08,09,10,11,12,1.0,1.0,1.0*30
$GPRMC,045406.393,A,2607.341,N,08522.677,E,000.0,000.0,130624,000.0,W*7C
$GPGGA,045407.393,2607.341,N,08522.677,E,1,12,1.0,0.0,M,0.0,M,,*6B
$GPGSA,A,3,01,02,03,04,05,06,07,08,09,10,11,12,1.0,1.0,1.0*30
$GPRMC,045407.393,A,2607.341,N,08522.677,E,000.0,000.0,130624,000.0,W*7D
$GPGGA,045408.393,2607.341,N,08522.677,E,1,12,1.0,0.0,M,0.0,M,,*64
$GPGSA,A,3,01,02,03,04,05,06,07,08,09,10,11,12,1.0,1.0,1.0*30
$GPRMC,045408.393,A,2607.341,N,08522.677,E,000.0,000.0,130624,000.0,W*72
$GPGGA,045409.393,2607.341,N,08522.677,E,1,12,1.0,0.0,M,0.0,M,,*65
$GPGSA,A,3,01,02,03,04,05,06,07,08,09,10,11,12,1.0,1.0,1.0*30
$GPRMC,045409.393,A,2607.341,N,08522.677,E,000.0,000.0,130624,000.0,W*73
$GPGGA,045410.393,2607.341,N,08522.677,E,1,12,1.0,0.0,M,0.0,M,,*6D
$GPGSA,A,3,01,02,03,04,05,06,07,08,09,10,11,12,1.0,1.0,1.0*30
$GPRMC,045410.393,A,2607.341,N,08522.677,E,000.0,000.0,130624,000.0,W*7B
$GPGGA,045411.393,2607.341,N,08522.677,E,1,12,1.0,0.0,M,0.0,M,,*6C
$GPGSA,A,3,01,02,03,04,05,06,07,08,09,10,11,12,1.0,1.0,1.0*30
$GPRMC,045411.393,A,2607.341,N,08522.677,E,000.0,000.0,130624,000.0,W*7A
$GPGGA,045412.393,2607.341,N,08522.677,E,1,12,1.0,0.0,M,0.0,M,,*6F
$GPGSA,A,3,01,02,03,04,05,06,07,08,09,10,11,12,1.0,1.0,1.0*30
$GPRMC,045412.393,A,2607.341,N,08522.677,E,000.0,000.0,130624,000.0,W*79
$GPGGA,045413.393,2607.341,N,08522.677,E,1,12,1.0,0.0,M,0.0,M,,*6E
$GPGSA,A,3,01,02,03,04,05,06,07,08,09,10,11,12,1.0,1.0,1.0*30
$GPRMC,045413.393,A,2607.341,N,08522.677,E,000.0,000.0,130624,000.0,W*78
$GPGGA,045414.393,2607.341,N,08522.677,E,1,12,1.0,0.0,M,0.0,M,,*69
$GPGSA,A,3,01,02,03,04,05,06,07,08,09,10,11,12,1.0,1.0,1.0*30
$GPRMC,045414.393,A,2607.341,N,08522.677,E,000.0,000.0,130624,000.0,W*7F
$GPGGA,045415.393,2607.341,N,08522.677,E,1,12,1.0,0.0,M,0.0,M,,*68
$GPGSA,A,3,01,02,03,04,05,06,07,08,09,10,11,12,1.0,1.0,1.0*30
$GPRMC,045415.393,A,2607.341,N,08522.677,E,000.0,000.0,130624,000.0,W*7E
$GPGGA,045416.393,2607.341,N,08522.677,E,1,12,1.0,0.0,M,0.0,M,,*6B
$GPGSA,A,3,01,02,03,04,05,06,07,08,09,10,11,12,1.0,1.0,1.0*30
$GPRMC,045416.393,A,2607.341,N,08522.677,E,000.0,000.0,130624,000.0,W*7D
$GPGGA,045417.393,2607.341,N,08522.677,E,1,12,1.0,0.0,M,0.0,M,,*6A
$GPGSA,A,3,01,02,03,04,05,06,07,08,09,10,11,12,1.0,1.0,1.0*30
$GPRMC,045417.393,A,2607.341,N,08522.677,E,000.0,000.0,130624,000.0,W*7C
$GPGGA,045418.393,2607.341,N,08522.677,E,1,12,1.0,0.0,M,0.0,M,,*65
$GPGSA,A,3,01,02,03,04,05,06,07,08,09,10,11,12,1.0,1.0,1.0*30
$GPRMC,045418.393,A,2607.341,N,08522.677,E,000.0,000.0,130624,000.0,W*73
$GPGGA,045419.393,2607.341,N,08522.677,E,1,12,1.0,0.0,M,0.0,M,,*64
$GPGSA,A,3,01,02,03,04,05,06,07,08,09,10,11,12,1.0,1.0,1.0*30
$GPRMC,045419.393,A,2607.341,N,08522.677,E,000.0,000.0,130624,000.0,W*72
$GPGGA,045420.393,2607.341,N,08522.677,E,1,12,1.0,0.0,M,0.0,M,,*6E
$GPGSA,A,3,01,02,03,04,05,06,07,08,09,10,11,12,1.0,1.0,1.0*30
$GPRMC,045420.393,A,2607.341,N,08522.677,E,000.0,000.0,130624,000.0,W*78
$GPGGA,045421.393,2607.341,N,08522.677,E,1,12,1.0,0.0,M,0.0,M,,*6F
$GPGSA,A,3,01,02,03,04,05,06,07,08,09,10,11,12,1.0,1.0,1.0*30
$GPRMC,045421.393,A,2607.341,N,08522.677,E,000.0,000.0,130624,000.0,W*79
$GPGGA,045422.393,2607.341,N,08522.677,E,1,12,1.0,0.0,M,0.0,M,,*6C
$GPGSA,A,3,01,02,03,04,05,06,07,08,09,10,11,12,1.0,1.0,1.0*30
$GPRMC,045422.393,A,2607.341,N,08522.677,E,000.0,000.0,130624,000.0,W*7A
$GPGGA,045423.393,2607.341,N,08522.677,E,1,12,1.0,0.0,M,0.0,M,,*6D
$GPGSA,A,3,01,02,03,04,05,06,07,08,09,10,11,12,1.0,1.0,1.0*30
$GPRMC,045423.393,A,2607.341,N,08522.677,E,000.0,000.0,130624,000.0,W*7B
$GPGGA,045424.393,2607.341,N,08522.677,E,1,12,1.0,0.0,M,0.0,M,,*6A
$GPGSA,A,3,01,02,03,04,05,06,07,08,09,10,11,12,1.0,1.0,1.0*30
$GPRMC,045424.393,A,2607.341,N,08522.677,E,000.0,000.0,130624,000.0,W*7C
$GPGGA,045425.393,2607.341,N,08522.677,E,1,12,1.0,0.0,M,0.0,M,,*6B
$GPGSA,A,3,01,02,03,04,05,06,07,08,09,10,11,12,1.0,1.0,1.0*30
$GPRMC,045425.393,A,2607.341,N,08522.677,E,000.0,000.0,130624,000.0,W*7D
$GPGGA,045426.393,2607.341,N,08522.677,E,1,12,1.0,0.0,M,0.0,M,,*68
$GPGSA,A,3,01,02,03,04,05,06,07,08,09,10,11,12,1.0,1.0,1.0*30
$GPRMC,045426.393,A,2607.341,N,08522.677,E,000.0,000.0,130624,000.0,W*7E
$GPGGA,045427.393,2607.341,N,08522.677,E,1,12,1.0,0.0,M,0.0,M,,*69
$GPGSA,A,3,01,02,03,04,05,06,07,08,09,10,11,12,1.0,1.0,1.0*30
$GPRMC,045427.393,A,2607.341,N,08522.677,E,000.0,000.0,130624,000.0,W*7F
$GPGGA,045428.393,2607.341,N,08522.677,E,1,12,1.0,0.0,M,0.0,M,,*66
$GPGSA,A,3,01,02,03,04,05,06,07,08,09,10,11,12,1.0,1.0,1.0*30
$GPRMC,045428.393,A,2607.341,N,08522.677,E,000.0,000.0,130624,000.0,W*70
$GPGGA,045429.393,2607.341,N,08522.677,E,1,12,1.0,0.0,M,0.0,M,,*67
$GPGSA,A,3,01,02,03,04,05,06,07,08,09,10,11,12,1.0,1.0,1.0*30
$GPRMC,045429.393,A,2607.341,N,08522.677,E,000.0,000.0,130624,000.0,W*71
$GPGGA,045430.393,2607.341,N,08522.677,E,1,12,1.0,0.0,M,0.0,M,,*6F
$GPGSA,A,3,01,02,03,04,05,06,07,08,09,10,11,12,1.0,1.0,1.0*30
$GPRMC,045430.393,A,2607.341,N,08522.677,E,000.0,000.0,130624,000.0,W*79
$GPGGA,045431.393,2607.341,N,08522.677,E,1,12,1.0,0.0,M,0.0,M,,*6E
$GPGSA,A,3,01,02,03,04,05,06,07,08,09,10,11,12,1.0,1.0,1.0*30
$GPRMC,045431.393,A,2607.341,N,08522.677,E,000.0,000.0,130624,000.0,W*78
$GPGGA,045432.393,2607.341,N,08522.677,E,1,12,1.0,0.0,M,0.0,M,,*6D
$GPGSA,A,3,01,02,03,04,05,06,07,08,09,10,11,12,1.0,1.0,1.0*30
$GPRMC,045432.393,A,2607.341,N,08522.677,E,000.0,000.0,130624,000.0,W*7B
$GPGGA,045433.393,2607.341,N,08522.677,E,1,12,1.0,0.0,M,0.0,M,,*6C
$GPGSA,A,3,01,02,03,04,05,06,07,08,09,10,11,12,1.0,1.0,1.0*30
$GPRMC,045433.393,A,2607.341,N,08522.677,E,000.0,000.0,130624,000.0,W*7A
$GPGGA,045434.393,2607.341,N,08522.677,E,1,12,1.0,0.0,M,0.0,M,,*6B
$GPGSA,A,3,01,02,03,04,05,06,07,08,09,10,11,12,1.0,1.0,1.0*30
$GPRMC,045434.393,A,2607.341,N,08522.677,E,000.0,000.0,130624,000.0,W*7D
$GPGGA,045435.393,2607.341,N,08522.677,E,1,12,1.0,0.0,M,0.0,M,,*6A
$GPGSA,A,3,01,02,03,04,05,06,07,08,09,10,11,12,1.0,1.0,1.0*30
$GPRMC,045435.393,A,2607.341,N,08522.677,E,000.0,000.0,130624,000.0,W*7C
$GPGGA,045436.393,2607.341,N,08522.677,E,1,12,1.0,0.0,M,0.0,M,,*69
$GPGSA,A,3,01,02,03,04,05,06,07,08,09,10,11,12,1.0,1.0,1.0*30
$GPRMC,045436.393,A,2607.341,N,08522.677,E,000.0,000.0,130624,000.0,W*7F
$GPGGA,045437.393,2607.341,N,08522.677,E,1,12,1.0,0.0,M,0.0,M,,*68
$GPGSA,A,3,01,02,03,04,05,06,07,08,09,10,11,12,1.0,1.0,1.0*30
$GPRMC,045437.393,A,2607.341,N,08522.677,E,000.0,000.0,130624,000.0,W*7E
$GPGGA,045438.393,2607.341,N,08522.677,E,1,12,1.0,0.0,M,0.0,M,,*67
$GPGSA,A,3,01,02,03,04,05,06,07,08,09,10,11,12,1.0,1.0,1.0*30
$GPRMC,045438.393,A,2607.341,N,08522.677,E,000.0,000.0,130624,000.0,W*71
$GPGGA,045439.393,2607.341,N,08522.677,E,1,12,1.0,0.0,M,0.0,M,,*66
$GPGSA,A,3,01,02,03,04,05,06,07,08,09,10,11,12,1.0,1.0,1.0*30
$GPRMC,045439.393,A,2607.341,N,08522.677,E,000.0,000.0,130624,000.0,W*70
$GPGGA,045440.393,2607.341,N,08522.677,E,1,12,1.0,0.0,M,0.0,M,,*68
$GPGSA,A,3,01,02,03,04,05,06,07,08,09,10,11,12,1.0,1.0,1.0*30
$GPRMC,045440.393,A,2607.341,N,08522.677,E,000.0,000.0,130624,000.0,W*7E
$GPGGA,045441.393,2607.341,N,08522.677,E,1,12,1.0,0.0,M,0.0,M,,*69
$GPGSA,A,3,01,02,03,04,05,06,07,08,09,10,11,12,1.0,1.0,1.0*30
$GPRMC,045441.393,A,2607.341,N,08522.677,E,000.0,000.0,130624,000.0,W*7F
$GPGGA,045442.393,2607.341,N,08522.677,E,1,12,1.0,0.0,M,0.0,M,,*6A
$GPGSA,A,3,01,02,03,04,05,06,07,08,09,10,11,12,1.0,1.0,1.0*30
$GPRMC,045442.393,A,2607.341,N,08522.677,E,000.0,000.0,130624,000.0,W*7C
$GPGGA,045443.393,2607.341,N,08522.677,E,1,12,1.0,0.0,M,0.0,M,,*6B
$GPGSA,A,3,01,02,03,04,05,06,07,08,09,10,11,12,1.0,1.0,1.0*30
$GPRMC,045443.393,A,2607.341,N,08522.677,E,000.0,000.0,130624,000.0,W*7D
$GPGGA,045444.393,2607.341,N,08522.677,E,1,12,1.0,0.0,M,0.0,M,,*6C
$GPGSA,A,3,01,02,03,04,05,06,07,08,09,10,11,12,1.0,1.0,1.0*30
$GPRMC,045444.393,A,2607.341,N,08522.677,E,000.0,000.0,130624,000.0,W*7A
$GPGGA,045445.393,2607.341,N,08522.677,E,1,12,1.0,0.0,M,0.0,M,,*6D
$GPGSA,A,3,01,02,03,04,05,06,07,08,09,10,11,12,1.0,1.0,1.0*30
$GPRMC,045445.393,A,2607.341,N,08522.677,E,000.0,000.0,130624,000.0,W*7B
$GPGGA,045446.393,2607.341,N,08522.677,E,1,12,1.0,0.0,M,0.0,M,,*6E
$GPGSA,A,3,01,02,03,04,05,06,07,08,09,10,11,12,1.0,1.0,1.0*30
$GPRMC,045446.393,A,2607.341,N,08522.677,E,000.0,000.0,130624,000.0,W*78
$GPGGA,045447.393,2607.341,N,08522.677,E,1,12,1.0,0.0,M,0.0,M,,*6F
$GPGSA,A,3,01,02,03,04,05,06,07,08,09,10,11,12,1.0,1.0,1.0*30
$GPRMC,045447.393,A,2607.341,N,08522.677,E,194.4,298.3,130624,000.0,W*71
$GPGGA,045448.393,2607.369,N,08522.625,E,1,12,1.0,0.0,M,0.0,M,,*6D
$GPGSA,A,3,01,02,03,04,05,06,07,08,09,10,11,12,1.0,1.0,1.0*30
$GPRMC,045448.393,A,2607.369,N,08522.625,E,194.4,298.3,130624,000.0,W*73
$GPGGA,045449.393,2607.397,N,08522.574,E,1,12,1.0,0.0,M,0.0,M,,*6A
$GPGSA,A,3,01,02,03,04,05,06,07,08,09,10,11,12,1.0,1.0,1.0*30
$GPRMC,045449.393,A,2607.397,N,08522.574,E,194.4,298.3,130624,000.0,W*74
$GPGGA,045450.393,2607.425,N,08522.522,E,1,12,1.0,0.0,M,0.0,M,,*6F
$GPGSA,A,3,01,02,03,04,05,06,07,08,09,10,11,12,1.0,1.0,1.0*30
$GPRMC,045450.393,A,2607.425,N,08522.522,E,194.4,298.3,130624,000.0,W*71
$GPGGA,045451.393,2607.452,N,08522.471,E,1,12,1.0,0.0,M,0.0,M,,*69
$GPGSA,A,3,01,02,03,04,05,06,07,08,09,10,11,12,1.0,1.0,1.0*30
$GPRMC,045451.393,A,2607.452,N,08522.471,E,194.4,298.3,130624,000.0,W*77
$GPGGA,045452.393,2607.480,N,08522.419,E,1,12,1.0,0.0,M,0.0,M,,*6B
$GPGSA,A,3,01,02,03,04,05,06,07,08,09,10,11,12,1.0,1.0,1.0*30
$GPRMC,045452.393,A,2607.480,N,08522.419,E,194.4,298.7,130624,000.0,W*71
$GPGGA,045453.393,2607.508,N,08522.368,E,1,12,1.0,0.0,M,0.0,M,,*6A
$GPGSA,A,3,01,02,03,04,05,06,07,08,09,10,11,12,1.0,1.0,1.0*30
$GPRMC,045453.393,A,2607.508,N,08522.368,E,194.4,298.7,130624,000.0,W*70
$GPGGA,045454.393,2607.536,N,08522.317,E,1,12,1.0,0.0,M,0.0,M,,*68
$GPGSA,A,3,01,02,03,04,05,06,07,08,09,10,11,12,1.0,1.0,1.0*30
$GPRMC,045454.393,A,2607.536,N,08522.317,E,194.4,298.7,130624,000.0,W*72
$GPGGA,045455.393,2607.564,N,08522.265,E,1,12,1.0,0.0,M,0.0,M,,*6A
$GPGSA,A,3,01,02,03,04,05,06,07,08,09,10,11,12,1.0,1.0,1.0*30
$GPRMC,045455.393,A,2607.564,N,08522.265,E,194.4,298.7,130624,000.0,W*70
$GPGGA,045456.393,2607.592,N,08522.214,E,1,12,1.0,0.0,M,0.0,M,,*66
$GPGSA,A,3,01,02,03,04,05,06,07,08,09,10,11,12,1.0,1.0,1.0*30
$GPRMC,045456.393,A,2607.592,N,08522.214,E,194.4,298.7,130624,000.0,W*7C
$GPGGA,045457.393,2607.621,N,08522.163,E,1,12,1.0,0.0,M,0.0,M,,*6F
$GPGSA,A,3,01,02,03,04,05,06,07,08,09,10,11,12,1.0,1.0,1.0*30
$GPRMC,045457.393,A,2607.621,N,08522.163,E,194.4,298.7,130624,000.0,W*75
$GPGGA,045458.393,2607.649,N,08522.111,E,1,12,1.0,0.0,M,0.0,M,,*6B
$GPGSA,A,3,01,02,03,04,05,06,07,08,09,10,11,12,1.0,1.0,1.0*30
$GPRMC,045458.393,A,2607.649,N,08522.111,E,194.4,298.7,130624,000.0,W*71
$GPGGA,045459.393,2607.677,N,08522.060,E,1,12,1.0,0.0,M,0.0,M,,*60
$GPGSA,A,3,01,02,03,04,05,06,07,08,09,10,11,12,1.0,1.0,1.0*30
$GPRMC,045459.393,A,2607.677,N,08522.060,E,194.4,298.7,130624,000.0,W*7A
$GPGGA,045500.393,2607.705,N,08522.009,E,1,12,1.0,0.0,M,0.0,M,,*66
$GPGSA,A,3,01,02,03,04,05,06,07,08,09,10,11,12,1.0,1.0,1.0*30
$GPRMC,045500.393,A,2607.705,N,08522.009,E,194.4,298.7,130624,000.0,W*7C
$GPGGA,045501.393,2607.733,N,08521.957,E,1,12,1.0,0.0,M,0.0,M,,*63
$GPGSA,A,3,01,02,03,04,05,06,07,08,09,10,11,12,1.0,1.0,1.0*30
$GPRMC,045501.393,A,2607.733,N,08521.957,E,194.4,304.9,130624,000.0,W*73
$GPGGA,045502.393,2607.766,N,08521.910,E,1,12,1.0,0.0,M,0.0,M,,*63
$GPGSA,A,3,01,02,03,04,05,06,07,08,09,10,11,12,1.0,1.0,1.0*30
$GPRMC,045502.393,A,2607.766,N,08521.910,E,194.4,304.4,130624,000.0,W*7E
$GPGGA,045503.393,2607.799,N,08521.862,E,1,12,1.0,0.0,M,0.0,M,,*66
$GPGSA,A,3,01,02,03,04,05,06,07,08,09,10,11,12,1.0,1.0,1.0*30
$GPRMC,045503.393,A,2607.799,N,08521.862,E,194.4,304.4,130624,000.0,W*7B
$GPGGA,045504.393,2607.831,N,08521.814,E,1,12,1.0,0.0,M,0.0,M,,*6D
$GPGSA,A,3,01,02,03,04,05,06,07,08,09,10,11,12,1.0,1.0,1.0*30
$GPRMC,045504.393,A,2607.831,N,08521.814,E,194.4,304.4,130624,000.0,W*70
$GPGGA,045505.393,2607.864,N,08521.767,E,1,12,1.0,0.0,M,0.0,M,,*67
$GPGSA,A,3,01,02,03,04,05,06,07,08,09,10,11,12,1.0,1.0,1.0*30
$GPRMC,045505.393,A,2607.864,N,08521.767,E,194.4,304.4,130624,000.0,W*7A
$GPGGA,045506.393,2607.897,N,08521.719,E,1,12,1.0,0.0,M,0.0,M,,*61
$GPGSA,A,3,01,02,03,04,05,06,07,08,09,10,11,12,1.0,1.0,1.0*30
$GPRMC,045506.393,A,2607.897,N,08521.719,E,194.4,306.6,130624,000.0,W*7C
$GPGGA,045507.393,2607.931,N,08521.672,E,1,12,1.0,0.0,M,0.0,M,,*61
$GPGSA,A,3,01,02,03,04,05,06,07,08,09,10,11,12,1.0,1.0,1.0*30
$GPRMC,045507.393,A,2607.931,N,08521.672,E,194.4,306.6,130624,000.0,W*7C
$GPGGA,045508.393,2607.966,N,08521.626,E,1,12,1.0,0.0,M,0.0,M,,*6D
$GPGSA,A,3,01,02,03,04,05,06,07,08,09,10,11,12,1.0,1.0,1.0*30
$GPRMC,045508.393,A,2607.966,N,08521.626,E,194.4,306.6,130624,000.0,W*70
$GPGGA,045509.393,2608.000,N,08521.580,E,1,12,1.0,0.0,M,0.0,M,,*65
$GPGSA,A,3,01,02,03,04,05,06,07,08,09,10,11,12,1.0,1.0,1.0*30
$GPRMC,045509.393,A,2608.000,N,08521.580,E,194.4,306.6,130624,000.0,W*78
$GPGGA,045510.393,2608.034,N,08521.533,E,1,12,1.0,0.0,M,0.0,M,,*62
$GPGSA,A,3,01,02,03,04,05,06,07,08,09,10,11,12,1.0,1.0,1.0*30
$GPRMC,045510.393,A,2608.034,N,08521.533,E,194.4,310.4,130624,000.0,W*7A
$GPGGA,045511.393,2608.071,N,08521.490,E,1,12,1.0,0.0,M,0.0,M,,*6A
$GPGSA,A,3,01,02,03,04,05,06,07,08,09,10,11,12,1.0,1.0,1.0*30
$GPRMC,045511.393,A,2608.071,N,08521.490,E,194.4,310.4,130624,000.0,W*72
$GPGGA,045512.393,2608.109,N,08521.446,E,1,12,1.0,0.0,M,0.0,M,,*6C
$GPGSA,A,3,01,02,03,04,05,06,07,08,09,10,11,12,1.0,1.0,1.0*30
$GPRMC,045512.393,A,2608.109,N,08521.446,E,194.4,310.4,130624,000.0,W*74
$GPGGA,045513.393,2608.146,N,08521.403,E,1,12,1.0,0.0,M,0.0,M,,*67
$GPGSA,A,3,01,02,03,04,05,06,07,08,09,10,11,12,1.0,1.0,1.0*30
$GPRMC,045513.393,A,2608.146,N,08521.403,E,194.4,310.4,130624,000.0,W*7F
$GPGGA,045514.393,2608.183,N,08521.359,E,1,12,1.0,0.0,M,0.0,M,,*61
$GPGSA,A,3,01,02,03,04,05,06,07,08,09,10,11,12,1.0,1.0,1.0*30
$GPRMC,045514.393,A,2608.183,N,08521.359,E,194.4,310.4,130624,000.0,W*79
$GPGGA,045515.393,2608.220,N,08521.315,E,1,12,1.0,0.0,M,0.0,M,,*62
$GPGSA,A,3,01,02,03,04,05,06,07,08,09,10,11,12,1.0,1.0,1.0*30
$GPRMC,045515.393,A,2608.220,N,08521.315,E,194.4,310.4,130624,000.0,W*7A
$GPGGA,045516.393,2608.257,N,08521.272,E,1,12,1.0,0.0,M,0.0,M,,*61
$GPGSA,A,3,01,02,03,04,05,06,07,08,09,10,11,12,1.0,1.0,1.0*30
$GPRMC,045516.393,A,2608.257,N,08521.272,E,194.4,313.0,130624,000.0,W*7E
$GPGGA,045517.393,2608.296,N,08521.230,E,1,12,1.0,0.0,M,0.0,M,,*6B
$GPGSA,A,3,01,02,03,04,05,06,07,08,09,10,11,12,1.0,1.0,1.0*30
$GPRMC,045517.393,A,2608.296,N,08521.230,E,194.4,313.0,130624,000.0,W*74
$GPGGA,045518.393,2608.335,N,08521.188,E,1,12,1.0,0.0,M,0.0,M,,*6C
$GPGSA,A,3,01,02,03,04,05,06,07,08,09,10,11,12,1.0,1.0,1.0*30
$GPRMC,045518.393,A,2608.335,N,08521.188,E,194.4,313.0,130624,000.0,W*73
$GPGGA,045519.393,2608.374,N,08521.146,E,1,12,1.0,0.0,M,0.0,M,,*6A
$GPGSA,A,3,01,02,03,04,05,06,07,08,09,10,11,12,1.0,1.0,1.0*30
$GPRMC,045519.393,A,2608.374,N,08521.146,E,194.4,313.0,130624,000.0,W*75
$GPGGA,045520.393,2608.412,N,08521.105,E,1,12,1.0,0.0,M,0.0,M,,*60
$GPGSA,A,3,01,02,03,04,05,06,07,08,09,10,11,12,1.0,1.0,1.0*30
$GPRMC,045520.393,A,2608.412,N,08521.105,E,194.4,313.0,130624,000.0,W*7F
$GPGGA,045521.393,2608.451,N,08521.063,E,1,12,1.0,0.0,M,0.0,M,,*67
$GPGSA,A,3,01,02,03,04,05,06,07,08,09,10,11,12,1.0,1.0,1.0*30
$GPRMC,045521.393,A,2608.451,N,08521.063,E,194.4,313.0,130624,000.0,W*78
$GPGGA,045522.393,2608.490,N,08521.021,E,1,12,1.0,0.0,M,0.0,M,,*6F
$GPGSA,A,3,01,02,03,04,05,06,07,08,09,10,11,12,1.0,1.0,1.0*30
$GPRMC,045522.393,A,2608.490,N,08521.021,E,194.4,313.0,130624,000.0,W*70
$GPGGA,045523.393,2608.529,N,08520.980,E,1,12,1.0,0.0,M,0.0,M,,*6E
$GPGSA,A,3,01,02,03,04,05,06,07,08,09,10,11,12,1.0,1.0,1.0*30
$GPRMC,045523.393,A,2608.529,N,08520.980,E,194.4,313.0,130624,000.0,W*71
$GPGGA,045524.393,2608.568,N,08520.938,E,1,12,1.0,0.0,M,0.0,M,,*6F
$GPGSA,A,3,01,02,03,04,05,06,07,08,09,10,11,12,1.0,1.0,1.0*30
$GPRMC,045524.393,A,2608.568,N,08520.938,E,194.4,313.0,130624,000.0,W*70
$GPGGA,045525.393,2608.607,N,08520.896,E,1,12,1.0,0.0,M,0.0,M,,*61
$GPGSA,A,3,01,02,03,04,05,06,07,08,09,10,11,12,1.0,1.0,1.0*30
$GPRMC,045525.393,A,2608.607,N,08520.896,E,194.4,313.0,130624,000.0,W*7E
$GPGGA,045526.393,2608.645,N,08520.854,E,1,12,1.0,0.0,M,0.0,M,,*6A
$GPGSA,A,3,01,02,03,04,05,06,07,08,09,10,11,12,1.0,1.0,1.0*30
$GPRMC,045526.393,A,2608.645,N,08520.854,E,194.4,313.0,130624,000.0,W*75
$GPGGA,045527.393,2608.684,N,08520.813,E,1,12,1.0,0.0,M,0.0,M,,*65
$GPGSA,A,3,01,02,03,04,05,06,07,08,09,10,11,12,1.0,1.0,1.0*30
$GPRMC,045527.393,A,2608.684,N,08520.813,E,194.4,313.0,130624,000.0,W*7A
$GPGGA,045528.393,2608.723,N,08520.771,E,1,12,1.0,0.0,M,0.0,M,,*6D
$GPGSA,A,3,01,02,03,04,05,06,07,08,09,10,11,12,1.0,1.0,1.0*30
$GPRMC,045528.393,A,2608.723,N,08520.771,E,194.4,313.0,130624,000.0,W*72
$GPGGA,045529.393,2608.762,N,08520.729,E,1,12,1.0,0.0,M,0.0,M,,*64
$GPGSA,A,3,01,02,03,04,05,06,07,08,09,10,11,12,1.0,1.0,1.0*30
$GPRMC,045529.393,A,2608.762,N,08520.729,E,194.4,313.0,130624,000.0,W*7B
$GPGGA,045530.393,2608.801,N,08520.688,E,1,12,1.0,0.0,M,0.0,M,,*6C
$GPGSA,A,3,01,02,03,04,05,06,07,08,09,10,11,12,1.0,1.0,1.0*30
$GPRMC,045530.393,A,2608.801,N,08520.688,E,194.4,313.0,130624,000.0,W*73
$GPGGA,045531.393,2608.840,N,08520.646,E,1,12,1.0,0.0,M,0.0,M,,*6A
$GPGSA,A,3,01,02,03,04,05,06,07,08,09,10,11,12,1.0,1.0,1.0*30
$GPRMC,045531.393,A,2608.840,N,08520.646,E,194.4,313.0,130624,000.0,W*75
$GPGGA,045532.393,2608.879,N,08520.604,E,1,12,1.0,0.0,M,0.0,M,,*65
$GPGSA,A,3,01,02,03,04,05,06,07,08,09,10,11,12,1.0,1.0,1.0*30
$GPRMC,045532.393,A,2608.879,N,08520.604,E,194.4,313.0,130624,000.0,W*7A
$GPGGA,045533.393,2608.918,N,08520.563,E,1,12,1.0,0.0,M,0.0,M,,*60
$GPGSA,A,3,01,02,03,04,05,06,07,08,09,10,11,12,1.0,1.0,1.0*30
$GPRMC,045533.393,A,2608.918,N,08520.563,E,194.4,313.0,130624,000.0,W*7F
$GPGGA,045534.393,2608.956,N,08520.521,E,1,12,1.0,0.0,M,0.0,M,,*6B
$GPGSA,A,3,01,02,03,04,05,06,07,08,09,10,11,12,1.0,1.0,1.0*30
$GPRMC,045534.393,A,2608.956,N,08520.521,E,194.4,313.0,130624,000.0,W*74
$GPGGA,045535.393,2608.995,N,08520.479,E,1,12,1.0,0.0,M,0.0,M,,*69
$GPGSA,A,3,01,02,03,04,05,06,07,08,09,10,11,12,1.0,1.0,1.0*30
$GPRMC,045535.393,A,2608.995,N,08520.479,E,194.4,313.0,130624,000.0,W*76
$GPGGA,045536.393,2609.034,N,08520.437,E,1,12,1.0,0.0,M,0.0,M,,*63
$GPGSA,A,3,01,02,03,04,05,06,07,08,09,10,11,12,1.0,1.0,1.0*30
$GPRMC,045536.393,A,2609.034,N,08520.437,E,194.4,313.0,130624,000.0,W*7C
$GPGGA,045537.393,2609.073,N,08520.396,E,1,12,1.0,0.0,M,0.0,M,,*6D
$GPGSA,A,3,01,02,03,04,05,06,07,08,09,10,11,12,1.0,1.0,1.0*30
$GPRMC,045537.393,A,2609.073,N,08520.396,E,194.4,313.0,130624,000.0,W*72
$GPGGA,045538.393,2609.112,N,08520.354,E,1,12,1.0,0.0,M,0.0,M,,*6A
$GPGSA,A,3,01,02,03,04,05,06,07,08,09,10,11,12,1.0,1.0,1.0*30
$GPRMC,045538.393,A,2609.112,N,08520.354,E,194.4,313.0,130624,000.0,W*75
$GPGGA,045539.393,2609.151,N,08520.312,E,1,12,1.0,0.0,M,0.0,M,,*6E
$GPGSA,A,3,01,02,03,04,05,06,07,08,09,10,11,12,1.0,1.0,1.0*30
$GPRMC,045539.393,A,2609.151,N,08520.312,E,194.4,313.0,130624,000.0,W*71
$GPGGA,045540.393,2609.190,N,08520.271,E,1,12,1.0,0.0,M,0.0,M,,*69
$GPGSA,A,3,01,02,03,04,05,06,07,08,09,10,11,12,1.0,1.0,1.0*30
$GPRMC,045540.393,A,2609.190,N,08520.271,E,194.4,313.0,130624,000.0,W*76
$GPGGA,045541.393,2609.228,N,08520.229,E,1,12,1.0,0.0,M,0.0,M,,*65
$GPGSA,A,3,01,02,03,04,05,06,07,08,09,10,11,12,1.0,1.0,1.0*30
$GPRMC,045541.393,A,2609.228,N,08520.229,E,194.4,313.0,130624,000.0,W*7A
$GPGGA,045542.393,2609.267,N,08520.187,E,1,12,1.0,0.0,M,0.0,M,,*6A
$GPGSA,A,3,01,02,03,04,05,06,07,08,09,10,11,12,1.0,1.0,1.0*30
$GPRMC,045542.393,A,2609.267,N,08520.187,E,194.4,313.0,130624,000.0,W*75
$GPGGA,045543.393,2609.306,N,08520.146,E,1,12,1.0,0.0,M,0.0,M,,*60
$GPGSA,A,3,01,02,03,04,05,06,07,08,09,10,11,12,1.0,1.0,1.0*30
$GPRMC,045543.393,A,2609.306,N,08520.146,E,194.4,312.9,130624,000.0,W*77
$GPGGA,045544.393,2609.345,N,08520.104,E,1,12,1.0,0.0,M,0.0,M,,*66
$GPGSA,A,3,01,02,03,04,05,06,07,08,09,10,11,12,1.0,1.0,1.0*30
$GPRMC,045544.393,A,2609.345,N,08520.104,E,194.4,312.9,130624,000.0,W*71
$GPGGA,045545.393,2609.384,N,08520.062,E,1,12,1.0,0.0,M,0.0,M,,*6B
$GPGSA,A,3,01,02,03,04,05,06,07,08,09,10,11,12,1.0,1.0,1.0*30
$GPRMC,045545.393,A,2609.384,N,08520.062,E,194.4,312.9,130624,000.0,W*7C
$GPGGA,045546.393,2609.423,N,08520.020,E,1,12,1.0,0.0,M,0.0,M,,*64
$GPGSA,A,3,01,02,03,04,05,06,07,08,09,10,11,12,1.0,1.0,1.0*30
$GPRMC,045546.393,A,2609.423,N,08520.020,E,194.4,312.9,130624,000.0,W*73
$GPGGA,045547.393,2609.461,N,08519.978,E,1,12,1.0,0.0,M,0.0,M,,*6D
$GPGSA,A,3,01,02,03,04,05,06,07,08,09,10,11,12,1.0,1.0,1.0*30
$GPRMC,045547.393,A,2609.461,N,08519.978,E,194.4,312.9,130624,000.0,W*7A
$GPGGA,045548.393,2609.500,N,08519.937,E,1,12,1.0,0.0,M,0.0,M,,*6F
$GPGSA,A,3,01,02,03,04,05,06,07,08,09,10,11,12,1.0,1.0,1.0*30
$GPRMC,045548.393,A,2609.500,N,08519.937,E,194.4,312.9,130624,000.0,W*78
$GPGGA,045549.393,2609.539,N,08519.895,E,1,12,1.0,0.0,M,0.0,M,,*6D
$GPGSA,A,3,01,02,03,04,05,06,07,08,09,10,11,12,1.0,1.0,1.0*30
$GPRMC,045549.393,A,2609.539,N,08519.895,E,194.4,312.9,130624,000.0,W*7A
$GPGGA,045550.393,2609.578,N,08519.853,E,1,12,1.0,0.0,M,0.0,M,,*6A
$GPGSA,A,3,01,02,03,04,05,06,07,08,09,10,11,12,1.0,1.0,1.0*30
$GPRMC,045550.393,A,2609.578,N,08519.853,E,194.4,312.9,130624,000.0,W*7D
$GPGGA,045551.393,2609.617,N,08519.811,E,1,12,1.0,0.0,M,0.0,M,,*67
$GPGSA,A,3,01,02,03,04,05,06,07,08,09,10,11,12,1.0,1.0,1.0*30
$GPRMC,045551.393,A,2609.617,N,08519.811,E,194.4,312.9,130624,000.0,W*70
$GPGGA,045552.393,2609.655,N,08519.770,E,1,12,1.0,0.0,M,0.0,M,,*6A
$GPGSA,A,3,01,02,03,04,05,06,07,08,09,10,11,12,1.0,1.0,1.0*30
$GPRMC,045552.393,A,2609.655,N,08519.770,E,194.4,312.9,130624,000.0,W*7D
$GPGGA,045553.393,2609.694,N,08519.728,E,1,12,1.0,0.0,M,0.0,M,,*6B
$GPGSA,A,3,01,02,03,04,05,06,07,08,09,10,11,12,1.0,1.0,1.0*30
$GPRMC,045553.393,A,2609.694,N,08519.728,E,194.4,313.2,130624,000.0,W*76
$GPGGA,045554.393,2609.733,N,08519.686,E,1,12,1.0,0.0,M,0.0,M,,*65
$GPGSA,A,3,01,02,03,04,05,06,07,08,09,10,11,12,1.0,1.0,1.0*30
$GPRMC,045554.393,A,2609.733,N,08519.686,E,194.4,313.2,130624,000.0,W*78
$GPGGA,045555.393,2609.772,N,08519.645,E,1,12,1.0,0.0,M,0.0,M,,*6E
$GPGSA,A,3,01,02,03,04,05,06,07,08,09,10,11,12,1.0,1.0,1.0*30
$GPRMC,045555.393,A,2609.772,N,08519.645,E,194.4,313.2,130624,000.0,W*73
$GPGGA,045556.393,2609.811,N,08519.603,E,1,12,1.0,0.0,M,0.0,M,,*65
$GPGSA,A,3,01,02,03,04,05,06,07,08,09,10,11,12,1.0,1.0,1.0*30
$GPRMC,045556.393,A,2609.811,N,08519.603,E,194.4,313.2,130624,000.0,W*78
$GPGGA,045557.393,2609.850,N,08519.561,E,1,12,1.0,0.0,M,0.0,M,,*66
$GPGSA,A,3,01,02,03,04,05,06,07,08,09,10,11,12,1.0,1.0,1.0*30
$GPRMC,045557.393,A,2609.850,N,08519.561,E,194.4,313.2,130624,000.0,W*7B
$GPGGA,045558.393,2609.889,N,08519.520,E,1,12,1.0,0.0,M,0.0,M,,*68
$GPGSA,A,3,01,02,03,04,05,06,07,08,09,10,11,12,1.0,1.0,1.0*30
$GPRMC,045558.393,A,2609.889,N,08519.520,E,194.4,313.2,130624,000.0,W*75
$GPGGA,045559.393,2609.928,N,08519.478,E,1,12,1.0,0.0,M,0.0,M,,*6F
$GPGSA,A,3,01,02,03,04,05,06,07,08,09,10,11,12,1.0,1.0,1.0*30
$GPRMC,045559.393,A,2609.928,N,08519.478,E,194.4,313.2,130624,000.0,W*72
$GPGGA,045600.393,2609.967,N,08519.437,E,1,12,1.0,0.0,M,0.0,M,,*60
$GPGSA,A,3,01,02,03,04,05,06,07,08,09,10,11,12,1.0,1.0,1.0*30
$GPRMC,045600.393,A,2609.967,N,08519.437,E,194.4,313.2,130624,000.0,W*7D
$GPGGA,045601.393,2610.006,N,08519.395,E,1,12,1.0,0.0,M,0.0,M,,*68
$GPGSA,A,3,01,02,03,04,05,06,07,08,09,10,11,12,1.0,1.0,1.0*30
$GPRMC,045601.393,A,2610.006,N,08519.395,E,194.4,313.3,130624,000.0,W*74
$GPGGA,045602.393,2610.045,N,08519.354,E,1,12,1.0,0.0,M,0.0,M,,*61
$GPGSA,A,3,01,02,03,04,05,06,07,08,09,10,11,12,1.0,1.0,1.0*30
$GPRMC,045602.393,A,2610.045,N,08519.354,E,194.4,313.3,130624,000.0,W*7D
$GPGGA,045603.393,2610.084,N,08519.312,E,1,12,1.0,0.0,M,0.0,M,,*6F
$GPGSA,A,3,01,02,03,04,05,06,07,08,09,10,11,12,1.0,1.0,1.0*30
$GPRMC,045603.393,A,2610.084,N,08519.312,E,194.4,313.3,130624,000.0,W*73
$GPGGA,045604.393,2610.123,N,08519.271,E,1,12,1.0,0.0,M,0.0,M,,*60
$GPGSA,A,3,01,02,03,04,05,06,07,08,09,10,11,12,1.0,1.0,1.0*30
$GPRMC,045604.393,A,2610.123,N,08519.271,E,194.4,313.3,130624,000.0,W*7C
$GPGGA,045605.393,2610.162,N,08519.229,E,1,12,1.0,0.0,M,0.0,M,,*69
$GPGSA,A,3,01,02,03,04,05,06,07,08,09,10,11,12,1.0,1.0,1.0*30
$GPRMC,045605.393,A,2610.162,N,08519.229,E,194.4,313.3,130624,000.0,W*75
$GPGGA,045606.393,2610.201,N,08519.188,E,1,12,1.0,0.0,M,0.0,M,,*64
$GPGSA,A,3,01,02,03,04,05,06,07,08,09,10,11,12,1.0,1.0,1.0*30
$GPRMC,045606.393,A,2610.201,N,08519.188,E,194.4,313.3,130624,000.0,W*78
$GPGGA,045607.393,2610.240,N,08519.146,E,1,12,1.0,0.0,M,0.0,M,,*62
$GPGSA,A,3,01,02,03,04,05,06,07,08,09,10,11,12,1.0,1.0,1.0*30
$GPRMC,045607.393,A,2610.240,N,08519.146,E,194.4,313.3,130624,000.0,W*7E
$GPGGA,045608.393,2610.279,N,08519.105,E,1,12,1.0,0.0,M,0.0,M,,*60
$GPGSA,A,3,01,02,03,04,05,06,07,08,09,10,11,12,1.0,1.0,1.0*30
$GPRMC,045608.393,A,2610.279,N,08519.105,E,194.4,313.3,130624,000.0,W*7C
$GPGGA,045609.393,2610.318,N,08519.063,E,1,12,1.0,0.0,M,0.0,M,,*66
$GPGSA,A,3,01,02,03,04,05,06,07,08,09,10,11,12,1.0,1.0,1.0*30
$GPRMC,045609.393,A,2610.318,N,08519.063,E,194.4,313.3,130624,000.0,W*7A
$GPGGA,045610.393,2610.358,N,08519.022,E,1,12,1.0,0.0,M,0.0,M,,*6F
$GPGSA,A,3,01,02,03,04,05,06,07,08,09,10,11,12,1.0,1.0,1.0*30
$GPRMC,045610.393,A,2610.358,N,08519.022,E,194.4,313.3,130624,000.0,W*73
$GPGGA,045611.393,2610.397,N,08518.980,E,1,12,1.0,0.0,M,0.0,M,,*6D
$GPGSA,A,3,01,02,03,04,05,06,07,08,09,10,11,12,1.0,1.0,1.0*30
$GPRMC,045611.393,A,2610.397,N,08518.980,E,194.4,311.7,130624,000.0,W*77
$GPGGA,045612.393,2610.435,N,08518.938,E,1,12,1.0,0.0,M,0.0,M,,*62
$GPGSA,A,3,01,02,03,04,05,06,07,08,09,10,11,12,1.0,1.0,1.0*30
$GPRMC,045612.393,A,2610.435,N,08518.938,E,194.4,311.7,130624,000.0,W*78
$GPGGA,045613.393,2610.473,N,08518.895,E,1,12,1.0,0.0,M,0.0,M,,*67
$GPGSA,A,3,01,02,03,04,05,06,07,08,09,10,11,12,1.0,1.0,1.0*30
$GPRMC,045613.393,A,2610.473,N,08518.895,E,194.4,311.7,130624,000.0,W*7D
$GPGGA,045614.393,2610.511,N,08518.852,E,1,12,1.0,0.0,M,0.0,M,,*6E
$GPGSA,A,3,01,02,03,04,05,06,07,08,09,10,11,12,1.0,1.0,1.0*30
$GPRMC,045614.393,A,2610.511,N,08518.852,E,194.4,311.7,130624,000.0,W*74
$GPGGA,045615.393,2610.549,N,08518.810,E,1,12,1.0,0.0,M,0.0,M,,*64
$GPGSA,A,3,01,02,03,04,05,06,07,08,09,10,11,12,1.0,1.0,1.0*30
$GPRMC,045615.393,A,2610.549,N,08518.810,E,194.4,311.7,130624,000.0,W*7E
$GPGGA,045616.393,2610.587,N,08518.767,E,1,12,1.0,0.0,M,0.0,M,,*6A
$GPGSA,A,3,01,02,03,04,05,06,07,08,09,10,11,12,1.0,1.0,1.0*30
$GPRMC,045616.393,A,2610.587,N,08518.767,E,194.4,314.2,130624,000.0,W*70
$GPGGA,045617.393,2610.626,N,08518.726,E,1,12,1.0,0.0,M,0.0,M,,*66
$GPGSA,A,3,01,02,03,04,05,06,07,08,09,10,11,12,1.0,1.0,1.0*30
$GPRMC,045617.393,A,2610.626,N,08518.726,E,194.4,314.2,130624,000.0,W*7C
$GPGGA,045618.393,2610.666,N,08518.685,E,1,12,1.0,0.0,M,0.0,M,,*65
$GPGSA,A,3,01,02,03,04,05,06,07,08,09,10,11,12,1.0,1.0,1.0*30
$GPRMC,045618.393,A,2610.666,N,08518.685,E,194.4,314.2,130624,000.0,W*7F
$GPGGA,045619.393,2610.706,N,08518.645,E,1,12,1.0,0.0,M,0.0,M,,*6F
$GPGSA,A,3,01,02,03,04,05,06,07,08,09,10,11,12,1.0,1.0,1.0*30
$GPRMC,045619.393,A,2610.706,N,08518.645,E,194.4,313.0,130624,000.0,W*70
$GPGGA,045620.393,2610.744,N,08518.603,E,1,12,1.0,0.0,M,0.0,M,,*61
$GPGSA,A,3,01,02,03,04,05,06,07,08,09,10,11,12,1.0,1.0,1.0*30
$GPRMC,045620.393,A,2610.744,N,08518.603,E,194.4,313.0,130624,000.0,W*7E
$GPGGA,045621.393,2610.783,N,08518.561,E,1,12,1.0,0.0,M,0.0,M,,*6C
$GPGSA,A,3,01,02,03,04,05,06,07,08,09,10,11,12,1.0,1.0,1.0*30
$GPRMC,045621.393,A,2610.783,N,08518.561,E,194.4,313.0,130624,000.0,W*73
$GPGGA,045622.393,2610.822,N,08518.520,E,1,12,1.0,0.0,M,0.0,M,,*6E
$GPGSA,A,3,01,02,03,04,05,06,07,08,09,10,11,12,1.0,1.0,1.0*30
$GPRMC,045622.393,A,2610.822,N,08518.520,E,194.4,313.0,130624,000.0,W*71
$GPGGA,045623.393,2610.861,N,08518.478,E,1,12,1.0,0.0,M,0.0,M,,*64
$GPGSA,A,3,01,02,03,04,05,06,07,08,09,10,11,12,1.0,1.0,1.0*30
$GPRMC,045623.393,A,2610.861,N,08518.478,E,194.4,312.7,130624,000.0,W*7D
$GPGGA,045624.393,2610.900,N,08518.436,E,1,12,1.0,0.0,M,0.0,M,,*6F
$GPGSA,A,3,01,02,03,04,05,06,07,08,09,10,11,12,1.0,1.0,1.0*30
$GPRMC,045624.393,A,2610.900,N,08518.436,E,194.4,312.7,130624,000.0,W*76
$GPGGA,045625.393,2610.938,N,08518.394,E,1,12,1.0,0.0,M,0.0,M,,*6A
$GPGSA,A,3,01,02,03,04,05,06,07,08,09,10,11,12,1.0,1.0,1.0*30
$GPRMC,045625.393,A,2610.938,N,08518.394,E,194.4,312.7,130624,000.0,W*73
$GPGGA,045626.393,2610.977,N,08518.352,E,1,12,1.0,0.0,M,0.0,M,,*68
$GPGSA,A,3,01,02,03,04,05,06,07,08,09,10,11,12,1.0,1.0,1.0*30
$GPRMC,045626.393,A,2610.977,N,08518.352,E,194.4,312.7,130624,000.0,W*71
$GPGGA,045627.393,2611.016,N,08518.310,E,1,12,1.0,0.0,M,0.0,M,,*60
$GPGSA,A,3,01,02,03,04,05,06,07,08,09,10,11,12,1.0,1.0,1.0*30
$GPRMC,045627.393,A,2611.016,N,08518.310,E,194.4,312.9,130624,000.0,W*77
$GPGGA,045628.393,2611.055,N,08518.268,E,1,12,1.0,0.0,M,0.0,M,,*66
$GPGSA,A,3,01,02,03,04,05,06,07,08,09,10,11,12,1.0,1.0,1.0*30
$GPRMC,045628.393,A,2611.055,N,08518.268,E,194.4,312.9,130624,000.0,W*71
$GPGGA,045629.393,2611.093,N,08518.227,E,1,12,1.0,0.0,M,0.0,M,,*66
$GPGSA,A,3,01,02,03,04,05,06,07,08,09,10,11,12,1.0,1.0,1.0*30
$GPRMC,045629.393,A,2611.093,N,08518.227,E,194.4,312.9,130624,000.0,W*71
$GPGGA,045630.393,2611.132,N,08518.185,E,1,12,1.0,0.0,M,0.0,M,,*6F
$GPGSA,A,3,01,02,03,04,05,06,07,08,09,10,11,12,1.0,1.0,1.0*30
$GPRMC,045630.393,A,2611.132,N,08518.185,E,194.4,312.9,130624,000.0,W*78
$GPGGA,045631.393,2611.171,N,08518.143,E,1,12,1.0,0.0,M,0.0,M,,*63
$GPGSA,A,3,01,02,03,04,05,06,07,08,09,10,11,12,1.0,1.0,1.0*30
$GPRMC,045631.393,A,2611.171,N,08518.143,E,194.4,312.9,130624,000.0,W*74
$GPGGA,045632.393,2611.210,N,08518.101,E,1,12,1.0,0.0,M,0.0,M,,*62
$GPGSA,A,3,01,02,03,04,05,06,07,08,09,10,11,12,1.0,1.0,1.0*30
$GPRMC,045632.393,A,2611.210,N,08518.101,E,194.4,312.9,130624,000.0,W*75
$GPGGA,045633.393,2611.248,N,08518.059,E,1,12,1.0,0.0,M,0.0,M,,*62
$GPGSA,A,3,01,02,03,04,05,06,07,08,09,10,11,12,1.0,1.0,1.0*30
$GPRMC,045633.393,A,2611.248,N,08518.059,E,194.4,312.9,130624,000.0,W*75
$GPGGA,045634.393,2611.287,N,08518.017,E,1,12,1.0,0.0,M,0.0,M,,*6C
$GPGSA,A,3,01,02,03,04,05,06,07,08,09,10,11,12,1.0,1.0,1.0*30
$GPRMC,045634.393,A,2611.287,N,08518.017,E,194.4,312.9,130624,000.0,W*7B
$GPGGA,045635.393,2611.326,N,08517.976,E,1,12,1.0,0.0,M,0.0,M,,*66
$GPGSA,A,3,01,02,03,04,05,06,07,08,09,10,11,12,1.0,1.0,1.0*30
$GPRMC,045635.393,A,2611.326,N,08517.976,E,194.4,312.9,130624,000.0,W*71
$GPGGA,045636.393,2611.365,N,08517.934,E,1,12,1.0,0.0,M,0.0,M,,*64
$GPGSA,A,3,01,02,03,04,05,06,07,08,09,10,11,12,1.0,1.0,1.0*30
$GPRMC,045636.393,A,2611.365,N,08517.934,E,194.4,312.9,130624,000.0,W*73
