$GPGGA,065509.362,1858.305,N,07249.167,E,1,12,1.0,0.0,M,0.0,M,,*6C
$GPGSA,A,3,01,02,03,04,05,06,07,08,09,10,11,12,1.0,1.0,1.0*30
$GPRMC,065509.362,A,1858.305,N,07249.167,E,001.5,180.0,170224,000.0,W*77
$GPGGA,065510.362,1858.305,N,07249.167,E,1,12,1.0,0.0,M,0.0,M,,*64
$GPGSA,A,3,01,02,03,04,05,06,07,08,09,10,11,12,1.0,1.0,1.0*30
$GPRMC,065510.362,A,1858.305,N,07249.167,E,001.5,000.0,170224,000.0,W*76
$GPGGA,065511.362,1858.305,N,07249.167,E,1,12,1.0,0.0,M,0.0,M,,*65
$GPGSA,A,3,01,02,03,04,05,06,07,08,09,10,11,12,1.0,1.0,1.0*30
$GPRMC,065511.362,A,1858.305,N,07249.167,E,000.0,000.0,170224,000.0,W*73
$GPGGA,065512.362,1858.305,N,07249.167,E,1,12,1.0,0.0,M,0.0,M,,*66
$GPGSA,A,3,01,02,03,04,05,06,07,08,09,10,11,12,1.0,1.0,1.0*30
$GPRMC,065512.362,A,1858.305,N,07249.167,E,000.0,000.0,170224,000.0,W*70
$GPGGA,065513.362,1858.305,N,07249.167,E,1,12,1.0,0.0,M,0.0,M,,*67
$GPGSA,A,3,01,02,03,04,05,06,07,08,09,10,11,12,1.0,1.0,1.0*30
$GPRMC,065513.362,A,1858.305,N,07249.167,E,000.0,000.0,170224,000.0,W*71
$GPGGA,065514.362,1858.305,N,07249.167,E,1,12,1.0,0.0,M,0.0,M,,*60
$GPGSA,A,3,01,02,03,04,05,06,07,08,09,10,11,12,1.0,1.0,1.0*30
$GPRMC,065514.362,A,1858.305,N,07249.167,E,000.0,000.0,170224,000.0,W*76
$GPGGA,065515.362,1858.305,N,07249.167,E,1,12,1.0,0.0,M,0.0,M,,*61
$GPGSA,A,3,01,02,03,04,05,06,07,08,09,10,11,12,1.0,1.0,1.0*30
$GPRMC,065515.362,A,1858.305,N,07249.167,E,000.0,000.0,170224,000.0,W*77
$GPGGA,065516.362,1858.305,N,07249.167,E,1,12,1.0,0.0,M,0.0,M,,*62
$GPGSA,A,3,01,02,03,04,05,06,07,08,09,10,11,12,1.0,1.0,1.0*30
$GPRMC,065516.362,A,1858.305,N,07249.167,E,000.0,000.0,170224,000.0,W*74
$GPGGA,065517.362,1858.305,N,07249.167,E,1,12,1.0,0.0,M,0.0,M,,*63
$GPGSA,A,3,01,02,03,04,05,06,07,08,09,10,11,12,1.0,1.0,1.0*30
$GPRMC,065517.362,A,1858.305,N,07249.167,E,000.0,000.0,170224,000.0,W*75
$GPGGA,065518.362,1858.305,N,07249.167,E,1,12,1.0,0.0,M,0.0,M,,*6C
$GPGSA,A,3,01,02,03,04,05,06,07,08,09,10,11,12,1.0,1.0,1.0*30
$GPRMC,065518.362,A,1858.305,N,07249.167,E,000.0,000.0,170224,000.0,W*7A
$GPGGA,065519.362,1858.305,N,07249.167,E,1,12,1.0,0.0,M,0.0,M,,*6D
$GPGSA,A,3,01,02,03,04,05,06,07,08,09,10,11,12,1.0,1.0,1.0*30
$GPRMC,065519.362,A,1858.305,N,07249.167,E,000.0,000.0,170224,000.0,W*7B
$GPGGA,065520.362,1858.305,N,07249.167,E,1,12,1.0,0.0,M,0.0,M,,*67
$GPGSA,A,3,01,02,03,04,05,06,07,08,09,10,11,12,1.0,1.0,1.0*30
$GPRMC,065520.362,A,1858.305,N,07249.167,E,000.0,000.0,170224,000.0,W*71
$GPGGA,065521.362,1858.305,N,07249.167,E,1,12,1.0,0.0,M,0.0,M,,*66
$GPGSA,A,3,01,02,03,04,05,06,07,08,09,10,11,12,1.0,1.0,1.0*30
$GPRMC,065521.362,A,1858.305,N,07249.167,E,000.0,000.0,170224,000.0,W*70
$GPGGA,065522.362,1858.305,N,07249.167,E,1,12,1.0,0.0,M,0.0,M,,*65
$GPGSA,A,3,01,02,03,04,05,06,07,08,09,10,11,12,1.0,1.0,1.0*30
$GPRMC,065522.362,A,1858.305,N,07249.167,E,000.0,000.0,170224,000.0,W*73
$GPGGA,065523.362,1858.305,N,07249.167,E,1,12,1.0,0.0,M,0.0,M,,*64
$GPGSA,A,3,01,02,03,04,05,06,07,08,09,10,11,12,1.0,1.0,1.0*30
$GPRMC,065523.362,A,1858.305,N,07249.167,E,000.0,000.0,170224,000.0,W*72
$GPGGA,065524.362,1858.305,N,07249.167,E,1,12,1.0,0.0,M,0.0,M,,*63
$GPGSA,A,3,01,02,03,04,05,06,07,08,09,10,11,12,1.0,1.0,1.0*30
$GPRMC,065524.362,A,1858.305,N,07249.167,E,000.0,000.0,170224,000.0,W*75
$GPGGA,065525.362,1858.305,N,07249.167,E,1,12,1.0,0.0,M,0.0,M,,*62
$GPGSA,A,3,01,02,03,04,05,06,07,08,09,10,11,12,1.0,1.0,1.0*30
$GPRMC,065525.362,A,1858.305,N,07249.167,E,000.0,000.0,170224,000.0,W*74
$GPGGA,065526.362,1858.305,N,07249.167,E,1,12,1.0,0.0,M,0.0,M,,*61
$GPGSA,A,3,01,02,03,04,05,06,07,08,09,10,11,12,1.0,1.0,1.0*30
$GPRMC,065526.362,A,1858.305,N,07249.167,E,000.0,000.0,170224,000.0,W*77
$GPGGA,065527.362,1858.305,N,07249.167,E,1,12,1.0,0.0,M,0.0,M,,*60
$GPGSA,A,3,01,02,03,04,05,06,07,08,09,10,11,12,1.0,1.0,1.0*30
$GPRMC,065527.362,A,1858.305,N,07249.167,E,000.0,000.0,170224,000.0,W*76
$GPGGA,065528.362,1858.305,N,07249.167,E,1,12,1.0,0.0,M,0.0,M,,*6F
$GPGSA,A,3,01,02,03,04,05,06,07,08,09,10,11,12,1.0,1.0,1.0*30
$GPRMC,065528.362,A,1858.305,N,07249.167,E,000.0,000.0,170224,000.0,W*79
$GPGGA,065529.362,1858.305,N,07249.167,E,1,12,1.0,0.0,M,0.0,M,,*6E
$GPGSA,A,3,01,02,03,04,05,06,07,08,09,10,11,12,1.0,1.0,1.0*30
$GPRMC,065529.362,A,1858.305,N,07249.167,E,000.0,000.0,170224,000.0,W*78
$GPGGA,065530.362,1858.305,N,07249.167,E,1,12,1.0,0.0,M,0.0,M,,*66
$GPGSA,A,3,01,02,03,04,05,06,07,08,09,10,11,12,1.0,1.0,1.0*30
$GPRMC,065530.362,A,1858.305,N,07249.167,E,000.0,000.0,170224,000.0,W*70
$GPGGA,065531.362,1858.305,N,07249.167,E,1,12,1.0,0.0,M,0.0,M,,*67
$GPGSA,A,3,01,02,03,04,05,06,07,08,09,10,11,12,1.0,1.0,1.0*30
$GPRMC,065531.362,A,1858.305,N,07249.167,E,000.0,000.0,170224,000.0,W*71
$GPGGA,065532.362,1858.305,N,07249.167,E,1,12,1.0,0.0,M,0.0,M,,*64
$GPGSA,A,3,01,02,03,04,05,06,07,08,09,10,11,12,1.0,1.0,1.0*30
$GPRMC,065532.362,A,1858.305,N,07249.167,E,000.0,000.0,170224,000.0,W*72
$GPGGA,065533.362,1858.305,N,07249.167,E,1,12,1.0,0.0,M,0.0,M,,*65
$GPGSA,A,3,01,02,03,04,05,06,07,08,09,10,11,12,1.0,1.0,1.0*30
$GPRMC,065533.362,A,1858.305,N,07249.167,E,000.0,000.0,170224,000.0,W*73
$GPGGA,065534.362,1858.305,N,07249.167,E,1,12,1.0,0.0,M,0.0,M,,*62
$GPGSA,A,3,01,02,03,04,05,06,07,08,09,10,11,12,1.0,1.0,1.0*30
$GPRMC,065534.362,A,1858.305,N,07249.167,E,000.0,000.0,170224,000.0,W*74
$GPGGA,065535.362,1858.305,N,07249.167,E,1,12,1.0,0.0,M,0.0,M,,*63
$GPGSA,A,3,01,02,03,04,05,06,07,08,09,10,11,12,1.0,1.0,1.0*30
$GPRMC,065535.362,A,1858.305,N,07249.167,E,000.0,000.0,170224,000.0,W*75
$GPGGA,065536.362,1858.305,N,07249.167,E,1,12,1.0,0.0,M,0.0,M,,*60
$GPGSA,A,3,01,02,03,04,05,06,07,08,09,10,11,12,1.0,1.0,1.0*30
$GPRMC,065536.362,A,1858.305,N,07249.167,E,000.0,000.0,170224,000.0,W*76
$GPGGA,065537.362,1858.305,N,07249.167,E,1,12,1.0,0.0,M,0.0,M,,*61
$GPGSA,A,3,01,02,03,04,05,06,07,08,09,10,11,12,1.0,1.0,1.0*30
$GPRMC,065537.362,A,1858.305,N,07249.167,E,000.0,000.0,170224,000.0,W*77
$GPGGA,065538.362,1858.305,N,07249.167,E,1,12,1.0,0.0,M,0.0,M,,*6E
$GPGSA,A,3,01,02,03,04,05,06,07,08,09,10,11,12,1.0,1.0,1.0*30
$GPRMC,065538.362,A,1858.305,N,07249.167,E,000.0,000.0,170224,000.0,W*78
$GPGGA,065539.362,1858.305,N,07249.167,E,1,12,1.0,0.0,M,0.0,M,,*6F
$GPGSA,A,3,01,02,03,04,05,06,07,08,09,10,11,12,1.0,1.0,1.0*30
$GPRMC,065539.362,A,1858.305,N,07249.167,E,000.0,000.0,170224,000.0,W*79
$GPGGA,065540.362,1858.305,N,07249.167,E,1,12,1.0,0.0,M,0.0,M,,*61
$GPGSA,A,3,01,02,03,04,05,06,07,08,09,10,11,12,1.0,1.0,1.0*30
$GPRMC,065540.362,A,1858.305,N,07249.167,E,000.0,000.0,170224,000.0,W*77
$GPGGA,065541.362,1858.305,N,07249.167,E,1,12,1.0,0.0,M,0.0,M,,*60
$GPGSA,A,3,01,02,03,04,05,06,07,08,09,10,11,12,1.0,1.0,1.0*30
$GPRMC,065541.362,A,1858.305,N,07249.167,E,000.0,000.0,170224,000.0,W*76
$GPGGA,065542.362,1858.305,N,07249.167,E,1,12,1.0,0.0,M,0.0,M,,*63
$GPGSA,A,3,01,02,03,04,05,06,07,08,09,10,11,12,1.0,1.0,1.0*30
$GPRMC,065542.362,A,1858.305,N,07249.167,E,000.0,000.0,170224,000.0,W*75
$GPGGA,065543.362,1858.305,N,07249.167,E,1,12,1.0,0.0,M,0.0,M,,*62
$GPGSA,A,3,01,02,03,04,05,06,07,08,09,10,11,12,1.0,1.0,1.0*30
$GPRMC,065543.362,A,1858.305,N,07249.167,E,000.0,000.0,170224,000.0,W*74
$GPGGA,065544.362,1858.305,N,07249.167,E,1,12,1.0,0.0,M,0.0,M,,*65
$GPGSA,A,3,01,02,03,04,05,06,07,08,09,10,11,12,1.0,1.0,1.0*30
$GPRMC,065544.362,A,1858.305,N,07249.167,E,000.0,000.0,170224,000.0,W*73
$GPGGA,065545.362,1858.305,N,07249.167,E,1,12,1.0,0.0,M,0.0,M,,*64
$GPGSA,A,3,01,02,03,04,05,06,07,08,09,10,11,12,1.0,1.0,1.0*30
$GPRMC,065545.362,A,1858.305,N,07249.167,E,000.0,000.0,170224,000.0,W*72
$GPGGA,065546.362,1858.305,N,07249.167,E,1,12,1.0,0.0,M,0.0,M,,*67
$GPGSA,A,3,01,02,03,04,05,06,07,08,09,10,11,12,1.0,1.0,1.0*30
$GPRMC,065546.362,A,1858.305,N,07249.167,E,000.0,000.0,170224,000.0,W*71
$GPGGA,065547.362,1858.305,N,07249.167,E,1,12,1.0,0.0,M,0.0,M,,*66
$GPGSA,A,3,01,02,03,04,05,06,07,08,09,10,11,12,1.0,1.0,1.0*30
$GPRMC,065547.362,A,1858.305,N,07249.167,E,000.0,000.0,170224,000.0,W*70
$GPGGA,065548.362,1858.305,N,07249.167,E,1,12,1.0,0.0,M,0.0,M,,*69
$GPGSA,A,3,01,02,03,04,05,06,07,08,09,10,11,12,1.0,1.0,1.0*30
$GPRMC,065548.362,A,1858.305,N,07249.167,E,000.0,000.0,170224,000.0,W*7F
$GPGGA,065549.362,1858.305,N,07249.167,E,1,12,1.0,0.0,M,0.0,M,,*68
$GPGSA,A,3,01,02,03,04,05,06,07,08,09,10,11,12,1.0,1.0,1.0*30
$GPRMC,065549.362,A,1858.305,N,07249.167,E,000.0,000.0,170224,000.0,W*7E
$GPGGA,065550.362,1858.305,N,07249.167,E,1,12,1.0,0.0,M,0.0,M,,*60
$GPGSA,A,3,01,02,03,04,05,06,07,08,09,10,11,12,1.0,1.0,1.0*30
$GPRMC,065550.362,A,1858.305,N,07249.167,E,000.0,000.0,170224,000.0,W*76
$GPGGA,065551.362,1858.305,N,07249.167,E,1,12,1.0,0.0,M,0.0,M,,*61
$GPGSA,A,3,01,02,03,04,05,06,07,08,09,10,11,12,1.0,1.0,1.0*30
$GPRMC,065551.362,A,1858.305,N,07249.167,E,000.0,000.0,170224,000.0,W*77
$GPGGA,065552.362,1858.305,N,07249.167,E,1,12,1.0,0.0,M,0.0,M,,*62
$GPGSA,A,3,01,02,03,04,05,06,07,08,09,10,11,12,1.0,1.0,1.0*30
$GPRMC,065552.362,A,1858.305,N,07249.167,E,000.0,000.0,170224,000.0,W*74
$GPGGA,065553.362,1858.305,N,07249.167,E,1,12,1.0,0.0,M,0.0,M,,*63
$GPGSA,A,3,01,02,03,04,05,06,07,08,09,10,11,12,1.0,1.0,1.0*30
$GPRMC,065553.362,A,1858.305,N,07249.167,E,000.0,000.0,170224,000.0,W*75
$GPGGA,065554.362,1858.305,N,07249.167,E,1,12,1.0,0.0,M,0.0,M,,*64
$GPGSA,A,3,01,02,03,04,05,06,07,08,09,10,11,12,1.0,1.0,1.0*30
$GPRMC,065554.362,A,1858.305,N,07249.167,E,000.0,000.0,170224,000.0,W*72
$GPGGA,065555.362,1858.305,N,07249.167,E,1,12,1.0,0.0,M,0.0,M,,*65
$GPGSA,A,3,01,02,03,04,05,06,07,08,09,10,11,12,1.0,1.0,1.0*30
$GPRMC,065555.362,A,1858.305,N,07249.167,E,000.0,000.0,170224,000.0,W*73
$GPGGA,065556.362,1858.305,N,07249.167,E,1,12,1.0,0.0,M,0.0,M,,*66
$GPGSA,A,3,01,02,03,04,05,06,07,08,09,10,11,12,1.0,1.0,1.0*30
$GPRMC,065556.362,A,1858.305,N,07249.167,E,000.0,000.0,170224,000.0,W*70
$GPGGA,065557.362,1858.305,N,07249.167,E,1,12,1.0,0.0,M,0.0,M,,*67
$GPGSA,A,3,01,02,03,04,05,06,07,08,09,10,11,12,1.0,1.0,1.0*30
$GPRMC,065557.362,A,1858.305,N,07249.167,E,000.0,000.0,170224,000.0,W*71
$GPGGA,065558.362,1858.305,N,07249.167,E,1,12,1.0,0.0,M,0.0,M,,*68
$GPGSA,A,3,01,02,03,04,05,06,07,08,09,10,11,12,1.0,1.0,1.0*30
$GPRMC,065558.362,A,1858.305,N,07249.167,E,000.0,000.0,170224,000.0,W*7E
$GPGGA,065559.362,1858.305,N,07249.167,E,1,12,1.0,0.0,M,0.0,M,,*69
$GPGSA,A,3,01,02,03,04,05,06,07,08,09,10,11,12,1.0,1.0,1.0*30
$GPRMC,065559.362,A,1858.305,N,07249.167,E,000.0,000.0,170224,000.0,W*7F
$GPGGA,065600.362,1858.305,N,07249.167,E,1,12,1.0,0.0,M,0.0,M,,*66
$GPGSA,A,3,01,02,03,04,05,06,07,08,09,10,11,12,1.0,1.0,1.0*30
$GPRMC,065600.362,A,1858.305,N,07249.167,E,000.0,000.0,170224,000.0,W*70
$GPGGA,065601.362,1858.305,N,07249.167,E,1,12,1.0,0.0,M,0.0,M,,*67
$GPGSA,A,3,01,02,03,04,05,06,07,08,09,10,11,12,1.0,1.0,1.0*30
$GPRMC,065601.362,A,1858.305,N,07249.167,E,000.0,000.0,170224,000.0,W*71
$GPGGA,065602.362,1858.305,N,07249.167,E,1,12,1.0,0.0,M,0.0,M,,*64
$GPGSA,A,3,01,02,03,04,05,06,07,08,09,10,11,12,1.0,1.0,1.0*30
$GPRMC,065602.362,A,1858.305,N,07249.167,E,000.0,000.0,170224,000.0,W*72
$GPGGA,065603.362,1858.305,N,07249.167,E,1,12,1.0,0.0,M,0.0,M,,*65
$GPGSA,A,3,01,02,03,04,05,06,07,08,09,10,11,12,1.0,1.0,1.0*30
$GPRMC,065603.362,A,1858.305,N,07249.167,E,000.0,000.0,170224,000.0,W*73
$GPGGA,065604.362,1858.305,N,07249.167,E,1,12,1.0,0.0,M,0.0,M,,*62
$GPGSA,A,3,01,02,03,04,05,06,07,08,09,10,11,12,1.0,1.0,1.0*30
$GPRMC,065604.362,A,1858.305,N,07249.167,E,000.0,000.0,170224,000.0,W*74
$GPGGA,065605.362,1858.305,N,07249.167,E,1,12,1.0,0.0,M,0.0,M,,*63
$GPGSA,A,3,01,02,03,04,05,06,07,08,09,10,11,12,1.0,1.0,1.0*30
$GPRMC,065605.362,A,1858.305,N,07249.167,E,000.0,000.0,170224,000.0,W*75
$GPGGA,065606.362,1858.305,N,07249.167,E,1,12,1.0,0.0,M,0.0,M,,*60
$GPGSA,A,3,01,02,03,04,05,06,07,08,09,10,11,12,1.0,1.0,1.0*30
$GPRMC,065606.362,A,1858.305,N,07249.167,E,000.0,000.0,170224,000.0,W*76
$GPGGA,065607.362,1858.305,N,07249.167,E,1,12,1.0,0.0,M,0.0,M,,*61
$GPGSA,A,3,01,02,03,04,05,06,07,08,09,10,11,12,1.0,1.0,1.0*30
$GPRMC,065607.362,A,1858.305,N,07249.167,E,000.0,000.0,170224,000.0,W*77
$GPGGA,065608.362,1858.305,N,07249.167,E,1,12,1.0,0.0,M,0.0,M,,*6E
$GPGSA,A,3,01,02,03,04,05,06,07,08,09,10,11,12,1.0,1.0,1.0*30
$GPRMC,065608.362,A,1858.305,N,07249.167,E,000.5,270.0,170224,000.0,W*78
$GPGGA,065609.362,1858.305,N,07249.166,E,1,12,1.0,0.0,M,0.0,M,,*6E
$GPGSA,A,3,01,02,03,04,05,06,07,08,09,10,11,12,1.0,1.0,1.0*30
$GPRMC,065609.362,A,1858.305,N,07249.166,E,000.5,000.0,170224,000.0,W*7D
$GPGGA,065610.362,1858.305,N,07249.166,E,1,12,1.0,0.0,M,0.0,M,,*66
$GPGSA,A,3,01,02,03,04,05,06,07,08,09,10,11,12,1.0,1.0,1.0*30
$GPRMC,065610.362,A,1858.305,N,07249.166,E,000.0,000.0,170224,000.0,W*70
$GPGGA,065611.362,1858.305,N,07249.166,E,1,12,1.0,0.0,M,0.0,M,,*67
$GPGSA,A,3,01,02,03,04,05,06,07,08,09,10,11,12,1.0,1.0,1.0*30
$GPRMC,065611.362,A,1858.305,N,07249.166,E,000.0,000.0,170224,000.0,W*71
$GPGGA,065612.362,1858.305,N,07249.166,E,1,12,1.0,0.0,M,0.0,M,,*64
$GPGSA,A,3,01,02,03,04,05,06,07,08,09,10,11,12,1.0,1.0,1.0*30
$GPRMC,065612.362,A,1858.305,N,07249.166,E,000.0,000.0,170224,000.0,W*72
$GPGGA,065613.362,1858.305,N,07249.166,E,1,12,1.0,0.0,M,0.0,M,,*65
$GPGSA,A,3,01,02,03,04,05,06,07,08,09,10,11,12,1.0,1.0,1.0*30
$GPRMC,065613.362,A,1858.305,N,07249.166,E,000.0,000.0,170224,000.0,W*73
$GPGGA,065614.362,1858.305,N,07249.166,E,1,12,1.0,0.0,M,0.0,M,,*62
$GPGSA,A,3,01,02,03,04,05,06,07,08,09,10,11,12,1.0,1.0,1.0*30
$GPRMC,065614.362,A,1858.305,N,07249.166,E,000.0,000.0,170224,000.0,W*74
$GPGGA,065615.362,1858.305,N,07249.166,E,1,12,1.0,0.0,M,0.0,M,,*63
$GPGSA,A,3,01,02,03,04,05,06,07,08,09,10,11,12,1.0,1.0,1.0*30
$GPRMC,065615.362,A,1858.305,N,07249.166,E,000.0,000.0,170224,000.0,W*75
$GPGGA,065616.362,1858.305,N,07249.166,E,1,12,1.0,0.0,M,0.0,M,,*60
$GPGSA,A,3,01,02,03,04,05,06,07,08,09,10,11,12,1.0,1.0,1.0*30
$GPRMC,065616.362,A,1858.305,N,07249.166,E,000.0,000.0,170224,000.0,W*76
$GPGGA,065617.362,1858.305,N,07249.166,E,1,12,1.0,0.0,M,0.0,M,,*61
$GPGSA,A,3,01,02,03,04,05,06,07,08,09,10,11,12,1.0,1.0,1.0*30
$GPRMC,065617.362,A,1858.305,N,07249.166,E,000.0,000.0,170224,000.0,W*77
$GPGGA,065618.362,1858.305,N,07249.166,E,1,12,1.0,0.0,M,0.0,M,,*6E
$GPGSA,A,3,01,02,03,04,05,06,07,08,09,10,11,12,1.0,1.0,1.0*30
$GPRMC,065618.362,A,1858.305,N,07249.166,E,000.0,000.0,170224,000.0,W*78
$GPGGA,065619.362,1858.305,N,07249.166,E,1,12,1.0,0.0,M,0.0,M,,*6F
$GPGSA,A,3,01,02,03,04,05,06,07,08,09,10,11,12,1.0,1.0,1.0*30
$GPRMC,065619.362,A,1858.305,N,07249.166,E,000.0,000.0,170224,000.0,W*79
$GPGGA,065620.362,1858.305,N,07249.166,E,1,12,1.0,0.0,M,0.0,M,,*65
$GPGSA,A,3,01,02,03,04,05,06,07,08,09,10,11,12,1.0,1.0,1.0*30
$GPRMC,065620.362,A,1858.305,N,07249.166,E,000.0,000.0,170224,000.0,W*73
$GPGGA,065621.362,1858.305,N,07249.166,E,1,12,1.0,0.0,M,0.0,M,,*64
$GPGSA,A,3,01,02,03,04,05,06,07,08,09,10,11,12,1.0,1.0,1.0*30
$GPRMC,065621.362,A,1858.305,N,07249.166,E,000.0,000.0,170224,000.0,W*72
$GPGGA,065622.362,1858.305,N,07249.166,E,1,12,1.0,0.0,M,0.0,M,,*67
$GPGSA,A,3,01,02,03,04,05,06,07,08,09,10,11,12,1.0,1.0,1.0*30
$GPRMC,065622.362,A,1858.305,N,07249.166,E,000.0,000.0,170224,000.0,W*71
$GPGGA,065623.362,1858.305,N,07249.166,E,1,12,1.0,0.0,M,0.0,M,,*66
$GPGSA,A,3,01,02,03,04,05,06,07,08,09,10,11,12,1.0,1.0,1.0*30
$GPRMC,065623.362,A,1858.305,N,07249.166,E,000.0,000.0,170224,000.0,W*70
$GPGGA,065624.362,1858.305,N,07249.166,E,1,12,1.0,0.0,M,0.0,M,,*61
$GPGSA,A,3,01,02,03,04,05,06,07,08,09,10,11,12,1.0,1.0,1.0*30
$GPRMC,065624.362,A,1858.305,N,07249.166,E,000.0,000.0,170224,000.0,W*77
$GPGGA,065625.362,1858.305,N,07249.166,E,1,12,1.0,0.0,M,0.0,M,,*60
$GPGSA,A,3,01,02,03,04,05,06,07,08,09,10,11,12,1.0,1.0,1.0*30
$GPRMC,065625.362,A,1858.305,N,07249.166,E,000.0,000.0,170224,000.0,W*76
$GPGGA,065626.362,1858.305,N,07249.166,E,1,12,1.0,0.0,M,0.0,M,,*63
$GPGSA,A,3,01,02,03,04,05,06,07,08,09,10,11,12,1.0,1.0,1.0*30
$GPRMC,065626.362,A,1858.305,N,07249.166,E,000.0,000.0,170224,000.0,W*75
$GPGGA,065627.362,1858.305,N,07249.166,E,1,12,1.0,0.0,M,0.0,M,,*62
$GPGSA,A,3,01,02,03,04,05,06,07,08,09,10,11,12,1.0,1.0,1.0*30
$GPRMC,065627.362,A,1858.305,N,07249.166,E,000.0,000.0,170224,000.0,W*74
$GPGGA,065628.362,1858.305,N,07249.166,E,1,12,1.0,0.0,M,0.0,M,,*6D
$GPGSA,A,3,01,02,03,04,05,06,07,08,09,10,11,12,1.0,1.0,1.0*30
$GPRMC,065628.362,A,1858.305,N,07249.166,E,000.0,000.0,170224,000.0,W*7B
$GPGGA,065629.362,1858.305,N,07249.166,E,1,12,1.0,0.0,M,0.0,M,,*6C
$GPGSA,A,3,01,02,03,04,05,06,07,08,09,10,11,12,1.0,1.0,1.0*30
$GPRMC,065629.362,A,1858.305,N,07249.166,E,000.0,000.0,170224,000.0,W*7A
$GPGGA,065630.362,1858.305,N,07249.166,E,1,12,1.0,0.0,M,0.0,M,,*64
$GPGSA,A,3,01,02,03,04,05,06,07,08,09,10,11,12,1.0,1.0,1.0*30
$GPRMC,065630.362,A,1858.305,N,07249.166,E,000.0,000.0,170224,000.0,W*72
$GPGGA,065631.362,1858.305,N,07249.166,E,1,12,1.0,0.0,M,0.0,M,,*65
$GPGSA,A,3,01,02,03,04,05,06,07,08,09,10,11,12,1.0,1.0,1.0*30
$GPRMC,065631.362,A,1858.305,N,07249.166,E,000.0,000.0,170224,000.0,W*73
$GPGGA,065632.362,1858.305,N,07249.166,E,1,12,1.0,0.0,M,0.0,M,,*66
$GPGSA,A,3,01,02,03,04,05,06,07,08,09,10,11,12,1.0,1.0,1.0*30
$GPRMC,065632.362,A,1858.305,N,07249.166,E,000.0,000.0,170224,000.0,W*70
$GPGGA,065633.362,1858.305,N,07249.166,E,1,12,1.0,0.0,M,0.0,M,,*67
$GPGSA,A,3,01,02,03,04,05,06,07,08,09,10,11,12,1.0,1.0,1.0*30
$GPRMC,065633.362,A,1858.305,N,07249.166,E,000.0,000.0,170224,000.0,W*71
$GPGGA,065634.362,1858.305,N,07249.166,E,1,12,1.0,0.0,M,0.0,M,,*60
$GPGSA,A,3,01,02,03,04,05,06,07,08,09,10,11,12,1.0,1.0,1.0*30
$GPRMC,065634.362,A,1858.305,N,07249.166,E,000.0,000.0,170224,000.0,W*76
$GPGGA,065635.362,1858.305,N,07249.166,E,1,12,1.0,0.0,M,0.0,M,,*61
$GPGSA,A,3,01,02,03,04,05,06,07,08,09,10,11,12,1.0,1.0,1.0*30
$GPRMC,065635.362,A,1858.305,N,07249.166,E,000.0,000.0,170224,000.0,W*77
$GPGGA,065636.362,1858.305,N,07249.166,E,1,12,1.0,0.0,M,0.0,M,,*62
$GPGSA,A,3,01,02,03,04,05,06,07,08,09,10,11,12,1.0,1.0,1.0*30
$GPRMC,065636.362,A,1858.305,N,07249.166,E,000.0,000.0,170224,000.0,W*74
$GPGGA,065637.362,1858.305,N,07249.166,E,1,12,1.0,0.0,M,0.0,M,,*63
$GPGSA,A,3,01,02,03,04,05,06,07,08,09,10,11,12,1.0,1.0,1.0*30
$GPRMC,065637.362,A,1858.305,N,07249.166,E,000.0,000.0,170224,000.0,W*75
$GPGGA,065638.362,1858.305,N,07249.166,E,1,12,1.0,0.0,M,0.0,M,,*6C
$GPGSA,A,3,01,02,03,04,05,06,07,08,09,10,11,12,1.0,1.0,1.0*30
$GPRMC,065638.362,A,1858.305,N,07249.166,E,000.0,000.0,170224,000.0,W*7A
$GPGGA,065639.362,1858.305,N,07249.166,E,1,12,1.0,0.0,M,0.0,M,,*6D
$GPGSA,A,3,01,02,03,04,05,06,07,08,09,10,11,12,1.0,1.0,1.0*30
$GPRMC,065639.362,A,1858.305,N,07249.166,E,000.0,000.0,170224,000.0,W*7B
$GPGGA,065640.362,1858.305,N,07249.166,E,1,12,1.0,0.0,M,0.0,M,,*63
$GPGSA,A,3,01,02,03,04,05,06,07,08,09,10,11,12,1.0,1.0,1.0*30
$GPRMC,065640.362,A,1858.305,N,07249.166,E,000.0,000.0,170224,000.0,W*75
$GPGGA,065641.362,1858.305,N,07249.166,E,1,12,1.0,0.0,M,0.0,M,,*62
$GPGSA,A,3,01,02,03,04,05,06,07,08,09,10,11,12,1.0,1.0,1.0*30
$GPRMC,065641.362,A,1858.305,N,07249.166,E,000.0,000.0,170224,000.0,W*74
$GPGGA,065642.362,1858.305,N,07249.166,E,1,12,1.0,0.0,M,0.0,M,,*61
$GPGSA,A,3,01,02,03,04,05,06,07,08,09,10,11,12,1.0,1.0,1.0*30
$GPRMC,065642.362,A,1858.305,N,07249.166,E,000.0,000.0,170224,000.0,W*77
$GPGGA,065643.362,1858.305,N,07249.166,E,1,12,1.0,0.0,M,0.0,M,,*60
$GPGSA,A,3,01,02,03,04,05,06,07,08,09,10,11,12,1.0,1.0,1.0*30
$GPRMC,065643.362,A,1858.305,N,07249.166,E,000.0,000.0,170224,000.0,W*76
$GPGGA,065644.362,1858.305,N,07249.166,E,1,12,1.0,0.0,M,0.0,M,,*67
$GPGSA,A,3,01,02,03,04,05,06,07,08,09,10,11,12,1.0,1.0,1.0*30
$GPRMC,065644.362,A,1858.305,N,07249.166,E,000.0,000.0,170224,000.0,W*71
$GPGGA,065645.362,1858.305,N,07249.166,E,1,12,1.0,0.0,M,0.0,M,,*66
$GPGSA,A,3,01,02,03,04,05,06,07,08,09,10,11,12,1.0,1.0,1.0*30
$GPRMC,065645.362,A,1858.305,N,07249.166,E,001.1,180.0,170224,000.0,W*79
$GPGGA,065646.362,1858.305,N,07249.166,E,1,12,1.0,0.0,M,0.0,M,,*65
$GPGSA,A,3,01,02,03,04,05,06,07,08,09,10,11,12,1.0,1.0,1.0*30
$GPRMC,065646.362,A,1858.305,N,07249.166,E,001.1,000.0,170224,000.0,W*73
$GPGGA,065647.362,1858.305,N,07249.166,E,1,12,1.0,0.0,M,0.0,M,,*64
$GPGSA,A,3,01,02,03,04,05,06,07,08,09,10,11,12,1.0,1.0,1.0*30
$GPRMC,065647.362,A,1858.305,N,07249.166,E,000.0,000.0,170224,000.0,W*72
$GPGGA,065648.362,1858.305,N,07249.166,E,1,12,1.0,0.0,M,0.0,M,,*6B
$GPGSA,A,3,01,02,03,04,05,06,07,08,09,10,11,12,1.0,1.0,1.0*30
$GPRMC,065648.362,A,1858.305,N,07249.166,E,000.8,226.6,170224,000.0,W*75
$GPGGA,065649.362,1858.304,N,07249.166,E,1,12,1.0,0.0,M,0.0,M,,*6B
$GPGSA,A,3,01,02,03,04,05,06,07,08,09,10,11,12,1.0,1.0,1.0*30
$GPRMC,065649.362,A,1858.304,N,07249.166,E,002.3,014.8,170224,000.0,W*71
$GPGGA,065650.362,1858.305,N,07249.166,E,1,12,1.0,0.0,M,0.0,M,,*62
$GPGSA,A,3,01,02,03,04,05,06,07,08,09,10,11,12,1.0,1.0,1.0*30
$GPRMC,065650.362,A,1858.305,N,07249.166,E,000.5,180.0,170224,000.0,W*78
$GPGGA,065651.362,1858.305,N,07249.166,E,1,12,1.0,0.0,M,0.0,M,,*63
$GPGSA,A,3,01,02,03,04,05,06,07,08,09,10,11,12,1.0,1.0,1.0*30
$GPRMC,065651.362,A,1858.305,N,07249.166,E,000.5,000.0,170224,000.0,W*70
$GPGGA,065652.362,1858.305,N,07249.166,E,1,12,1.0,0.0,M,0.0,M,,*60
$GPGSA,A,3,01,02,03,04,05,06,07,08,09,10,11,12,1.0,1.0,1.0*30
$GPRMC,065652.362,A,1858.305,N,07249.166,E,000.0,000.0,170224,000.0,W*76
$GPGGA,065653.362,1858.305,N,07249.166,E,1,12,1.0,0.0,M,0.0,M,,*61
$GPGSA,A,3,01,02,03,04,05,06,07,08,09,10,11,12,1.0,1.0,1.0*30
$GPRMC,065653.362,A,1858.305,N,07249.166,E,000.0,000.0,170224,000.0,W*77
$GPGGA,065654.362,1858.305,N,07249.166,E,1,12,1.0,0.0,M,0.0,M,,*66
$GPGSA,A,3,01,02,03,04,05,06,07,08,09,10,11,12,1.0,1.0,1.0*30
$GPRMC,065654.362,A,1858.305,N,07249.166,E,000.0,000.0,170224,000.0,W*70
$GPGGA,065655.362,1858.305,N,07249.166,E,1,12,1.0,0.0,M,0.0,M,,*67
$GPGSA,A,3,01,02,03,04,05,06,07,08,09,10,11,12,1.0,1.0,1.0*30
$GPRMC,065655.362,A,1858.305,N,07249.166,E,000.0,000.0,170224,000.0,W*71
$GPGGA,065656.362,1858.305,N,07249.166,E,1,12,1.0,0.0,M,0.0,M,,*64
$GPGSA,A,3,01,02,03,04,05,06,07,08,09,10,11,12,1.0,1.0,1.0*30
$GPRMC,065656.362,A,1858.305,N,07249.166,E,000.0,000.0,170224,000.0,W*72
$GPGGA,065657.362,1858.305,N,07249.166,E,1,12,1.0,0.0,M,0.0,M,,*65
$GPGSA,A,3,01,02,03,04,05,06,07,08,09,10,11,12,1.0,1.0,1.0*30
$GPRMC,065657.362,A,1858.305,N,07249.166,E,000.0,000.0,170224,000.0,W*73
$GPGGA,065658.362,1858.305,N,07249.166,E,1,12,1.0,0.0,M,0.0,M,,*6A
$GPGSA,A,3,01,02,03,04,05,06,07,08,09,10,11,12,1.0,1.0,1.0*30
$GPRMC,065658.362,A,1858.305,N,07249.166,E,000.0,000.0,170224,000.0,W*7C
$GPGGA,065659.362,1858.305,N,07249.166,E,1,12,1.0,0.0,M,0.0,M,,*6B
$GPGSA,A,3,01,02,03,04,05,06,07,08,09,10,11,12,1.0,1.0,1.0*30
$GPRMC,065659.362,A,1858.305,N,07249.166,E,000.0,000.0,170224,000.0,W*7D
$GPGGA,065700.362,1858.305,N,07249.166,E,1,12,1.0,0.0,M,0.0,M,,*66
$GPGSA,A,3,01,02,03,04,05,06,07,08,09,10,11,12,1.0,1.0,1.0*30
$GPRMC,065700.362,A,1858.305,N,07249.166,E,000.0,000.0,170224,000.0,W*70
$GPGGA,065701.362,1858.305,N,07249.166,E,1,12,1.0,0.0,M,0.0,M,,*67
$GPGSA,A,3,01,02,03,04,05,06,07,08,09,10,11,12,1.0,1.0,1.0*30
$GPRMC,065701.362,A,1858.305,N,07249.166,E,000.0,000.0,170224,000.0,W*71
$GPGGA,065702.362,1858.305,N,07249.166,E,1,12,1.0,0.0,M,0.0,M,,*64
$GPGSA,A,3,01,02,03,04,05,06,07,08,09,10,11,12,1.0,1.0,1.0*30
$GPRMC,065702.362,A,1858.305,N,07249.166,E,000.0,000.0,170224,000.0,W*72
$GPGGA,065703.362,1858.305,N,07249.166,E,1,12,1.0,0.0,M,0.0,M,,*65
$GPGSA,A,3,01,02,03,04,05,06,07,08,09,10,11,12,1.0,1.0,1.0*30
$GPRMC,065703.362,A,1858.305,N,07249.166,E,000.0,000.0,170224,000.0,W*73
$GPGGA,065704.362,1858.305,N,07249.166,E,1,12,1.0,0.0,M,0.0,M,,*62
$GPGSA,A,3,01,02,03,04,05,06,07,08,09,10,11,12,1.0,1.0,1.0*30
$GPRMC,065704.362,A,1858.305,N,07249.166,E,000.0,000.0,170224,000.0,W*74
$GPGGA,065705.362,1858.305,N,07249.166,E,1,12,1.0,0.0,M,0.0,M,,*63
$GPGSA,A,3,01,02,03,04,05,06,07,08,09,10,11,12,1.0,1.0,1.0*30
$GPRMC,065705.362,A,1858.305,N,07249.166,E,000.0,000.0,170224,000.0,W*75
$GPGGA,065706.362,1858.305,N,07249.166,E,1,12,1.0,0.0,M,0.0,M,,*60
$GPGSA,A,3,01,02,03,04,05,06,07,08,09,10,11,12,1.0,1.0,1.0*30
$GPRMC,065706.362,A,1858.305,N,07249.166,E,000.0,000.0,170224,000.0,W*76
$GPGGA,065707.362,1858.305,N,07249.166,E,1,12,1.0,0.0,M,0.0,M,,*61
$GPGSA,A,3,01,02,03,04,05,06,07,08,09,10,11,12,1.0,1.0,1.0*30
$GPRMC,065707.362,A,1858.305,N,07249.166,E,000.0,000.0,170224,000.0,W*77
$GPGGA,065708.362,1858.305,N,07249.166,E,1,12,1.0,0.0,M,0.0,M,,*6E
$GPGSA,A,3,01,02,03,04,05,06,07,08,09,10,11,12,1.0,1.0,1.0*30
$GPRMC,065708.362,A,1858.305,N,07249.166,E,000.0,000.0,170224,000.0,W*78
$GPGGA,065709.362,1858.305,N,07249.166,E,1,12,1.0,0.0,M,0.0,M,,*6F
$GPGSA,A,3,01,02,03,04,05,06,07,08,09,10,11,12,1.0,1.0,1.0*30
$GPRMC,065709.362,A,1858.305,N,07249.166,E,000.0,000.0,170224,000.0,W*79
$GPGGA,065710.362,1858.305,N,07249.166,E,1,12,1.0,0.0,M,0.0,M,,*67
$GPGSA,A,3,01,02,03,04,05,06,07,08,09,10,11,12,1.0,1.0,1.0*30
$GPRMC,065710.362,A,1858.305,N,07249.166,E,000.0,000.0,170224,000.0,W*71
$GPGGA,065711.362,1858.305,N,07249.166,E,1,12,1.0,0.0,M,0.0,M,,*66
$GPGSA,A,3,01,02,03,04,05,06,07,08,09,10,11,12,1.0,1.0,1.0*30
$GPRMC,065711.362,A,1858.305,N,07249.166,E,000.0,000.0,170224,000.0,W*70
$GPGGA,065712.362,1858.305,N,07249.166,E,1,12,1.0,0.0,M,0.0,M,,*65
$GPGSA,A,3,01,02,03,04,05,06,07,08,09,10,11,12,1.0,1.0,1.0*30
$GPRMC,065712.362,A,1858.305,N,07249.166,E,000.0,000.0,170224,000.0,W*73
$GPGGA,065713.362,1858.305,N,07249.166,E,1,12,1.0,0.0,M,0.0,M,,*64
$GPGSA,A,3,01,02,03,04,05,06,07,08,09,10,11,12,1.0,1.0,1.0*30
$GPRMC,065713.362,A,1858.305,N,07249.166,E,000.0,000.0,170224,000.0,W*72
$GPGGA,065714.362,1858.305,N,07249.166,E,1,12,1.0,0.0,M,0.0,M,,*63
$GPGSA,A,3,01,02,03,04,05,06,07,08,09,10,11,12,1.0,1.0,1.0*30
$GPRMC,065714.362,A,1858.305,N,07249.166,E,000.0,000.0,170224,000.0,W*75
$GPGGA,065715.362,1858.305,N,07249.166,E,1,12,1.0,0.0,M,0.0,M,,*62
$GPGSA,A,3,01,02,03,04,05,06,07,08,09,10,11,12,1.0,1.0,1.0*30
$GPRMC,065715.362,A,1858.305,N,07249.166,E,000.0,000.0,170224,000.0,W*74
$GPGGA,065716.362,1858.305,N,07249.166,E,1,12,1.0,0.0,M,0.0,M,,*61
$GPGSA,A,3,01,02,03,04,05,06,07,08,09,10,11,12,1.0,1.0,1.0*30
$GPRMC,065716.362,A,1858.305,N,07249.166,E,000.0,000.0,170224,000.0,W*77
$GPGGA,065717.362,1858.305,N,07249.166,E,1,12,1.0,0.0,M,0.0,M,,*60
$GPGSA,A,3,01,02,03,04,05,06,07,08,09,10,11,12,1.0,1.0,1.0*30
$GPRMC,065717.362,A,1858.305,N,07249.166,E,000.0,000.0,170224,000.0,W*76
$GPGGA,065718.362,1858.305,N,07249.166,E,1,12,1.0,0.0,M,0.0,M,,*6F
$GPGSA,A,3,01,02,03,04,05,06,07,08,09,10,11,12,1.0,1.0,1.0*30
$GPRMC,065718.362,A,1858.305,N,07249.166,E,000.0,000.0,170224,000.0,W*79
$GPGGA,065719.362,1858.305,N,07249.166,E,1,12,1.0,0.0,M,0.0,M,,*6E
$GPGSA,A,3,01,02,03,04,05,06,07,08,09,10,11,12,1.0,1.0,1.0*30
$GPRMC,065719.362,A,1858.305,N,07249.166,E,000.0,000.0,170224,000.0,W*78
$GPGGA,065720.362,1858.305,N,07249.166,E,1,12,1.0,0.0,M,0.0,M,,*64
$GPGSA,A,3,01,02,03,04,05,06,07,08,09,10,11,12,1.0,1.0,1.0*30
$GPRMC,065720.362,A,1858.305,N,07249.166,E,000.0,000.0,170224,000.0,W*72
$GPGGA,065721.362,1858.305,N,07249.166,E,1,12,1.0,0.0,M,0.0,M,,*65
$GPGSA,A,3,01,02,03,04,05,06,07,08,09,10,11,12,1.0,1.0,1.0*30
$GPRMC,065721.362,A,1858.305,N,07249.166,E,000.0,000.0,170224,000.0,W*73
$GPGGA,065722.362,1858.305,N,07249.166,E,1,12,1.0,0.0,M,0.0,M,,*66
$GPGSA,A,3,01,02,03,04,05,06,07,08,09,10,11,12,1.0,1.0,1.0*30
$GPRMC,065722.362,A,1858.305,N,07249.166,E,000.0,000.0,170224,000.0,W*70
$GPGGA,065723.362,1858.305,N,07249.166,E,1,12,1.0,0.0,M,0.0,M,,*67
$GPGSA,A,3,01,02,03,04,05,06,07,08,09,10,11,12,1.0,1.0,1.0*30
$GPRMC,065723.362,A,1858.305,N,07249.166,E,000.0,000.0,170224,000.0,W*71
$GPGGA,065724.362,1858.305,N,07249.166,E,1,12,1.0,0.0,M,0.0,M,,*60
$GPGSA,A,3,01,02,03,04,05,06,07,08,09,10,11,12,1.0,1.0,1.0*30
$GPRMC,065724.362,A,1858.305,N,07249.166,E,000.0,000.0,170224,000.0,W*76
$GPGGA,065725.362,1858.305,N,07249.166,E,1,12,1.0,0.0,M,0.0,M,,*61
$GPGSA,A,3,01,02,03,04,05,06,07,08,09,10,11,12,1.0,1.0,1.0*30
$GPRMC,065725.362,A,1858.305,N,07249.166,E,000.0,000.0,170224,000.0,W*77
$GPGGA,065726.362,1858.305,N,07249.166,E,1,12,1.0,0.0,M,0.0,M,,*62
$GPGSA,A,3,01,02,03,04,05,06,07,08,09,10,11,12,1.0,1.0,1.0*30
$GPRMC,065726.362,A,1858.305,N,07249.166,E,000.0,000.0,170224,000.0,W*74
$GPGGA,065727.362,1858.305,N,07249.166,E,1,12,1.0,0.0,M,0.0,M,,*63
$GPGSA,A,3,01,02,03,04,05,06,07,08,09,10,11,12,1.0,1.0,1.0*30
$GPRMC,065727.362,A,1858.305,N,07249.166,E,000.0,000.0,170224,000.0,W*75
$GPGGA,065728.362,1858.305,N,07249.166,E,1,12,1.0,0.0,M,0.0,M,,*6C
$GPGSA,A,3,01,02,03,04,05,06,07,08,09,10,11,12,1.0,1.0,1.0*30
$GPRMC,065728.362,A,1858.305,N,07249.166,E,000.0,000.0,170224,000.0,W*7A
$GPGGA,065729.362,1858.305,N,07249.166,E,1,12,1.0,0.0,M,0.0,M,,*6D
$GPGSA,A,3,01,02,03,04,05,06,07,08,09,10,11,12,1.0,1.0,1.0*30
$GPRMC,065729.362,A,1858.305,N,07249.166,E,000.0,000.0,170224,000.0,W*7B
$GPGGA,065730.362,1858.305,N,07249.166,E,1,12,1.0,0.0,M,0.0,M,,*65
$GPGSA,A,3,01,02,03,04,05,06,07,08,09,10,11,12,1.0,1.0,1.0*30
$GPRMC,065730.362,A,1858.305,N,07249.166,E,000.0,000.0,170224,000.0,W*73
$GPGGA,065731.362,1858.305,N,07249.166,E,1,12,1.0,0.0,M,0.0,M,,*64
$GPGSA,A,3,01,02,03,04,05,06,07,08,09,10,11,12,1.0,1.0,1.0*30
$GPRMC,065731.362,A,1858.305,N,07249.166,E,000.0,000.0,170224,000.0,W*72
$GPGGA,065732.362,1858.305,N,07249.166,E,1,12,1.0,0.0,M,0.0,M,,*67
$GPGSA,A,3,01,02,03,04,05,06,07,08,09,10,11,12,1.0,1.0,1.0*30
$GPRMC,065732.362,A,1858.305,N,07249.166,E,000.0,000.0,170224,000.0,W*71
$GPGGA,065733.362,1858.305,N,07249.166,E,1,12,1.0,0.0,M,0.0,M,,*66
$GPGSA,A,3,01,02,03,04,05,06,07,08,09,10,11,12,1.0,1.0,1.0*30
$GPRMC,065733.362,A,1858.305,N,07249.166,E,000.0,000.0,170224,000.0,W*70
$GPGGA,065734.362,1858.305,N,07249.166,E,1,12,1.0,0.0,M,0.0,M,,*61
$GPGSA,A,3,01,02,03,04,05,06,07,08,09,10,11,12,1.0,1.0,1.0*30
$GPRMC,065734.362,A,1858.305,N,07249.166,E,000.0,000.0,170224,000.0,W*77
$GPGGA,065735.362,1858.305,N,07249.166,E,1,12,1.0,0.0,M,0.0,M,,*60
$GPGSA,A,3,01,02,03,04,05,06,07,08,09,10,11,12,1.0,1.0,1.0*30
$GPRMC,065735.362,A,1858.305,N,07249.166,E,000.0,000.0,170224,000.0,W*76
$GPGGA,065736.362,1858.305,N,07249.166,E,1,12,1.0,0.0,M,0.0,M,,*63
$GPGSA,A,3,01,02,03,04,05,06,07,08,09,10,11,12,1.0,1.0,1.0*30
$GPRMC,065736.362,A,1858.305,N,07249.166,E,000.0,000.0,170224,000.0,W*75
$GPGGA,065737.362,1858.305,N,07249.166,E,1,12,1.0,0.0,M,0.0,M,,*62
$GPGSA,A,3,01,02,03,04,05,06,07,08,09,10,11,12,1.0,1.0,1.0*30
$GPRMC,065737.362,A,1858.305,N,07249.166,E,000.0,000.0,170224,000.0,W*74
$GPGGA,065738.362,1858.305,N,07249.166,E,1,12,1.0,0.0,M,0.0,M,,*6D
$GPGSA,A,3,01,02,03,04,05,06,07,08,09,10,11,12,1.0,1.0,1.0*30
$GPRMC,065738.362,A,1858.305,N,07249.166,E,000.0,000.0,170224,000.0,W*7B
$GPGGA,065739.362,1858.305,N,07249.166,E,1,12,1.0,0.0,M,0.0,M,,*6C
$GPGSA,A,3,01,02,03,04,05,06,07,08,09,10,11,12,1.0,1.0,1.0*30
$GPRMC,065739.362,A,1858.305,N,07249.166,E,000.0,000.0,170224,000.0,W*7A
$GPGGA,065740.362,1858.305,N,07249.166,E,1,12,1.0,0.0,M,0.0,M,,*62
$GPGSA,A,3,01,02,03,04,05,06,07,08,09,10,11,12,1.0,1.0,1.0*30
$GPRMC,065740.362,A,1858.305,N,07249.166,E,000.0,000.0,170224,000.0,W*74
$GPGGA,065741.362,1858.305,N,07249.166,E,1,12,1.0,0.0,M,0.0,M,,*63
$GPGSA,A,3,01,02,03,04,05,06,07,08,09,10,11,12,1.0,1.0,1.0*30
$GPRMC,065741.362,A,1858.305,N,07249.166,E,000.0,000.0,170224,000.0,W*75
$GPGGA,065742.362,1858.305,N,07249.166,E,1,12,1.0,0.0,M,0.0,M,,*60
$GPGSA,A,3,01,02,03,04,05,06,07,08,09,10,11,12,1.0,1.0,1.0*30
$GPRMC,065742.362,A,1858.305,N,07249.166,E,000.0,000.0,170224,000.0,W*76
$GPGGA,065743.362,1858.305,N,07249.166,E,1,12,1.0,0.0,M,0.0,M,,*61
$GPGSA,A,3,01,02,03,04,05,06,07,08,09,10,11,12,1.0,1.0,1.0*30
$GPRMC,065743.362,A,1858.305,N,07249.166,E,000.0,000.0,170224,000.0,W*77
$GPGGA,065744.362,1858.305,N,07249.166,E,1,12,1.0,0.0,M,0.0,M,,*66
$GPGSA,A,3,01,02,03,04,05,06,07,08,09,10,11,12,1.0,1.0,1.0*30
$GPRMC,065744.362,A,1858.305,N,07249.166,E,000.0,000.0,170224,000.0,W*70
$GPGGA,065745.362,1858.305,N,07249.166,E,1,12,1.0,0.0,M,0.0,M,,*67
$GPGSA,A,3,01,02,03,04,05,06,07,08,09,10,11,12,1.0,1.0,1.0*30
$GPRMC,065745.362,A,1858.305,N,07249.166,E,000.0,000.0,170224,000.0,W*71
$GPGGA,065746.362,1858.305,N,07249.166,E,1,12,1.0,0.0,M,0.0,M,,*64
$GPGSA,A,3,01,02,03,04,05,06,07,08,09,10,11,12,1.0,1.0,1.0*30
$GPRMC,065746.362,A,1858.305,N,07249.166,E,000.0,000.0,170224,000.0,W*72
$GPGGA,065747.362,1858.305,N,07249.166,E,1,12,1.0,0.0,M,0.0,M,,*65
$GPGSA,A,3,01,02,03,04,05,06,07,08,09,10,11,12,1.0,1.0,1.0*30
$GPRMC,065747.362,A,1858.305,N,07249.166,E,000.0,000.0,170224,000.0,W*73
$GPGGA,065748.362,1858.305,N,07249.166,E,1,12,1.0,0.0,M,0.0,M,,*6A
$GPGSA,A,3,01,02,03,04,05,06,07,08,09,10,11,12,1.0,1.0,1.0*30
$GPRMC,065748.362,A,1858.305,N,07249.166,E,000.0,000.0,170224,000.0,W*7C
$GPGGA,065749.362,1858.305,N,07249.166,E,1,12,1.0,0.0,M,0.0,M,,*6B
$GPGSA,A,3,01,02,03,04,05,06,07,08,09,10,11,12,1.0,1.0,1.0*30
$GPRMC,065749.362,A,1858.305,N,07249.166,E,000.0,000.0,170224,000.0,W*7D
$GPGGA,065750.362,1858.305,N,07249.166,E,1,12,1.0,0.0,M,0.0,M,,*63
$GPGSA,A,3,01,02,03,04,05,06,07,08,09,10,11,12,1.0,1.0,1.0*30
$GPRMC,065750.362,A,1858.305,N,07249.166,E,000.0,000.0,170224,000.0,W*75
$GPGGA,065751.362,1858.305,N,07249.166,E,1,12,1.0,0.0,M,0.0,M,,*62
$GPGSA,A,3,01,02,03,04,05,06,07,08,09,10,11,12,1.0,1.0,1.0*30
$GPRMC,065751.362,A,1858.305,N,07249.166,E,000.0,000.0,170224,000.0,W*74
$GPGGA,065752.362,1858.305,N,07249.166,E,1,12,1.0,0.0,M,0.0,M,,*61
$GPGSA,A,3,01,02,03,04,05,06,07,08,09,10,11,12,1.0,1.0,1.0*30
$GPRMC,065752.362,A,1858.305,N,07249.166,E,000.0,000.0,170224,000.0,W*77
$GPGGA,065753.362,1858.305,N,07249.166,E,1,12,1.0,0.0,M,0.0,M,,*60
$GPGSA,A,3,01,02,03,04,05,06,07,08,09,10,11,12,1.0,1.0,1.0*30
$GPRMC,065753.362,A,1858.305,N,07249.166,E,000.0,000.0,170224,000.0,W*76
$GPGGA,065754.362,1858.305,N,07249.166,E,1,12,1.0,0.0,M,0.0,M,,*67
$GPGSA,A,3,01,02,03,04,05,06,07,08,09,10,11,12,1.0,1.0,1.0*30
$GPRMC,065754.362,A,1858.305,N,07249.166,E,000.0,000.0,170224,000.0,W*71
$GPGGA,065755.362,1858.305,N,07249.166,E,1,12,1.0,0.0,M,0.0,M,,*66
$GPGSA,A,3,01,02,03,04,05,06,07,08,09,10,11,12,1.0,1.0,1.0*30
$GPRMC,065755.362,A,1858.305,N,07249.166,E,000.5,270.0,170224,000.0,W*70
$GPGGA,065756.362,1858.305,N,07249.166,E,1,12,1.0,0.0,M,0.0,M,,*65
$GPGSA,A,3,01,02,03,04,05,06,07,08,09,10,11,12,1.0,1.0,1.0*30
$GPRMC,065756.362,A,1858.305,N,07249.166,E,000.5,000.0,170224,000.0,W*76
$GPGGA,065757.362,1858.305,N,07249.166,E,1,12,1.0,0.0,M,0.0,M,,*64
$GPGSA,A,3,01,02,03,04,05,06,07,08,09,10,11,12,1.0,1.0,1.0*30
$GPRMC,065757.362,A,1858.305,N,07249.166,E,000.0,000.0,170224,000.0,W*72
$GPGGA,065758.362,1858.305,N,07249.166,E,1,12,1.0,0.0,M,0.0,M,,*6B
$GPGSA,A,3,01,02,03,04,05,06,07,08,09,10,11,12,1.0,1.0,1.0*30
$GPRMC,065758.362,A,1858.305,N,07249.166,E,000.0,000.0,170224,000.0,W*7D
$GPGGA,065759.362,1858.305,N,07249.166,E,1,12,1.0,0.0,M,0.0,M,,*6A
$GPGSA,A,3,01,02,03,04,05,06,07,08,09,10,11,12,1.0,1.0,1.0*30
$GPRMC,065759.362,A,1858.305,N,07249.166,E,000.0,000.0,170224,000.0,W*7C
$GPGGA,065800.362,1858.305,N,07249.166,E,1,12,1.0,0.0,M,0.0,M,,*69
$GPGSA,A,3,01,02,03,04,05,06,07,08,09,10,11,12,1.0,1.0,1.0*30
$GPRMC,065800.362,A,1858.305,N,07249.166,E,000.0,000.0,170224,000.0,W*7F
$GPGGA,065801.362,1858.305,N,07249.166,E,1,12,1.0,0.0,M,0.0,M,,*68
$GPGSA,A,3,01,02,03,04,05,06,07,08,09,10,11,12,1.0,1.0,1.0*30
$GPRMC,065801.362,A,1858.305,N,07249.166,E,000.0,000.0,170224,000.0,W*7E
$GPGGA,065802.362,1858.305,N,07249.166,E,1,12,1.0,0.0,M,0.0,M,,*6B
$GPGSA,A,3,01,02,03,04,05,06,07,08,09,10,11,12,1.0,1.0,1.0*30
$GPRMC,065802.362,A,1858.305,N,07249.166,E,000.0,000.0,170224,000.0,W*7D
$GPGGA,065803.362,1858.305,N,07249.166,E,1,12,1.0,0.0,M,0.0,M,,*6A
$GPGSA,A,3,01,02,03,04,05,06,07,08,09,10,11,12,1.0,1.0,1.0*30
$GPRMC,065803.362,A,1858.305,N,07249.166,E,000.0,000.0,170224,000.0,W*7C
$GPGGA,065804.362,1858.305,N,07249.166,E,1,12,1.0,0.0,M,0.0,M,,*6D
$GPGSA,A,3,01,02,03,04,05,06,07,08,09,10,11,12,1.0,1.0,1.0*30
$GPRMC,065804.362,A,1858.305,N,07249.166,E,000.0,000.0,170224,000.0,W*7B
$GPGGA,065805.362,1858.305,N,07249.166,E,1,12,1.0,0.0,M,0.0,M,,*6C
$GPGSA,A,3,01,02,03,04,05,06,07,08,09,10,11,12,1.0,1.0,1.0*30
$GPRMC,065805.362,A,1858.305,N,07249.166,E,000.0,000.0,170224,000.0,W*7A
$GPGGA,065806.362,1858.305,N,07249.166,E,1,12,1.0,0.0,M,0.0,M,,*6F
$GPGSA,A,3,01,02,03,04,05,06,07,08,09,10,11,12,1.0,1.0,1.0*30
$GPRMC,065806.362,A,1858.305,N,07249.166,E,000.0,000.0,170224,000.0,W*79
$GPGGA,065807.362,1858.305,N,07249.166,E,1,12,1.0,0.0,M,0.0,M,,*6E
$GPGSA,A,3,01,02,03,04,05,06,07,08,09,10,11,12,1.0,1.0,1.0*30
$GPRMC,065807.362,A,1858.305,N,07249.166,E,000.0,000.0,170224,000.0,W*78
$GPGGA,065808.362,1858.305,N,07249.166,E,1,12,1.0,0.0,M,0.0,M,,*61
$GPGSA,A,3,01,02,03,04,05,06,07,08,09,10,11,12,1.0,1.0,1.0*30
$GPRMC,065808.362,A,1858.305,N,07249.166,E,000.0,000.0,170224,000.0,W*77
$GPGGA,065809.362,1858.305,N,07249.166,E,1,12,1.0,0.0,M,0.0,M,,*60
$GPGSA,A,3,01,02,03,04,05,06,07,08,09,10,11,12,1.0,1.0,1.0*30
$GPRMC,065809.362,A,1858.305,N,07249.166,E,000.0,000.0,170224,000.0,W*76
$GPGGA,065810.362,1858.305,N,07249.166,E,1,12,1.0,0.0,M,0.0,M,,*68
$GPGSA,A,3,01,02,03,04,05,06,07,08,09,10,11,12,1.0,1.0,1.0*30
$GPRMC,065810.362,A,1858.305,N,07249.166,E,000.0,000.0,170224,000.0,W*7E
$GPGGA,065811.362,1858.305,N,07249.166,E,1,12,1.0,0.0,M,0.0,M,,*69
$GPGSA,A,3,01,02,03,04,05,06,07,08,09,10,11,12,1.0,1.0,1.0*30
$GPRMC,065811.362,A,1858.305,N,07249.166,E,000.0,000.0,170224,000.0,W*7F
$GPGGA,065812.362,1858.305,N,07249.166,E,1,12,1.0,0.0,M,0.0,M,,*6A
$GPGSA,A,3,01,02,03,04,05,06,07,08,09,10,11,12,1.0,1.0,1.0*30
$GPRMC,065812.362,A,1858.305,N,07249.166,E,000.0,000.0,170224,000.0,W*7C
$GPGGA,065813.362,1858.305,N,07249.166,E,1,12,1.0,0.0,M,0.0,M,,*6B
$GPGSA,A,3,01,02,03,04,05,06,07,08,09,10,11,12,1.0,1.0,1.0*30
$GPRMC,065813.362,A,1858.305,N,07249.166,E,000.0,000.0,170224,000.0,W*7D
$GPGGA,065814.362,1858.305,N,07249.166,E,1,12,1.0,0.0,M,0.0,M,,*6C
$GPGSA,A,3,01,02,03,04,05,06,07,08,09,10,11,12,1.0,1.0,1.0*30
$GPRMC,065814.362,A,1858.305,N,07249.166,E,000.0,000.0,170224,000.0,W*7A
$GPGGA,065815.362,1858.305,N,07249.166,E,1,12,1.0,0.0,M,0.0,M,,*6D
$GPGSA,A,3,01,02,03,04,05,06,07,08,09,10,11,12,1.0,1.0,1.0*30
$GPRMC,065815.362,A,1858.305,N,07249.166,E,000.0,000.0,170224,000.0,W*7B
$GPGGA,065816.362,1858.305,N,07249.166,E,1,12,1.0,0.0,M,0.0,M,,*6E
$GPGSA,A,3,01,02,03,04,05,06,07,08,09,10,11,12,1.0,1.0,1.0*30
$GPRMC,065816.362,A,1858.305,N,07249.166,E,000.0,000.0,170224,000.0,W*78
$GPGGA,065817.362,1858.305,N,07249.166,E,1,12,1.0,0.0,M,0.0,M,,*6F
$GPGSA,A,3,01,02,03,04,05,06,07,08,09,10,11,12,1.0,1.0,1.0*30
$GPRMC,065817.362,A,1858.305,N,07249.166,E,000.0,000.0,170224,000.0,W*79
$GPGGA,065818.362,1858.305,N,07249.166,E,1,12,1.0,0.0,M,0.0,M,,*60
$GPGSA,A,3,01,02,03,04,05,06,07,08,09,10,11,12,1.0,1.0,1.0*30
$GPRMC,065818.362,A,1858.305,N,07249.166,E,000.0,000.0,170224,000.0,W*76
$GPGGA,065819.362,1858.305,N,07249.166,E,1,12,1.0,0.0,M,0.0,M,,*61
$GPGSA,A,3,01,02,03,04,05,06,07,08,09,10,11,12,1.0,1.0,1.0*30
$GPRMC,065819.362,A,1858.305,N,07249.166,E,000.0,000.0,170224,000.0,W*77
$GPGGA,065820.362,1858.305,N,07249.166,E,1,12,1.0,0.0,M,0.0,M,,*6B
$GPGSA,A,3,01,02,03,04,05,06,07,08,09,10,11,12,1.0,1.0,1.0*30
$GPRMC,065820.362,A,1858.305,N,07249.166,E,000.0,000.0,170224,000.0,W*7D
$GPGGA,065821.362,1858.305,N,07249.166,E,1,12,1.0,0.0,M,0.0,M,,*6A
$GPGSA,A,3,01,02,03,04,05,06,07,08,09,10,11,12,1.0,1.0,1.0*30
$GPRMC,065821.362,A,1858.305,N,07249.166,E,000.0,000.0,170224,000.0,W*7C
$GPGGA,065822.362,1858.305,N,07249.166,E,1,12,1.0,0.0,M,0.0,M,,*69
$GPGSA,A,3,01,02,03,04,05,06,07,08,09,10,11,12,1.0,1.0,1.0*30
$GPRMC,065822.362,A,1858.305,N,07249.166,E,000.0,000.0,170224,000.0,W*7F
$GPGGA,065823.362,1858.305,N,07249.166,E,1,12,1.0,0.0,M,0.0,M,,*68
$GPGSA,A,3,01,02,03,04,05,06,07,08,09,10,11,12,1.0,1.0,1.0*30
$GPRMC,065823.362,A,1858.305,N,07249.166,E,000.0,000.0,170224,000.0,W*7E
$GPGGA,065824.362,1858.305,N,07249.166,E,1,12,1.0,0.0,M,0.0,M,,*6F
$GPGSA,A,3,01,02,03,04,05,06,07,08,09,10,11,12,1.0,1.0,1.0*30
$GPRMC,065824.362,A,1858.305,N,07249.166,E,000.5,090.0,170224,000.0,W*75
$GPGGA,065825.362,1858.305,N,07249.166,E,1,12,1.0,0.0,M,0.0,M,,*6E
$GPGSA,A,3,01,02,03,04,05,06,07,08,09,10,11,12,1.0,1.0,1.0*30
$GPRMC,065825.362,A,1858.305,N,07249.166,E,000.5,000.0,170224,000.0,W*7D
$GPGGA,065826.362,1858.305,N,07249.166,E,1,12,1.0,0.0,M,0.0,M,,*6D
$GPGSA,A,3,01,02,03,04,05,06,07,08,09,10,11,12,1.0,1.0,1.0*30
$GPRMC,065826.362,A,1858.305,N,07249.166,E,000.0,000.0,170224,000.0,W*7B
$GPGGA,065827.362,1858.305,N,07249.166,E,1,12,1.0,0.0,M,0.0,M,,*6C
$GPGSA,A,3,01,02,03,04,05,06,07,08,09,10,11,12,1.0,1.0,1.0*30
$GPRMC,065827.362,A,1858.305,N,07249.166,E,000.0,000.0,170224,000.0,W*7A
$GPGGA,065828.362,1858.305,N,07249.166,E,1,12,1.0,0.0,M,0.0,M,,*63
$GPGSA,A,3,01,02,03,04,05,06,07,08,09,10,11,12,1.0,1.0,1.0*30
$GPRMC,065828.362,A,1858.305,N,07249.166,E,000.0,000.0,170224,000.0,W*75
$GPGGA,065829.362,1858.305,N,07249.166,E,1,12,1.0,0.0,M,0.0,M,,*62
$GPGSA,A,3,01,02,03,04,05,06,07,08,09,10,11,12,1.0,1.0,1.0*30
$GPRMC,065829.362,A,1858.305,N,07249.166,E,000.0,000.0,170224,000.0,W*74
$GPGGA,065830.362,1858.305,N,07249.166,E,1,12,1.0,0.0,M,0.0,M,,*6A
$GPGSA,A,3,01,02,03,04,05,06,07,08,09,10,11,12,1.0,1.0,1.0*30
$GPRMC,065830.362,A,1858.305,N,07249.166,E,000.0,000.0,170224,000.0,W*7C
$GPGGA,065831.362,1858.305,N,07249.166,E,1,12,1.0,0.0,M,0.0,M,,*6B
$GPGSA,A,3,01,02,03,04,05,06,07,08,09,10,11,12,1.0,1.0,1.0*30
$GPRMC,065831.362,A,1858.305,N,07249.166,E,000.0,000.0,170224,000.0,W*7D
$GPGGA,065832.362,1858.305,N,07249.166,E,1,12,1.0,0.0,M,0.0,M,,*68
$GPGSA,A,3,01,02,03,04,05,06,07,08,09,10,11,12,1.0,1.0,1.0*30
$GPRMC,065832.362,A,1858.305,N,07249.166,E,000.0,000.0,170224,000.0,W*7E
$GPGGA,065833.362,1858.305,N,07249.166,E,1,12,1.0,0.0,M,0.0,M,,*69
$GPGSA,A,3,01,02,03,04,05,06,07,08,09,10,11,12,1.0,1.0,1.0*30
$GPRMC,065833.362,A,1858.305,N,07249.166,E,000.0,000.0,170224,000.0,W*7F
$GPGGA,065834.362,1858.305,N,07249.166,E,1,12,1.0,0.0,M,0.0,M,,*6E
$GPGSA,A,3,01,02,03,04,05,06,07,08,09,10,11,12,1.0,1.0,1.0*30
$GPRMC,065834.362,A,1858.305,N,07249.166,E,000.0,000.0,170224,000.0,W*78
$GPGGA,065835.362,1858.305,N,07249.166,E,1,12,1.0,0.0,M,0.0,M,,*6F
$GPGSA,A,3,01,02,03,04,05,06,07,08,09,10,11,12,1.0,1.0,1.0*30
$GPRMC,065835.362,A,1858.305,N,07249.166,E,000.0,000.0,170224,000.0,W*79
$GPGGA,065836.362,1858.305,N,07249.166,E,1,12,1.0,0.0,M,0.0,M,,*6C
$GPGSA,A,3,01,02,03,04,05,06,07,08,09,10,11,12,1.0,1.0,1.0*30
$GPRMC,065836.362,A,1858.305,N,07249.166,E,000.0,000.0,170224,000.0,W*7A
$GPGGA,065837.362,1858.305,N,07249.166,E,1,12,1.0,0.0,M,0.0,M,,*6D
$GPGSA,A,3,01,02,03,04,05,06,07,08,09,10,11,12,1.0,1.0,1.0*30
$GPRMC,065837.362,A,1858.305,N,07249.166,E,000.5,180.0,170224,000.0,W*77
$GPGGA,065838.362,1858.305,N,07249.166,E,1,12,1.0,0.0,M,0.0,M,,*62
$GPGSA,A,3,01,02,03,04,05,06,07,08,09,10,11,12,1.0,1.0,1.0*30
$GPRMC,065838.362,A,1858.305,N,07249.166,E,000.5,000.0,170224,000.0,W*71
$GPGGA,065839.362,1858.305,N,07249.166,E,1,12,1.0,0.0,M,0.0,M,,*63
$GPGSA,A,3,01,02,03,04,05,06,07,08,09,10,11,12,1.0,1.0,1.0*30
$GPRMC,065839.362,A,1858.305,N,07249.166,E,000.0,000.0,170224,000.0,W*75
$GPGGA,065840.362,1858.305,N,07249.166,E,1,12,1.0,0.0,M,0.0,M,,*6D
$GPGSA,A,3,01,02,03,04,05,06,07,08,09,10,11,12,1.0,1.0,1.0*30
$GPRMC,065840.362,A,1858.305,N,07249.166,E,000.0,000.0,170224,000.0,W*7B
$GPGGA,065841.362,1858.305,N,07249.166,E,1,12,1.0,0.0,M,0.0,M,,*6C
$GPGSA,A,3,01,02,03,04,05,06,07,08,09,10,11,12,1.0,1.0,1.0*30
$GPRMC,065841.362,A,1858.305,N,07249.166,E,000.0,000.0,170224,000.0,W*7A
$GPGGA,065842.362,1858.305,N,07249.166,E,1,12,1.0,0.0,M,0.0,M,,*6F
$GPGSA,A,3,01,02,03,04,05,06,07,08,09,10,11,12,1.0,1.0,1.0*30
$GPRMC,065842.362,A,1858.305,N,07249.166,E,000.0,000.0,170224,000.0,W*79
$GPGGA,065843.362,1858.305,N,07249.166,E,1,12,1.0,0.0,M,0.0,M,,*6E
$GPGSA,A,3,01,02,03,04,05,06,07,08,09,10,11,12,1.0,1.0,1.0*30
$GPRMC,065843.362,A,1858.305,N,07249.166,E,000.0,000.0,170224,000.0,W*78
$GPGGA,065844.362,1858.305,N,07249.166,E,1,12,1.0,0.0,M,0.0,M,,*69
$GPGSA,A,3,01,02,03,04,05,06,07,08,09,10,11,12,1.0,1.0,1.0*30
$GPRMC,065844.362,A,1858.305,N,07249.166,E,000.0,000.0,170224,000.0,W*7F
$GPGGA,065845.362,1858.305,N,07249.166,E,1,12,1.0,0.0,M,0.0,M,,*68
$GPGSA,A,3,01,02,03,04,05,06,07,08,09,10,11,12,1.0,1.0,1.0*30
$GPRMC,065845.362,A,1858.305,N,07249.166,E,000.0,000.0,170224,000.0,W*7E
$GPGGA,065846.362,1858.305,N,07249.166,E,1,12,1.0,0.0,M,0.0,M,,*6B
$GPGSA,A,3,01,02,03,04,05,06,07,08,09,10,11,12,1.0,1.0,1.0*30
$GPRMC,065846.362,A,1858.305,N,07249.166,E,000.0,000.0,170224,000.0,W*7D
$GPGGA,065847.362,1858.305,N,07249.166,E,1,12,1.0,0.0,M,0.0,M,,*6A
$GPGSA,A,3,01,02,03,04,05,06,07,08,09,10,11,12,1.0,1.0,1.0*30
$GPRMC,065847.362,A,1858.305,N,07249.166,E,000.0,000.0,170224,000.0,W*7C
$GPGGA,065848.362,1858.305,N,07249.166,E,1,12,1.0,0.0,M,0.0,M,,*65
$GPGSA,A,3,01,02,03,04,05,06,07,08,09,10,11,12,1.0,1.0,1.0*30
$GPRMC,065848.362,A,1858.305,N,07249.166,E,000.0,000.0,170224,000.0,W*73
$GPGGA,065849.362,1858.305,N,07249.166,E,1,12,1.0,0.0,M,0.0,M,,*64
$GPGSA,A,3,01,02,03,04,05,06,07,08,09,10,11,12,1.0,1.0,1.0*30
$GPRMC,065849.362,A,1858.305,N,07249.166,E,000.0,000.0,170224,000.0,W*72
$GPGGA,065850.362,1858.305,N,07249.166,E,1,12,1.0,0.0,M,0.0,M,,*6C
$GPGSA,A,3,01,02,03,04,05,06,07,08,09,10,11,12,1.0,1.0,1.0*30
$GPRMC,065850.362,A,1858.305,N,07249.166,E,000.0,000.0,170224,000.0,W*7A
$GPGGA,065851.362,1858.305,N,07249.166,E,1,12,1.0,0.0,M,0.0,M,,*6D
$GPGSA,A,3,01,02,03,04,05,06,07,08,09,10,11,12,1.0,1.0,1.0*30
$GPRMC,065851.362,A,1858.305,N,07249.166,E,000.0,000.0,170224,000.0,W*7B
$GPGGA,065852.362,1858.305,N,07249.166,E,1,12,1.0,0.0,M,0.0,M,,*6E
$GPGSA,A,3,01,02,03,04,05,06,07,08,09,10,11,12,1.0,1.0,1.0*30
$GPRMC,065852.362,A,1858.305,N,07249.166,E,000.0,000.0,170224,000.0,W*78
$GPGGA,065853.362,1858.305,N,07249.166,E,1,12,1.0,0.0,M,0.0,M,,*6F
$GPGSA,A,3,01,02,03,04,05,06,07,08,09,10,11,12,1.0,1.0,1.0*30
$GPRMC,065853.362,A,1858.305,N,07249.166,E,000.0,000.0,170224,000.0,W*79
$GPGGA,065854.362,1858.305,N,07249.166,E,1,12,1.0,0.0,M,0.0,M,,*68
$GPGSA,A,3,01,02,03,04,05,06,07,08,09,10,11,12,1.0,1.0,1.0*30
$GPRMC,065854.362,A,1858.305,N,07249.166,E,000.0,000.0,170224,000.0,W*7E
$GPGGA,065855.362,1858.305,N,07249.166,E,1,12,1.0,0.0,M,0.0,M,,*69
$GPGSA,A,3,01,02,03,04,05,06,07,08,09,10,11,12,1.0,1.0,1.0*30
$GPRMC,065855.362,A,1858.305,N,07249.166,E,000.0,000.0,170224,000.0,W*7F
$GPGGA,065856.362,1858.305,N,07249.166,E,1,12,1.0,0.0,M,0.0,M,,*6A
$GPGSA,A,3,01,02,03,04,05,06,07,08,09,10,11,12,1.0,1.0,1.0*30
$GPRMC,065856.362,A,1858.305,N,07249.166,E,000.0,000.0,170224,000.0,W*7C
$GPGGA,065857.362,1858.305,N,07249.166,E,1,12,1.0,0.0,M,0.0,M,,*6B
$GPGSA,A,3,01,02,03,04,05,06,07,08,09,10,11,12,1.0,1.0,1.0*30
$GPRMC,065857.362,A,1858.305,N,07249.166,E,000.0,000.0,170224,000.0,W*7D
$GPGGA,065858.362,1858.305,N,07249.166,E,1,12,1.0,0.0,M,0.0,M,,*64
$GPGSA,A,3,01,02,03,04,05,06,07,08,09,10,11,12,1.0,1.0,1.0*30
$GPRMC,065858.362,A,1858.305,N,07249.166,E,000.0,000.0,170224,000.0,W*72
$GPGGA,065859.362,1858.305,N,07249.166,E,1,12,1.0,0.0,M,0.0,M,,*65
$GPGSA,A,3,01,02,03,04,05,06,07,08,09,10,11,12,1.0,1.0,1.0*30
$GPRMC,065859.362,A,1858.305,N,07249.166,E,000.0,000.0,170224,000.0,W*73
$GPGGA,065900.362,1858.305,N,07249.166,E,1,12,1.0,0.0,M,0.0,M,,*68
$GPGSA,A,3,01,02,03,04,05,06,07,08,09,10,11,12,1.0,1.0,1.0*30
$GPRMC,065900.362,A,1858.305,N,07249.166,E,000.0,000.0,170224,000.0,W*7E
$GPGGA,065901.362,1858.305,N,07249.166,E,1,12,1.0,0.0,M,0.0,M,,*69
$GPGSA,A,3,01,02,03,04,05,06,07,08,09,10,11,12,1.0,1.0,1.0*30
$GPRMC,065901.362,A,1858.305,N,07249.166,E,000.0,000.0,170224,000.0,W*7F
$GPGGA,065902.362,1858.305,N,07249.166,E,1,12,1.0,0.0,M,0.0,M,,*6A
$GPGSA,A,3,01,02,03,04,05,06,07,08,09,10,11,12,1.0,1.0,1.0*30
$GPRMC,065902.362,A,1858.305,N,07249.166,E,000.0,000.0,170224,000.0,W*7C
$GPGGA,065903.362,1858.305,N,07249.166,E,1,12,1.0,0.0,M,0.0,M,,*6B
$GPGSA,A,3,01,02,03,04,05,06,07,08,09,10,11,12,1.0,1.0,1.0*30
$GPRMC,065903.362,A,1858.305,N,07249.166,E,000.0,000.0,170224,000.0,W*7D
$GPGGA,065904.362,1858.305,N,07249.166,E,1,12,1.0,0.0,M,0.0,M,,*6C
$GPGSA,A,3,01,02,03,04,05,06,07,08,09,10,11,12,1.0,1.0,1.0*30
$GPRMC,065904.362,A,1858.305,N,07249.166,E,000.0,000.0,170224,000.0,W*7A
$GPGGA,065905.362,1858.305,N,07249.166,E,1,12,1.0,0.0,M,0.0,M,,*6D
$GPGSA,A,3,01,02,03,04,05,06,07,08,09,10,11,12,1.0,1.0,1.0*30
$GPRMC,065905.362,A,1858.305,N,07249.166,E,000.0,000.0,170224,000.0,W*7B
$GPGGA,065906.362,1858.305,N,07249.166,E,1,12,1.0,0.0,M,0.0,M,,*6E
$GPGSA,A,3,01,02,03,04,05,06,07,08,09,10,11,12,1.0,1.0,1.0*30
$GPRMC,065906.362,A,1858.305,N,07249.166,E,000.0,000.0,170224,000.0,W*78
$GPGGA,065907.362,1858.305,N,07249.166,E,1,12,1.0,0.0,M,0.0,M,,*6F
$GPGSA,A,3,01,02,03,04,05,06,07,08,09,10,11,12,1.0,1.0,1.0*30
$GPRMC,065907.362,A,1858.305,N,07249.166,E,000.0,000.0,170224,000.0,W*79
$GPGGA,065908.362,1858.305,N,07249.166,E,1,12,1.0,0.0,M,0.0,M,,*60
$GPGSA,A,3,01,02,03,04,05,06,07,08,09,10,11,12,1.0,1.0,1.0*30
$GPRMC,065908.362,A,1858.305,N,07249.166,E,000.0,000.0,170224,000.0,W*76
$GPGGA,065909.362,1858.305,N,07249.166,E,1,12,1.0,0.0,M,0.0,M,,*61
$GPGSA,A,3,01,02,03,04,05,06,07,08,09,10,11,12,1.0,1.0,1.0*30
$GPRMC,065909.362,A,1858.305,N,07249.166,E,000.0,000.0,170224,000.0,W*77
$GPGGA,065910.362,1858.305,N,07249.166,E,1,12,1.0,0.0,M,0.0,M,,*69
$GPGSA,A,3,01,02,03,04,05,06,07,08,09,10,11,12,1.0,1.0,1.0*30
$GPRMC,065910.362,A,1858.305,N,07249.166,E,000.0,000.0,170224,000.0,W*7F
$GPGGA,065911.362,1858.305,N,07249.166,E,1,12,1.0,0.0,M,0.0,M,,*68
$GPGSA,A,3,01,02,03,04,05,06,07,08,09,10,11,12,1.0,1.0,1.0*30
$GPRMC,065911.362,A,1858.305,N,07249.166,E,000.0,000.0,170224,000.0,W*7E
$GPGGA,065912.362,1858.305,N,07249.166,E,1,12,1.0,0.0,M,0.0,M,,*6B
$GPGSA,A,3,01,02,03,04,05,06,07,08,09,10,11,12,1.0,1.0,1.0*30
$GPRMC,065912.362,A,1858.305,N,07249.166,E,000.0,000.0,170224,000.0,W*7D
$GPGGA,065913.362,1858.305,N,07249.166,E,1,12,1.0,0.0,M,0.0,M,,*6A
$GPGSA,A,3,01,02,03,04,05,06,07,08,09,10,11,12,1.0,1.0,1.0*30
$GPRMC,065913.362,A,1858.305,N,07249.166,E,000.0,000.0,170224,000.0,W*7C
$GPGGA,065914.362,1858.305,N,07249.166,E,1,12,1.0,0.0,M,0.0,M,,*6D
$GPGSA,A,3,01,02,03,04,05,06,07,08,09,10,11,12,1.0,1.0,1.0*30
$GPRMC,065914.362,A,1858.305,N,07249.166,E,000.0,000.0,170224,000.0,W*7B
$GPGGA,065915.362,1858.305,N,07249.166,E,1,12,1.0,0.0,M,0.0,M,,*6C
$GPGSA,A,3,01,02,03,04,05,06,07,08,09,10,11,12,1.0,1.0,1.0*30
$GPRMC,065915.362,A,1858.305,N,07249.166,E,000.0,000.0,170224,000.0,W*7A
$GPGGA,065916.362,1858.305,N,07249.166,E,1,12,1.0,0.0,M,0.0,M,,*6F
$GPGSA,A,3,01,02,03,04,05,06,07,08,09,10,11,12,1.0,1.0,1.0*30
$GPRMC,065916.362,A,1858.305,N,07249.166,E,000.0,000.0,170224,000.0,W*79
$GPGGA,065917.362,1858.305,N,07249.166,E,1,12,1.0,0.0,M,0.0,M,,*6E
$GPGSA,A,3,01,02,03,04,05,06,07,08,09,10,11,12,1.0,1.0,1.0*30
$GPRMC,065917.362,A,1858.305,N,07249.166,E,000.0,000.0,170224,000.0,W*78
$GPGGA,065918.362,1858.305,N,07249.166,E,1,12,1.0,0.0,M,0.0,M,,*61
$GPGSA,A,3,01,02,03,04,05,06,07,08,09,10,11,12,1.0,1.0,1.0*30
$GPRMC,065918.362,A,1858.305,N,07249.166,E,000.0,000.0,170224,000.0,W*77
$GPGGA,065919.362,1858.305,N,07249.166,E,1,12,1.0,0.0,M,0.0,M,,*60
$GPGSA,A,3,01,02,03,04,05,06,07,08,09,10,11,12,1.0,1.0,1.0*30
$GPRMC,065919.362,A,1858.305,N,07249.166,E,000.0,000.0,170224,000.0,W*76
$GPGGA,065920.362,1858.305,N,07249.166,E,1,12,1.0,0.0,M,0.0,M,,*6A
$GPGSA,A,3,01,02,03,04,05,06,07,08,09,10,11,12,1.0,1.0,1.0*30
$GPRMC,065920.362,A,1858.305,N,07249.166,E,000.0,000.0,170224,000.0,W*7C
$GPGGA,065921.362,1858.305,N,07249.166,E,1,12,1.0,0.0,M,0.0,M,,*6B
$GPGSA,A,3,01,02,03,04,05,06,07,08,09,10,11,12,1.0,1.0,1.0*30
$GPRMC,065921.362,A,1858.305,N,07249.166,E,000.0,000.0,170224,000.0,W*7D
$GPGGA,065922.362,1858.305,N,07249.166,E,1,12,1.0,0.0,M,0.0,M,,*68
$GPGSA,A,3,01,02,03,04,05,06,07,08,09,10,11,12,1.0,1.0,1.0*30
$GPRMC,065922.362,A,1858.305,N,07249.166,E,000.0,000.0,170224,000.0,W*7E
$GPGGA,065923.362,1858.305,N,07249.166,E,1,12,1.0,0.0,M,0.0,M,,*69
$GPGSA,A,3,01,02,03,04,05,06,07,08,09,10,11,12,1.0,1.0,1.0*30
$GPRMC,065923.362,A,1858.305,N,07249.166,E,000.0,000.0,170224,000.0,W*7F
$GPGGA,065924.362,1858.305,N,07249.166,E,1,12,1.0,0.0,M,0.0,M,,*6E
$GPGSA,A,3,01,02,03,04,05,06,07,08,09,10,11,12,1.0,1.0,1.0*30
$GPRMC,065924.362,A,1858.305,N,07249.166,E,000.0,000.0,170224,000.0,W*78
$GPGGA,065925.362,1858.305,N,07249.166,E,1,12,1.0,0.0,M,0.0,M,,*6F
$GPGSA,A,3,01,02,03,04,05,06,07,08,09,10,11,12,1.0,1.0,1.0*30
$GPRMC,065925.362,A,1858.305,N,07249.166,E,000.0,000.0,170224,000.0,W*79
$GPGGA,065926.362,1858.305,N,07249.166,E,1,12,1.0,0.0,M,0.0,M,,*6C
$GPGSA,A,3,01,02,03,04,05,06,07,08,09,10,11,12,1.0,1.0,1.0*30
$GPRMC,065926.362,A,1858.305,N,07249.166,E,000.0,000.0,170224,000.0,W*7A
$GPGGA,065927.362,1858.305,N,07249.166,E,1,12,1.0,0.0,M,0.0,M,,*6D
$GPGSA,A,3,01,02,03,04,05,06,07,08,09,10,11,12,1.0,1.0,1.0*30
$GPRMC,065927.362,A,1858.305,N,07249.166,E,000.0,000.0,170224,000.0,W*7B
$GPGGA,065928.362,1858.305,N,07249.166,E,1,12,1.0,0.0,M,0.0,M,,*62
$GPGSA,A,3,01,02,03,04,05,06,07,08,09,10,11,12,1.0,1.0,1.0*30
$GPRMC,065928.362,A,1858.305,N,07249.166,E,000.0,000.0,170224,000.0,W*74
$GPGGA,065929.362,1858.305,N,07249.166,E,1,12,1.0,0.0,M,0.0,M,,*63
$GPGSA,A,3,01,02,03,04,05,06,07,08,09,10,11,12,1.0,1.0,1.0*30
$GPRMC,065929.362,A,1858.305,N,07249.166,E,000.0,000.0,170224,000.0,W*75
$GPGGA,065930.362,1858.305,N,07249.166,E,1,12,1.0,0.0,M,0.0,M,,*6B
$GPGSA,A,3,01,02,03,04,05,06,07,08,09,10,11,12,1.0,1.0,1.0*30
$GPRMC,065930.362,A,1858.305,N,07249.166,E,000.0,000.0,170224,000.0,W*7D
$GPGGA,065931.362,1858.305,N,07249.166,E,1,12,1.0,0.0,M,0.0,M,,*6A
$GPGSA,A,3,01,02,03,04,05,06,07,08,09,10,11,12,1.0,1.0,1.0*30
$GPRMC,065931.362,A,1858.305,N,07249.166,E,000.0,000.0,170224,000.0,W*7C
$GPGGA,065932.362,1858.305,N,07249.166,E,1,12,1.0,0.0,M,0.0,M,,*69
$GPGSA,A,3,01,02,03,04,05,06,07,08,09,10,11,12,1.0,1.0,1.0*30
$GPRMC,065932.362,A,1858.305,N,07249.166,E,000.0,000.0,170224,000.0,W*7F
$GPGGA,065933.362,1858.305,N,07249.166,E,1,12,1.0,0.0,M,0.0,M,,*68
$GPGSA,A,3,01,02,03,04,05,06,07,08,09,10,11,12,1.0,1.0,1.0*30
$GPRMC,065933.362,A,1858.305,N,07249.166,E,000.0,000.0,170224,000.0,W*7E
$GPGGA,065934.362,1858.305,N,07249.166,E,1,12,1.0,0.0,M,0.0,M,,*6F
$GPGSA,A,3,01,02,03,04,05,06,07,08,09,10,11,12,1.0,1.0,1.0*30
$GPRMC,065934.362,A,1858.305,N,07249.166,E,000.0,000.0,170224,000.0,W*79
$GPGGA,065935.362,1858.305,N,07249.166,E,1,12,1.0,0.0,M,0.0,M,,*6E
$GPGSA,A,3,01,02,03,04,05,06,07,08,09,10,11,12,1.0,1.0,1.0*30
$GPRMC,065935.362,A,1858.305,N,07249.166,E,000.0,000.0,170224,000.0,W*78
$GPGGA,065936.362,1858.305,N,07249.166,E,1,12,1.0,0.0,M,0.0,M,,*6D
$GPGSA,A,3,01,02,03,04,05,06,07,08,09,10,11,12,1.0,1.0,1.0*30
$GPRMC,065936.362,A,1858.305,N,07249.166,E,000.0,000.0,170224,000.0,W*7B
$GPGGA,065937.362,1858.305,N,07249.166,E,1,12,1.0,0.0,M,0.0,M,,*6C
$GPGSA,A,3,01,02,03,04,05,06,07,08,09,10,11,12,1.0,1.0,1.0*30
$GPRMC,065937.362,A,1858.305,N,07249.166,E,000.0,000.0,170224,000.0,W*7A
$GPGGA,065938.362,1858.305,N,07249.166,E,1,12,1.0,0.0,M,0.0,M,,*63
$GPGSA,A,3,01,02,03,04,05,06,07,08,09,10,11,12,1.0,1.0,1.0*30
$GPRMC,065938.362,A,1858.305,N,07249.166,E,000.0,000.0,170224,000.0,W*75
$GPGGA,065939.362,1858.305,N,07249.166,E,1,12,1.0,0.0,M,0.0,M,,*62
$GPGSA,A,3,01,02,03,04,05,06,07,08,09,10,11,12,1.0,1.0,1.0*30
$GPRMC,065939.362,A,1858.305,N,07249.166,E,000.0,000.0,170224,000.0,W*74
$GPGGA,065940.362,1858.305,N,07249.166,E,1,12,1.0,0.0,M,0.0,M,,*6C
$GPGSA,A,3,01,02,03,04,05,06,07,08,09,10,11,12,1.0,1.0,1.0*30
$GPRMC,065940.362,A,1858.305,N,07249.166,E,000.0,000.0,170224,000.0,W*7A
$GPGGA,065941.362,1858.305,N,07249.166,E,1,12,1.0,0.0,M,0.0,M,,*6D
$GPGSA,A,3,01,02,03,04,05,06,07,08,09,10,11,12,1.0,1.0,1.0*30
$GPRMC,065941.362,A,1858.305,N,07249.166,E,000.0,000.0,170224,000.0,W*7B
$GPGGA,065942.362,1858.305,N,07249.166,E,1,12,1.0,0.0,M,0.0,M,,*6E
$GPGSA,A,3,01,02,03,04,05,06,07,08,09,10,11,12,1.0,1.0,1.0*30
$GPRMC,065942.362,A,1858.305,N,07249.166,E,000.0,000.0,170224,000.0,W*78
$GPGGA,065943.362,1858.305,N,07249.166,E,1,12,1.0,0.0,M,0.0,M,,*6F
$GPGSA,A,3,01,02,03,04,05,06,07,08,09,10,11,12,1.0,1.0,1.0*30
$GPRMC,065943.362,A,1858.305,N,07249.166,E,000.0,000.0,170224,000.0,W*79
$GPGGA,065944.362,1858.305,N,07249.166,E,1,12,1.0,0.0,M,0.0,M,,*68
$GPGSA,A,3,01,02,03,04,05,06,07,08,09,10,11,12,1.0,1.0,1.0*30
$GPRMC,065944.362,A,1858.305,N,07249.166,E,000.0,000.0,170224,000.0,W*7E
$GPGGA,065945.362,1858.305,N,07249.166,E,1,12,1.0,0.0,M,0.0,M,,*69
$GPGSA,A,3,01,02,03,04,05,06,07,08,09,10,11,12,1.0,1.0,1.0*30
$GPRMC,065945.362,A,1858.305,N,07249.166,E,000.0,000.0,170224,000.0,W*7F
$GPGGA,065946.362,1858.305,N,07249.166,E,1,12,1.0,0.0,M,0.0,M,,*6A
$GPGSA,A,3,01,02,03,04,05,06,07,08,09,10,11,12,1.0,1.0,1.0*30
$GPRMC,065946.362,A,1858.305,N,07249.166,E,000.0,000.0,170224,000.0,W*7C
$GPGGA,065947.362,1858.305,N,07249.166,E,1,12,1.0,0.0,M,0.0,M,,*6B
$GPGSA,A,3,01,02,03,04,05,06,07,08,09,10,11,12,1.0,1.0,1.0*30
$GPRMC,065947.362,A,1858.305,N,07249.166,E,000.0,000.0,170224,000.0,W*7D
$GPGGA,065948.362,1858.305,N,07249.166,E,1,12,1.0,0.0,M,0.0,M,,*64
$GPGSA,A,3,01,02,03,04,05,06,07,08,09,10,11,12,1.0,1.0,1.0*30
$GPRMC,065948.362,A,1858.305,N,07249.166,E,000.0,000.0,170224,000.0,W*72
$GPGGA,065949.362,1858.305,N,07249.166,E,1,12,1.0,0.0,M,0.0,M,,*65
$GPGSA,A,3,01,02,03,04,05,06,07,08,09,10,11,12,1.0,1.0,1.0*30
$GPRMC,065949.362,A,1858.305,N,07249.166,E,000.0,000.0,170224,000.0,W*73
$GPGGA,065950.362,1858.305,N,07249.166,E,1,12,1.0,0.0,M,0.0,M,,*6D
$GPGSA,A,3,01,02,03,04,05,06,07,08,09,10,11,12,1.0,1.0,1.0*30
$GPRMC,065950.362,A,1858.305,N,07249.166,E,000.0,000.0,170224,000.0,W*7B
$GPGGA,065951.362,1858.305,N,07249.166,E,1,12,1.0,0.0,M,0.0,M,,*6C
$GPGSA,A,3,01,02,03,04,05,06,07,08,09,10,11,12,1.0,1.0,1.0*30
$GPRMC,065951.362,A,1858.305,N,07249.166,E,000.0,000.0,170224,000.0,W*7A
$GPGGA,065952.362,1858.305,N,07249.166,E,1,12,1.0,0.0,M,0.0,M,,*6F
$GPGSA,A,3,01,02,03,04,05,06,07,08,09,10,11,12,1.0,1.0,1.0*30
$GPRMC,065952.362,A,1858.305,N,07249.166,E,000.0,000.0,170224,000.0,W*79
$GPGGA,065953.362,1858.305,N,07249.166,E,1,12,1.0,0.0,M,0.0,M,,*6E
$GPGSA,A,3,01,02,03,04,05,06,07,08,09,10,11,12,1.0,1.0,1.0*30
$GPRMC,065953.362,A,1858.305,N,07249.166,E,000.0,000.0,170224,000.0,W*78
$GPGGA,065954.362,1858.305,N,07249.166,E,1,12,1.0,0.0,M,0.0,M,,*69
$GPGSA,A,3,01,02,03,04,05,06,07,08,09,10,11,12,1.0,1.0,1.0*30
$GPRMC,065954.362,A,1858.305,N,07249.166,E,000.0,000.0,170224,000.0,W*7F
$GPGGA,065955.362,1858.305,N,07249.166,E,1,12,1.0,0.0,M,0.0,M,,*68
$GPGSA,A,3,01,02,03,04,05,06,07,08,09,10,11,12,1.0,1.0,1.0*30
$GPRMC,065955.362,A,1858.305,N,07249.166,E,000.0,000.0,170224,000.0,W*7E
$GPGGA,065956.362,1858.305,N,07249.166,E,1,12,1.0,0.0,M,0.0,M,,*6B
$GPGSA,A,3,01,02,03,04,05,06,07,08,09,10,11,12,1.0,1.0,1.0*30
$GPRMC,065956.362,A,1858.305,N,07249.166,E,000.0,000.0,170224,000.0,W*7D
$GPGGA,065957.362,1858.305,N,07249.166,E,1,12,1.0,0.0,M,0.0,M,,*6A
$GPGSA,A,3,01,02,03,04,05,06,07,08,09,10,11,12,1.0,1.0,1.0*30
$GPRMC,065957.362,A,1858.305,N,07249.166,E,000.0,000.0,170224,000.0,W*7C
$GPGGA,065958.362,1858.305,N,07249.166,E,1,12,1.0,0.0,M,0.0,M,,*65
$GPGSA,A,3,01,02,03,04,05,06,07,08,09,10,11,12,1.0,1.0,1.0*30
$GPRMC,065958.362,A,1858.305,N,07249.166,E,000.0,000.0,170224,000.0,W*73
$GPGGA,065959.362,1858.305,N,07249.166,E,1,12,1.0,0.0,M,0.0,M,,*64
$GPGSA,A,3,01,02,03,04,05,06,07,08,09,10,11,12,1.0,1.0,1.0*30
$GPRMC,065959.362,A,1858.305,N,07249.166,E,000.0,000.0,170224,000.0,W*72
$GPGGA,070000.362,1858.305,N,07249.166,E,1,12,1.0,0.0,M,0.0,M,,*65
$GPGSA,A,3,01,02,03,04,05,06,07,08,09,10,11,12,1.0,1.0,1.0*30
$GPRMC,070000.362,A,1858.305,N,07249.166,E,000.0,000.0,170224,000.0,W*73
$GPGGA,070001.362,1858.305,N,07249.166,E,1,12,1.0,0.0,M,0.0,M,,*64
$GPGSA,A,3,01,02,03,04,05,06,07,08,09,10,11,12,1.0,1.0,1.0*30
$GPRMC,070001.362,A,1858.305,N,07249.166,E,000.0,000.0,170224,000.0,W*72
$GPGGA,070002.362,1858.305,N,07249.166,E,1,12,1.0,0.0,M,0.0,M,,*67
$GPGSA,A,3,01,02,03,04,05,06,07,08,09,10,11,12,1.0,1.0,1.0*30
$GPRMC,070002.362,A,1858.305,N,07249.166,E,000.0,000.0,170224,000.0,W*71
$GPGGA,070003.362,1858.305,N,07249.166,E,1,12,1.0,0.0,M,0.0,M,,*66
$GPGSA,A,3,01,02,03,04,05,06,07,08,09,10,11,12,1.0,1.0,1.0*30
$GPRMC,070003.362,A,1858.305,N,07249.166,E,000.0,000.0,170224,000.0,W*70
$GPGGA,070004.362,1858.305,N,07249.166,E,1,12,1.0,0.0,M,0.0,M,,*61
$GPGSA,A,3,01,02,03,04,05,06,07,08,09,10,11,12,1.0,1.0,1.0*30
$GPRMC,070004.362,A,1858.305,N,07249.166,E,000.0,000.0,170224,000.0,W*77
$GPGGA,070005.362,1858.305,N,07249.166,E,1,12,1.0,0.0,M,0.0,M,,*60
$GPGSA,A,3,01,02,03,04,05,06,07,08,09,10,11,12,1.0,1.0,1.0*30
$GPRMC,070005.362,A,1858.305,N,07249.166,E,000.0,000.0,170224,000.0,W*76
