$GPGGA,063346.510,2112.294,N,07250.458,E,1,12,1.0,0.0,M,0.0,M,,*68
$GPGSA,A,3,01,02,03,04,05,06,07,08,09,10,11,12,1.0,1.0,1.0*30
$GPRMC,063346.510,A,2112.294,N,07250.458,E,000.0,000.0,220224,000.0,W*78
$GPGGA,063347.510,2112.294,N,07250.458,E,1,12,1.0,0.0,M,0.0,M,,*69
$GPGSA,A,3,01,02,03,04,05,06,07,08,09,10,11,12,1.0,1.0,1.0*30
$GPRMC,063347.510,A,2112.294,N,07250.458,E,000.0,000.0,220224,000.0,W*79
$GPGGA,063348.510,2112.294,N,07250.458,E,1,12,1.0,0.0,M,0.0,M,,*66
$GPGSA,A,3,01,02,03,04,05,06,07,08,09,10,11,12,1.0,1.0,1.0*30
$GPRMC,063348.510,A,2112.294,N,07250.458,E,000.0,000.0,220224,000.0,W*76
$GPGGA,063349.510,2112.294,N,07250.458,E,1,12,1.0,0.0,M,0.0,M,,*67
$GPGSA,A,3,01,02,03,04,05,06,07,08,09,10,11,12,1.0,1.0,1.0*30
$GPRMC,063349.510,A,2112.294,N,07250.458,E,000.0,000.0,220224,000.0,W*77
$GPGGA,063350.510,2112.294,N,07250.458,E,1,12,1.0,0.0,M,0.0,M,,*6F
$GPGSA,A,3,01,02,03,04,05,06,07,08,09,10,11,12,1.0,1.0,1.0*30
$GPRMC,063350.510,A,2112.294,N,07250.458,E,000.0,000.0,220224,000.0,W*7F
$GPGGA,063351.510,2112.294,N,07250.458,E,1,12,1.0,0.0,M,0.0,M,,*6E
$GPGSA,A,3,01,02,03,04,05,06,07,08,09,10,11,12,1.0,1.0,1.0*30
$GPRMC,063351.510,A,2112.294,N,07250.458,E,000.0,000.0,220224,000.0,W*7E
$GPGGA,063352.510,2112.294,N,07250.458,E,1,12,1.0,0.0,M,0.0,M,,*6D
$GPGSA,A,3,01,02,03,04,05,06,07,08,09,10,11,12,1.0,1.0,1.0*30
$GPRMC,063352.510,A,2112.294,N,07250.458,E,000.0,000.0,220224,000.0,W*7D
$GPGGA,063353.510,2112.294,N,07250.458,E,1,12,1.0,0.0,M,0.0,M,,*6C
$GPGSA,A,3,01,02,03,04,05,06,07,08,09,10,11,12,1.0,1.0,1.0*30
$GPRMC,063353.510,A,2112.294,N,07250.458,E,000.0,000.0,220224,000.0,W*7C
$GPGGA,063354.510,2112.294,N,07250.458,E,1,12,1.0,0.0,M,0.0,M,,*6B
$GPGSA,A,3,01,02,03,04,05,06,07,08,09,10,11,12,1.0,1.0,1.0*30
$GPRMC,063354.510,A,2112.294,N,07250.458,E,000.0,000.0,220224,000.0,W*7B
$GPGGA,063355.510,2112.294,N,07250.458,E,1,12,1.0,0.0,M,0.0,M,,*6A
$GPGSA,A,3,01,02,03,04,05,06,07,08,09,10,11,12,1.0,1.0,1.0*30
$GPRMC,063355.510,A,2112.294,N,07250.458,E,000.0,000.0,220224,000.0,W*7A
$GPGGA,063356.510,2112.294,N,07250.458,E,1,12,1.0,0.0,M,0.0,M,,*69
$GPGSA,A,3,01,02,03,04,05,06,07,08,09,10,11,12,1.0,1.0,1.0*30
$GPRMC,063356.510,A,2112.294,N,07250.458,E,000.0,000.0,220224,000.0,W*79
$GPGGA,063357.510,2112.294,N,07250.458,E,1,12,1.0,0.0,M,0.0,M,,*68
$GPGSA,A,3,01,02,03,04,05,06,07,08,09,10,11,12,1.0,1.0,1.0*30
$GPRMC,063357.510,A,2112.294,N,07250.458,E,000.0,000.0,220224,000.0,W*78
$GPGGA,063358.510,2112.294,N,07250.458,E,1,12,1.0,0.0,M,0.0,M,,*67
$GPGSA,A,3,01,02,03,04,05,06,07,08,09,10,11,12,1.0,1.0,1.0*30
$GPRMC,063358.510,A,2112.294,N,07250.458,E,000.0,000.0,220224,000.0,W*77
$GPGGA,063359.510,2112.294,N,07250.458,E,1,12,1.0,0.0,M,0.0,M,,*66
$GPGSA,A,3,01,02,03,04,05,06,07,08,09,10,11,12,1.0,1.0,1.0*30
$GPRMC,063359.510,A,2112.294,N,07250.458,E,000.0,000.0,220224,000.0,W*76
$GPGGA,063400.510,2112.294,N,07250.458,E,1,12,1.0,0.0,M,0.0,M,,*6D
$GPGSA,A,3,01,02,03,04,05,06,07,08,09,10,11,12,1.0,1.0,1.0*30
$GPRMC,063400.510,A,2112.294,N,07250.458,E,000.0,000.0,220224,000.0,W*7D
$GPGGA,063401.510,2112.294,N,07250.458,E,1,12,1.0,0.0,M,0.0,M,,*6C
$GPGSA,A,3,01,02,03,04,05,06,07,08,09,10,11,12,1.0,1.0,1.0*30
$GPRMC,063401.510,A,2112.294,N,07250.458,E,000.0,000.0,220224,000.0,W*7C
$GPGGA,063402.510,2112.294,N,07250.458,E,1,12,1.0,0.0,M,0.0,M,,*6F
$GPGSA,A,3,01,02,03,04,05,06,07,08,09,10,11,12,1.0,1.0,1.0*30
$GPRMC,063402.510,A,2112.294,N,07250.458,E,000.0,000.0,220224,000.0,W*7F
$GPGGA,063403.510,2112.294,N,07250.458,E,1,12,1.0,0.0,M,0.0,M,,*6E
$GPGSA,A,3,01,02,03,04,05,06,07,08,09,10,11,12,1.0,1.0,1.0*30
$GPRMC,063403.510,A,2112.294,N,07250.458,E,000.0,000.0,220224,000.0,W*7E
$GPGGA,063404.510,2112.294,N,07250.458,E,1,12,1.0,0.0,M,0.0,M,,*69
$GPGSA,A,3,01,02,03,04,05,06,07,08,09,10,11,12,1.0,1.0,1.0*30
$GPRMC,063404.510,A,2112.294,N,07250.458,E,000.0,000.0,220224,000.0,W*79
$GPGGA,063405.510,2112.294,N,07250.458,E,1,12,1.0,0.0,M,0.0,M,,*68
$GPGSA,A,3,01,02,03,04,05,06,07,08,09,10,11,12,1.0,1.0,1.0*30
$GPRMC,063405.510,A,2112.294,N,07250.458,E,000.0,000.0,220224,000.0,W*78
$GPGGA,063406.510,2112.294,N,07250.458,E,1,12,1.0,0.0,M,0.0,M,,*6B
$GPGSA,A,3,01,02,03,04,05,06,07,08,09,10,11,12,1.0,1.0,1.0*30
$GPRMC,063406.510,A,2112.294,N,07250.458,E,000.0,000.0,220224,000.0,W*7B
$GPGGA,063407.510,2112.294,N,07250.458,E,1,12,1.0,0.0,M,0.0,M,,*6A
$GPGSA,A,3,01,02,03,04,05,06,07,08,09,10,11,12,1.0,1.0,1.0*30
$GPRMC,063407.510,A,2112.294,N,07250.458,E,000.0,000.0,220224,000.0,W*7A
$GPGGA,063408.510,2112.294,N,07250.458,E,1,12,1.0,0.0,M,0.0,M,,*65
$GPGSA,A,3,01,02,03,04,05,06,07,08,09,10,11,12,1.0,1.0,1.0*30
$GPRMC,063408.510,A,2112.294,N,07250.458,E,000.0,000.0,220224,000.0,W*75
$GPGGA,063409.510,2112.294,N,07250.458,E,1,12,1.0,0.0,M,0.0,M,,*64
$GPGSA,A,3,01,02,03,04,05,06,07,08,09,10,11,12,1.0,1.0,1.0*30
$GPRMC,063409.510,A,2112.294,N,07250.458,E,000.0,000.0,220224,000.0,W*74
$GPGGA,063410.510,2112.294,N,07250.458,E,1,12,1.0,0.0,M,0.0,M,,*6C
$GPGSA,A,3,01,02,03,04,05,06,07,08,09,10,11,12,1.0,1.0,1.0*30
$GPRMC,063410.510,A,2112.294,N,07250.458,E,000.0,000.0,220224,000.0,W*7C
$GPGGA,063411.510,2112.294,N,07250.458,E,1,12,1.0,0.0,M,0.0,M,,*6D
$GPGSA,A,3,01,02,03,04,05,06,07,08,09,10,11,12,1.0,1.0,1.0*30
$GPRMC,063411.510,A,2112.294,N,07250.458,E,000.0,000.0,220224,000.0,W*7D
$GPGGA,063412.510,2112.294,N,07250.458,E,1,12,1.0,0.0,M,0.0,M,,*6E
$GPGSA,A,3,01,02,03,04,05,06,07,08,09,10,11,12,1.0,1.0,1.0*30
$GPRMC,063412.510,A,2112.294,N,07250.458,E,000.0,000.0,220224,000.0,W*7E
$GPGGA,063413.510,2112.294,N,07250.458,E,1,12,1.0,0.0,M,0.0,M,,*6F
$GPGSA,A,3,01,02,03,04,05,06,07,08,09,10,11,12,1.0,1.0,1.0*30
$GPRMC,063413.510,A,2112.294,N,07250.458,E,000.0,000.0,220224,000.0,W*7F
$GPGGA,063414.510,2112.294,N,07250.458,E,1,12,1.0,0.0,M,0.0,M,,*68
$GPGSA,A,3,01,02,03,04,05,06,07,08,09,10,11,12,1.0,1.0,1.0*30
$GPRMC,063414.510,A,2112.294,N,07250.458,E,000.0,000.0,220224,000.0,W*78
$GPGGA,063415.510,2112.294,N,07250.458,E,1,12,1.0,0.0,M,0.0,M,,*69
$GPGSA,A,3,01,02,03,04,05,06,07,08,09,10,11,12,1.0,1.0,1.0*30
$GPRMC,063415.510,A,2112.294,N,07250.458,E,000.0,000.0,220224,000.0,W*79
$GPGGA,063416.510,2112.294,N,07250.458,E,1,12,1.0,0.0,M,0.0,M,,*6A
$GPGSA,A,3,01,02,03,04,05,06,07,08,09,10,11,12,1.0,1.0,1.0*30
$GPRMC,063416.510,A,2112.294,N,07250.458,E,000.0,000.0,220224,000.0,W*7A
$GPGGA,063417.510,2112.294,N,07250.458,E,1,12,1.0,0.0,M,0.0,M,,*6B
$GPGSA,A,3,01,02,03,04,05,06,07,08,09,10,11,12,1.0,1.0,1.0*30
$GPRMC,063417.510,A,2112.294,N,07250.458,E,000.0,000.0,220224,000.0,W*7B
$GPGGA,063418.510,2112.294,N,07250.458,E,1,12,1.0,0.0,M,0.0,M,,*64
$GPGSA,A,3,01,02,03,04,05,06,07,08,09,10,11,12,1.0,1.0,1.0*30
$GPRMC,063418.510,A,2112.294,N,07250.458,E,000.0,000.0,220224,000.0,W*74
$GPGGA,063419.510,2112.294,N,07250.458,E,1,12,1.0,0.0,M,0.0,M,,*65
$GPGSA,A,3,01,02,03,04,05,06,07,08,09,10,11,12,1.0,1.0,1.0*30
$GPRMC,063419.510,A,2112.294,N,07250.458,E,000.0,000.0,220224,000.0,W*75
$GPGGA,063420.510,2112.294,N,07250.458,E,1,12,1.0,0.0,M,0.0,M,,*6F
$GPGSA,A,3,01,02,03,04,05,06,07,08,09,10,11,12,1.0,1.0,1.0*30
$GPRMC,063420.510,A,2112.294,N,07250.458,E,000.0,000.0,220224,000.0,W*7F
$GPGGA,063421.510,2112.294,N,07250.458,E,1,12,1.0,0.0,M,0.0,M,,*6E
$GPGSA,A,3,01,02,03,04,05,06,07,08,09,10,11,12,1.0,1.0,1.0*30
$GPRMC,063421.510,A,2112.294,N,07250.458,E,000.0,000.0,220224,000.0,W*7E
$GPGGA,063422.510,2112.294,N,07250.458,E,1,12,1.0,0.0,M,0.0,M,,*6D
$GPGSA,A,3,01,02,03,04,05,06,07,08,09,10,11,12,1.0,1.0,1.0*30
$GPRMC,063422.510,A,2112.294,N,07250.458,E,000.0,000.0,220224,000.0,W*7D
$GPGGA,063423.510,2112.294,N,07250.458,E,1,12,1.0,0.0,M,0.0,M,,*6C
$GPGSA,A,3,01,02,03,04,05,06,07,08,09,10,11,12,1.0,1.0,1.0*30
$GPRMC,063423.510,A,2112.294,N,07250.458,E,000.0,000.0,220224,000.0,W*7C
$GPGGA,063424.510,2112.294,N,07250.458,E,1,12,1.0,0.0,M,0.0,M,,*6B
$GPGSA,A,3,01,02,03,04,05,06,07,08,09,10,11,12,1.0,1.0,1.0*30
$GPRMC,063424.510,A,2112.294,N,07250.458,E,000.0,000.0,220224,000.0,W*7B
$GPGGA,063425.510,2112.294,N,07250.458,E,1,12,1.0,0.0,M,0.0,M,,*6A
$GPGSA,A,3,01,02,03,04,05,06,07,08,09,10,11,12,1.0,1.0,1.0*30
$GPRMC,063425.510,A,2112.294,N,07250.458,E,000.0,000.0,220224,000.0,W*7A
$GPGGA,063426.510,2112.294,N,07250.458,E,1,12,1.0,0.0,M,0.0,M,,*69
$GPGSA,A,3,01,02,03,04,05,06,07,08,09,10,11,12,1.0,1.0,1.0*30
$GPRMC,063426.510,A,2112.294,N,07250.458,E,000.0,000.0,220224,000.0,W*79
$GPGGA,063427.510,2112.294,N,07250.458,E,1,12,1.0,0.0,M,0.0,M,,*68
$GPGSA,A,3,01,02,03,04,05,06,07,08,09,10,11,12,1.0,1.0,1.0*30
$GPRMC,063427.510,A,2112.294,N,07250.458,E,000.0,000.0,220224,000.0,W*78
$GPGGA,063428.510,2112.294,N,07250.458,E,1,12,1.0,0.0,M,0.0,M,,*67
$GPGSA,A,3,01,02,03,04,05,06,07,08,09,10,11,12,1.0,1.0,1.0*30
$GPRMC,063428.510,A,2112.294,N,07250.458,E,000.0,000.0,220224,000.0,W*77
$GPGGA,063429.510,2112.294,N,07250.458,E,1,12,1.0,0.0,M,0.0,M,,*66
$GPGSA,A,3,01,02,03,04,05,06,07,08,09,10,11,12,1.0,1.0,1.0*30
$GPRMC,063429.510,A,2112.294,N,07250.458,E,000.0,000.0,220224,000.0,W*76
$GPGGA,063430.510,2112.294,N,07250.458,E,1,12,1.0,0.0,M,0.0,M,,*6E
$GPGSA,A,3,01,02,03,04,05,06,07,08,09,10,11,12,1.0,1.0,1.0*30
$GPRMC,063430.510,A,2112.294,N,07250.458,E,000.0,000.0,220224,000.0,W*7E
$GPGGA,063431.510,2112.294,N,07250.458,E,1,12,1.0,0.0,M,0.0,M,,*6F
$GPGSA,A,3,01,02,03,04,05,06,07,08,09,10,11,12,1.0,1.0,1.0*30
$GPRMC,063431.510,A,2112.294,N,07250.458,E,000.0,000.0,220224,000.0,W*7F
$GPGGA,063432.510,2112.294,N,07250.458,E,1,12,1.0,0.0,M,0.0,M,,*6C
$GPGSA,A,3,01,02,03,04,05,06,07,08,09,10,11,12,1.0,1.0,1.0*30
$GPRMC,063432.510,A,2112.294,N,07250.458,E,000.0,000.0,220224,000.0,W*7C
$GPGGA,063433.510,2112.294,N,07250.458,E,1,12,1.0,0.0,M,0.0,M,,*6D
$GPGSA,A,3,01,02,03,04,05,06,07,08,09,10,11,12,1.0,1.0,1.0*30
$GPRMC,063433.510,A,2112.294,N,07250.458,E,000.0,000.0,220224,000.0,W*7D
$GPGGA,063434.510,2112.294,N,07250.458,E,1,12,1.0,0.0,M,0.0,M,,*6A
$GPGSA,A,3,01,02,03,04,05,06,07,08,09,10,11,12,1.0,1.0,1.0*30
$GPRMC,063434.510,A,2112.294,N,07250.458,E,000.0,000.0,220224,000.0,W*7A
$GPGGA,063435.510,2112.294,N,07250.458,E,1,12,1.0,0.0,M,0.0,M,,*6B
$GPGSA,A,3,01,02,03,04,05,06,07,08,09,10,11,12,1.0,1.0,1.0*30
$GPRMC,063435.510,A,2112.294,N,07250.458,E,000.0,000.0,220224,000.0,W*7B
$GPGGA,063436.510,2112.294,N,07250.458,E,1,12,1.0,0.0,M,0.0,M,,*68
$GPGSA,A,3,01,02,03,04,05,06,07,08,09,10,11,12,1.0,1.0,1.0*30
$GPRMC,063436.510,A,2112.294,N,07250.458,E,000.0,000.0,220224,000.0,W*78
$GPGGA,063437.510,2112.294,N,07250.458,E,1,12,1.0,0.0,M,0.0,M,,*69
$GPGSA,A,3,01,02,03,04,05,06,07,08,09,10,11,12,1.0,1.0,1.0*30
$GPRMC,063437.510,A,2112.294,N,07250.458,E,000.0,000.0,220224,000.0,W*79
$GPGGA,063438.510,2112.294,N,07250.458,E,1,12,1.0,0.0,M,0.0,M,,*66
$GPGSA,A,3,01,02,03,04,05,06,07,08,09,10,11,12,1.0,1.0,1.0*30
$GPRMC,063438.510,A,2112.294,N,07250.458,E,000.0,000.0,220224,000.0,W*76
$GPGGA,063439.510,2112.294,N,07250.458,E,1,12,1.0,0.0,M,0.0,M,,*67
$GPGSA,A,3,01,02,03,04,05,06,07,08,09,10,11,12,1.0,1.0,1.0*30
$GPRMC,063439.510,A,2112.294,N,07250.458,E,000.0,000.0,220224,000.0,W*77
$GPGGA,063440.510,2112.294,N,07250.458,E,1,12,1.0,0.0,M,0.0,M,,*69
$GPGSA,A,3,01,02,03,04,05,06,07,08,09,10,11,12,1.0,1.0,1.0*30
$GPRMC,063440.510,A,2112.294,N,07250.458,E,000.0,000.0,220224,000.0,W*79
$GPGGA,063441.510,2112.294,N,07250.458,E,1,12,1.0,0.0,M,0.0,M,,*68
$GPGSA,A,3,01,02,03,04,05,06,07,08,09,10,11,12,1.0,1.0,1.0*30
$GPRMC,063441.510,A,2112.294,N,07250.458,E,000.0,000.0,220224,000.0,W*78
$GPGGA,063442.510,2112.294,N,07250.458,E,1,12,1.0,0.0,M,0.0,M,,*6B
$GPGSA,A,3,01,02,03,04,05,06,07,08,09,10,11,12,1.0,1.0,1.0*30
$GPRMC,063442.510,A,2112.294,N,07250.458,E,000.0,000.0,220224,000.0,W*7B
$GPGGA,063443.510,2112.294,N,07250.458,E,1,12,1.0,0.0,M,0.0,M,,*6A
$GPGSA,A,3,01,02,03,04,05,06,07,08,09,10,11,12,1.0,1.0,1.0*30
$GPRMC,063443.510,A,2112.294,N,07250.458,E,000.0,000.0,220224,000.0,W*7A
$GPGGA,063444.510,2112.294,N,07250.458,E,1,12,1.0,0.0,M,0.0,M,,*6D
$GPGSA,A,3,01,02,03,04,05,06,07,08,09,10,11,12,1.0,1.0,1.0*30
$GPRMC,063444.510,A,2112.294,N,07250.458,E,000.0,000.0,220224,000.0,W*7D
$GPGGA,063445.510,2112.294,N,07250.458,E,1,12,1.0,0.0,M,0.0,M,,*6C
$GPGSA,A,3,01,02,03,04,05,06,07,08,09,10,11,12,1.0,1.0,1.0*30
$GPRMC,063445.510,A,2112.294,N,07250.458,E,000.0,000.0,220224,000.0,W*7C
$GPGGA,063446.510,2112.294,N,07250.458,E,1,12,1.0,0.0,M,0.0,M,,*6F
$GPGSA,A,3,01,02,03,04,05,06,07,08,09,10,11,12,1.0,1.0,1.0*30
$GPRMC,063446.510,A,2112.294,N,07250.458,E,000.0,000.0,220224,000.0,W*7F
$GPGGA,063447.510,2112.294,N,07250.458,E,1,12,1.0,0.0,M,0.0,M,,*6E
$GPGSA,A,3,01,02,03,04,05,06,07,08,09,10,11,12,1.0,1.0,1.0*30
$GPRMC,063447.510,A,2112.294,N,07250.458,E,000.0,000.0,220224,000.0,W*7E
$GPGGA,063448.510,2112.294,N,07250.458,E,1,12,1.0,0.0,M,0.0,M,,*61
$GPGSA,A,3,01,02,03,04,05,06,07,08,09,10,11,12,1.0,1.0,1.0*30
$GPRMC,063448.510,A,2112.294,N,07250.458,E,000.0,000.0,220224,000.0,W*71
$GPGGA,063449.510,2112.294,N,07250.458,E,1,12,1.0,0.0,M,0.0,M,,*60
$GPGSA,A,3,01,02,03,04,05,06,07,08,09,10,11,12,1.0,1.0,1.0*30
$GPRMC,063449.510,A,2112.294,N,07250.458,E,000.0,000.0,220224,000.0,W*70
$GPGGA,063450.510,2112.294,N,07250.458,E,1,12,1.0,0.0,M,0.0,M,,*68
$GPGSA,A,3,01,02,03,04,05,06,07,08,09,10,11,12,1.0,1.0,1.0*30
$GPRMC,063450.510,A,2112.294,N,07250.458,E,000.0,000.0,220224,000.0,W*78
$GPGGA,063451.510,2112.294,N,07250.458,E,1,12,1.0,0.0,M,0.0,M,,*69
$GPGSA,A,3,01,02,03,04,05,06,07,08,09,10,11,12,1.0,1.0,1.0*30
$GPRMC,063451.510,A,2112.294,N,07250.458,E,000.0,000.0,220224,000.0,W*79
$GPGGA,063452.510,2112.294,N,07250.458,E,1,12,1.0,0.0,M,0.0,M,,*6A
$GPGSA,A,3,01,02,03,04,05,06,07,08,09,10,11,12,1.0,1.0,1.0*30
$GPRMC,063452.510,A,2112.294,N,07250.458,E,000.0,000.0,220224,000.0,W*7A
$GPGGA,063453.510,2112.294,N,07250.458,E,1,12,1.0,0.0,M,0.0,M,,*6B
$GPGSA,A,3,01,02,03,04,05,06,07,08,09,10,11,12,1.0,1.0,1.0*30
$GPRMC,063453.510,A,2112.294,N,07250.458,E,000.0,000.0,220224,000.0,W*7B
$GPGGA,063454.510,2112.294,N,07250.458,E,1,12,1.0,0.0,M,0.0,M,,*6C
$GPGSA,A,3,01,02,03,04,05,06,07,08,09,10,11,12,1.0,1.0,1.0*30
$GPRMC,063454.510,A,2112.294,N,07250.458,E,000.0,000.0,220224,000.0,W*7C
$GPGGA,063455.510,2112.294,N,07250.458,E,1,12,1.0,0.0,M,0.0,M,,*6D
$GPGSA,A,3,01,02,03,04,05,06,07,08,09,10,11,12,1.0,1.0,1.0*30
$GPRMC,063455.510,A,2112.294,N,07250.458,E,000.0,000.0,220224,000.0,W*7D
$GPGGA,063456.510,2112.294,N,07250.458,E,1,12,1.0,0.0,M,0.0,M,,*6E
$GPGSA,A,3,01,02,03,04,05,06,07,08,09,10,11,12,1.0,1.0,1.0*30
$GPRMC,063456.510,A,2112.294,N,07250.458,E,000.0,000.0,220224,000.0,W*7E
$GPGGA,063457.510,2112.294,N,07250.458,E,1,12,1.0,0.0,M,0.0,M,,*6F
$GPGSA,A,3,01,02,03,04,05,06,07,08,09,10,11,12,1.0,1.0,1.0*30
$GPRMC,063457.510,A,2112.294,N,07250.458,E,000.0,000.0,220224,000.0,W*7F
$GPGGA,063458.510,2112.294,N,07250.458,E,1,12,1.0,0.0,M,0.0,M,,*60
$GPGSA,A,3,01,02,03,04,05,06,07,08,09,10,11,12,1.0,1.0,1.0*30
$GPRMC,063458.510,A,2112.294,N,07250.458,E,000.0,000.0,220224,000.0,W*70
$GPGGA,063459.510,2112.294,N,07250.458,E,1,12,1.0,0.0,M,0.0,M,,*61
$GPGSA,A,3,01,02,03,04,05,06,07,08,09,10,11,12,1.0,1.0,1.0*30
$GPRMC,063459.510,A,2112.294,N,07250.458,E,000.0,000.0,220224,000.0,W*71
$GPGGA,063500.510,2112.294,N,07250.458,E,1,12,1.0,0.0,M,0.0,M,,*6C
$GPGSA,A,3,01,02,03,04,05,06,07,08,09,10,11,12,1.0,1.0,1.0*30
$GPRMC,063500.510,A,2112.294,N,07250.458,E,000.0,000.0,220224,000.0,W*7C
$GPGGA,063501.510,2112.294,N,07250.458,E,1,12,1.0,0.0,M,0.0,M,,*6D
$GPGSA,A,3,01,02,03,04,05,06,07,08,09,10,11,12,1.0,1.0,1.0*30
$GPRMC,063501.510,A,2112.294,N,07250.458,E,000.0,000.0,220224,000.0,W*7D
$GPGGA,063502.510,2112.294,N,07250.458,E,1,12,1.0,0.0,M,0.0,M,,*6E
$GPGSA,A,3,01,02,03,04,05,06,07,08,09,10,11,12,1.0,1.0,1.0*30
$GPRMC,063502.510,A,2112.294,N,07250.458,E,000.0,000.0,220224,000.0,W*7E
$GPGGA,063503.510,2112.294,N,07250.458,E,1,12,1.0,0.0,M,0.0,M,,*6F
$GPGSA,A,3,01,02,03,04,05,06,07,08,09,10,11,12,1.0,1.0,1.0*30
$GPRMC,063503.510,A,2112.294,N,07250.458,E,000.0,000.0,220224,000.0,W*7F
$GPGGA,063504.510,2112.294,N,07250.458,E,1,12,1.0,0.0,M,0.0,M,,*68
$GPGSA,A,3,01,02,03,04,05,06,07,08,09,10,11,12,1.0,1.0,1.0*30
$GPRMC,063504.510,A,2112.294,N,07250.458,E,000.0,000.0,220224,000.0,W*78
$GPGGA,063505.510,2112.294,N,07250.458,E,1,12,1.0,0.0,M,0.0,M,,*69
$GPGSA,A,3,01,02,03,04,05,06,07,08,09,10,11,12,1.0,1.0,1.0*30
$GPRMC,063505.510,A,2112.294,N,07250.458,E,000.0,000.0,220224,000.0,W*79
$GPGGA,063506.510,2112.294,N,07250.458,E,1,12,1.0,0.0,M,0.0,M,,*6A
$GPGSA,A,3,01,02,03,04,05,06,07,08,09,10,11,12,1.0,1.0,1.0*30
$GPRMC,063506.510,A,2112.294,N,07250.458,E,000.0,000.0,220224,000.0,W*7A
$GPGGA,063507.510,2112.294,N,07250.458,E,1,12,1.0,0.0,M,0.0,M,,*6B
$GPGSA,A,3,01,02,03,04,05,06,07,08,09,10,11,12,1.0,1.0,1.0*30
$GPRMC,063507.510,A,2112.294,N,07250.458,E,000.0,000.0,220224,000.0,W*7B
$GPGGA,063508.510,2112.294,N,07250.458,E,1,12,1.0,0.0,M,0.0,M,,*64
$GPGSA,A,3,01,02,03,04,05,06,07,08,09,10,11,12,1.0,1.0,1.0*30
$GPRMC,063508.510,A,2112.294,N,07250.458,E,000.0,000.0,220224,000.0,W*74
$GPGGA,063509.510,2112.294,N,07250.458,E,1,12,1.0,0.0,M,0.0,M,,*65
$GPGSA,A,3,01,02,03,04,05,06,07,08,09,10,11,12,1.0,1.0,1.0*30
$GPRMC,063509.510,A,2112.294,N,07250.458,E,000.0,000.0,220224,000.0,W*75
$GPGGA,063510.510,2112.294,N,07250.458,E,1,12,1.0,0.0,M,0.0,M,,*6D
$GPGSA,A,3,01,02,03,04,05,06,07,08,09,10,11,12,1.0,1.0,1.0*30
$GPRMC,063510.510,A,2112.294,N,07250.458,E,000.0,000.0,220224,000.0,W*7D
$GPGGA,063511.510,2112.294,N,07250.458,E,1,12,1.0,0.0,M,0.0,M,,*6C
$GPGSA,A,3,01,02,03,04,05,06,07,08,09,10,11,12,1.0,1.0,1.0*30
$GPRMC,063511.510,A,2112.294,N,07250.458,E,000.0,000.0,220224,000.0,W*7C
$GPGGA,063512.510,2112.294,N,07250.458,E,1,12,1.0,0.0,M,0.0,M,,*6F
$GPGSA,A,3,01,02,03,04,05,06,07,08,09,10,11,12,1.0,1.0,1.0*30
$GPRMC,063512.510,A,2112.294,N,07250.458,E,000.0,000.0,220224,000.0,W*7F
$GPGGA,063513.510,2112.294,N,07250.458,E,1,12,1.0,0.0,M,0.0,M,,*6E
$GPGSA,A,3,01,02,03,04,05,06,07,08,09,10,11,12,1.0,1.0,1.0*30
$GPRMC,063513.510,A,2112.294,N,07250.458,E,000.0,000.0,220224,000.0,W*7E
$GPGGA,063514.510,2112.294,N,07250.458,E,1,12,1.0,0.0,M,0.0,M,,*69
$GPGSA,A,3,01,02,03,04,05,06,07,08,09,10,11,12,1.0,1.0,1.0*30
$GPRMC,063514.510,A,2112.294,N,07250.458,E,000.0,000.0,220224,000.0,W*79
$GPGGA,063515.510,2112.294,N,07250.458,E,1,12,1.0,0.0,M,0.0,M,,*68
$GPGSA,A,3,01,02,03,04,05,06,07,08,09,10,11,12,1.0,1.0,1.0*30
$GPRMC,063515.510,A,2112.294,N,07250.458,E,000.0,000.0,220224,000.0,W*78
$GPGGA,063516.510,2112.294,N,07250.458,E,1,12,1.0,0.0,M,0.0,M,,*6B
$GPGSA,A,3,01,02,03,04,05,06,07,08,09,10,11,12,1.0,1.0,1.0*30
$GPRMC,063516.510,A,2112.294,N,07250.458,E,000.0,000.0,220224,000.0,W*7B
$GPGGA,063517.510,2112.294,N,07250.458,E,1,12,1.0,0.0,M,0.0,M,,*6A
$GPGSA,A,3,01,02,03,04,05,06,07,08,09,10,11,12,1.0,1.0,1.0*30
$GPRMC,063517.510,A,2112.294,N,07250.458,E,000.0,000.0,220224,000.0,W*7A
$GPGGA,063518.510,2112.294,N,07250.458,E,1,12,1.0,0.0,M,0.0,M,,*65
$GPGSA,A,3,01,02,03,04,05,06,07,08,09,10,11,12,1.0,1.0,1.0*30
$GPRMC,063518.510,A,2112.294,N,07250.458,E,000.0,000.0,220224,000.0,W*75
$GPGGA,063519.510,2112.294,N,07250.458,E,1,12,1.0,0.0,M,0.0,M,,*64
$GPGSA,A,3,01,02,03,04,05,06,07,08,09,10,11,12,1.0,1.0,1.0*30
$GPRMC,063519.510,A,2112.294,N,07250.458,E,000.0,000.0,220224,000.0,W*74
$GPGGA,063520.510,2112.294,N,07250.458,E,1,12,1.0,0.0,M,0.0,M,,*6E
$GPGSA,A,3,01,02,03,04,05,06,07,08,09,10,11,12,1.0,1.0,1.0*30
$GPRMC,063520.510,A,2112.294,N,07250.458,E,000.0,000.0,220224,000.0,W*7E
$GPGGA,063521.510,2112.294,N,07250.458,E,1,12,1.0,0.0,M,0.0,M,,*6F
$GPGSA,A,3,01,02,03,04,05,06,07,08,09,10,11,12,1.0,1.0,1.0*30
$GPRMC,063521.510,A,2112.294,N,07250.458,E,000.0,000.0,220224,000.0,W*7F
$GPGGA,063522.510,2112.294,N,07250.458,E,1,12,1.0,0.0,M,0.0,M,,*6C
$GPGSA,A,3,01,02,03,04,05,06,07,08,09,10,11,12,1.0,1.0,1.0*30
$GPRMC,063522.510,A,2112.294,N,07250.458,E,000.0,000.0,220224,000.0,W*7C
$GPGGA,063523.510,2112.294,N,07250.458,E,1,12,1.0,0.0,M,0.0,M,,*6D
$GPGSA,A,3,01,02,03,04,05,06,07,08,09,10,11,12,1.0,1.0,1.0*30
$GPRMC,063523.510,A,2112.294,N,07250.458,E,000.0,000.0,220224,000.0,W*7D
$GPGGA,063524.510,2112.294,N,07250.458,E,1,12,1.0,0.0,M,0.0,M,,*6A
$GPGSA,A,3,01,02,03,04,05,06,07,08,09,10,11,12,1.0,1.0,1.0*30
$GPRMC,063524.510,A,2112.294,N,07250.458,E,000.0,000.0,220224,000.0,W*7A
$GPGGA,063525.510,2112.294,N,07250.458,E,1,12,1.0,0.0,M,0.0,M,,*6B
$GPGSA,A,3,01,02,03,04,05,06,07,08,09,10,11,12,1.0,1.0,1.0*30
$GPRMC,063525.510,A,2112.294,N,07250.458,E,000.0,000.0,220224,000.0,W*7B
$GPGGA,063526.510,2112.294,N,07250.458,E,1,12,1.0,0.0,M,0.0,M,,*68
$GPGSA,A,3,01,02,03,04,05,06,07,08,09,10,11,12,1.0,1.0,1.0*30
$GPRMC,063526.510,A,2112.294,N,07250.458,E,000.0,000.0,220224,000.0,W*78
$GPGGA,063527.510,2112.294,N,07250.458,E,1,12,1.0,0.0,M,0.0,M,,*69
$GPGSA,A,3,01,02,03,04,05,06,07,08,09,10,11,12,1.0,1.0,1.0*30
$GPRMC,063527.510,A,2112.294,N,07250.458,E,000.0,000.0,220224,000.0,W*79
$GPGGA,063528.510,2112.294,N,07250.458,E,1,12,1.0,0.0,M,0.0,M,,*66
$GPGSA,A,3,01,02,03,04,05,06,07,08,09,10,11,12,1.0,1.0,1.0*30
$GPRMC,063528.510,A,2112.294,N,07250.458,E,000.0,000.0,220224,000.0,W*76
$GPGGA,063529.510,2112.294,N,07250.458,E,1,12,1.0,0.0,M,0.0,M,,*67
$GPGSA,A,3,01,02,03,04,05,06,07,08,09,10,11,12,1.0,1.0,1.0*30
$GPRMC,063529.510,A,2112.294,N,07250.458,E,000.0,000.0,220224,000.0,W*77
$GPGGA,063530.510,2112.294,N,07250.458,E,1,12,1.0,0.0,M,0.0,M,,*6F
$GPGSA,A,3,01,02,03,04,05,06,07,08,09,10,11,12,1.0,1.0,1.0*30
$GPRMC,063530.510,A,2112.294,N,07250.458,E,000.0,000.0,220224,000.0,W*7F
$GPGGA,063531.510,2112.294,N,07250.458,E,1,12,1.0,0.0,M,0.0,M,,*6E
$GPGSA,A,3,01,02,03,04,05,06,07,08,09,10,11,12,1.0,1.0,1.0*30
$GPRMC,063531.510,A,2112.294,N,07250.458,E,000.0,000.0,220224,000.0,W*7E
$GPGGA,063532.510,2112.294,N,07250.458,E,1,12,1.0,0.0,M,0.0,M,,*6D
$GPGSA,A,3,01,02,03,04,05,06,07,08,09,10,11,12,1.0,1.0,1.0*30
$GPRMC,063532.510,A,2112.294,N,07250.458,E,000.0,000.0,220224,000.0,W*7D
$GPGGA,063533.510,2112.294,N,07250.458,E,1,12,1.0,0.0,M,0.0,M,,*6C
$GPGSA,A,3,01,02,03,04,05,06,07,08,09,10,11,12,1.0,1.0,1.0*30
$GPRMC,063533.510,A,2112.294,N,07250.458,E,000.0,000.0,220224,000.0,W*7C
$GPGGA,063534.510,2112.294,N,07250.458,E,1,12,1.0,0.0,M,0.0,M,,*6B
$GPGSA,A,3,01,02,03,04,05,06,07,08,09,10,11,12,1.0,1.0,1.0*30
$GPRMC,063534.510,A,2112.294,N,07250.458,E,000.0,000.0,220224,000.0,W*7B
$GPGGA,063535.510,2112.294,N,07250.458,E,1,12,1.0,0.0,M,0.0,M,,*6A
$GPGSA,A,3,01,02,03,04,05,06,07,08,09,10,11,12,1.0,1.0,1.0*30
$GPRMC,063535.510,A,2112.294,N,07250.458,E,000.0,000.0,220224,000.0,W*7A
$GPGGA,063536.510,2112.294,N,07250.458,E,1,12,1.0,0.0,M,0.0,M,,*69
$GPGSA,A,3,01,02,03,04,05,06,07,08,09,10,11,12,1.0,1.0,1.0*30
$GPRMC,063536.510,A,2112.294,N,07250.458,E,000.0,000.0,220224,000.0,W*79
$GPGGA,063537.510,2112.294,N,07250.458,E,1,12,1.0,0.0,M,0.0,M,,*68
$GPGSA,A,3,01,02,03,04,05,06,07,08,09,10,11,12,1.0,1.0,1.0*30
$GPRMC,063537.510,A,2112.294,N,07250.458,E,000.0,000.0,220224,000.0,W*78
$GPGGA,063538.510,2112.294,N,07250.458,E,1,12,1.0,0.0,M,0.0,M,,*67
$GPGSA,A,3,01,02,03,04,05,06,07,08,09,10,11,12,1.0,1.0,1.0*30
$GPRMC,063538.510,A,2112.294,N,07250.458,E,000.0,000.0,220224,000.0,W*77
$GPGGA,063539.510,2112.294,N,07250.458,E,1,12,1.0,0.0,M,0.0,M,,*66
$GPGSA,A,3,01,02,03,04,05,06,07,08,09,10,11,12,1.0,1.0,1.0*30
$GPRMC,063539.510,A,2112.294,N,07250.458,E,000.0,000.0,220224,000.0,W*76
$GPGGA,063540.510,2112.294,N,07250.458,E,1,12,1.0,0.0,M,0.0,M,,*68
$GPGSA,A,3,01,02,03,04,05,06,07,08,09,10,11,12,1.0,1.0,1.0*30
$GPRMC,063540.510,A,2112.294,N,07250.458,E,000.0,000.0,220224,000.0,W*78
$GPGGA,063541.510,2112.294,N,07250.458,E,1,12,1.0,0.0,M,0.0,M,,*69
$GPGSA,A,3,01,02,03,04,05,06,07,08,09,10,11,12,1.0,1.0,1.0*30
$GPRMC,063541.510,A,2112.294,N,07250.458,E,000.0,000.0,220224,000.0,W*79
$GPGGA,063542.510,2112.294,N,07250.458,E,1,12,1.0,0.0,M,0.0,M,,*6A
$GPGSA,A,3,01,02,03,04,05,06,07,08,09,10,11,12,1.0,1.0,1.0*30
$GPRMC,063542.510,A,2112.294,N,07250.458,E,000.0,000.0,220224,000.0,W*7A
$GPGGA,063543.510,2112.294,N,07250.458,E,1,12,1.0,0.0,M,0.0,M,,*6B
$GPGSA,A,3,01,02,03,04,05,06,07,08,09,10,11,12,1.0,1.0,1.0*30
$GPRMC,063543.510,A,2112.294,N,07250.458,E,000.0,000.0,220224,000.0,W*7B
$GPGGA,063544.510,2112.294,N,07250.458,E,1,12,1.0,0.0,M,0.0,M,,*6C
$GPGSA,A,3,01,02,03,04,05,06,07,08,09,10,11,12,1.0,1.0,1.0*30
$GPRMC,063544.510,A,2112.294,N,07250.458,E,000.0,000.0,220224,000.0,W*7C
$GPGGA,063545.510,2112.294,N,07250.458,E,1,12,1.0,0.0,M,0.0,M,,*6D
$GPGSA,A,3,01,02,03,04,05,06,07,08,09,10,11,12,1.0,1.0,1.0*30
$GPRMC,063545.510,A,2112.294,N,07250.458,E,000.0,000.0,220224,000.0,W*7D
$GPGGA,063546.510,2112.294,N,07250.458,E,1,12,1.0,0.0,M,0.0,M,,*6E
$GPGSA,A,3,01,02,03,04,05,06,07,08,09,10,11,12,1.0,1.0,1.0*30
$GPRMC,063546.510,A,2112.294,N,07250.458,E,000.0,000.0,220224,000.0,W*7E
$GPGGA,063547.510,2112.294,N,07250.458,E,1,12,1.0,0.0,M,0.0,M,,*6F
$GPGSA,A,3,01,02,03,04,05,06,07,08,09,10,11,12,1.0,1.0,1.0*30
$GPRMC,063547.510,A,2112.294,N,07250.458,E,000.0,000.0,220224,000.0,W*7F
$GPGGA,063548.510,2112.294,N,07250.458,E,1,12,1.0,0.0,M,0.0,M,,*60
$GPGSA,A,3,01,02,03,04,05,06,07,08,09,10,11,12,1.0,1.0,1.0*30
$GPRMC,063548.510,A,2112.294,N,07250.458,E,000.0,000.0,220224,000.0,W*70
$GPGGA,063549.510,2112.294,N,07250.458,E,1,12,1.0,0.0,M,0.0,M,,*61
$GPGSA,A,3,01,02,03,04,05,06,07,08,09,10,11,12,1.0,1.0,1.0*30
$GPRMC,063549.510,A,2112.294,N,07250.458,E,000.0,000.0,220224,000.0,W*71
$GPGGA,063550.510,2112.294,N,07250.458,E,1,12,1.0,0.0,M,0.0,M,,*69
$GPGSA,A,3,01,02,03,04,05,06,07,08,09,10,11,12,1.0,1.0,1.0*30
$GPRMC,063550.510,A,2112.294,N,07250.458,E,000.0,000.0,220224,000.0,W*79
$GPGGA,063551.510,2112.294,N,07250.458,E,1,12,1.0,0.0,M,0.0,M,,*68
$GPGSA,A,3,01,02,03,04,05,06,07,08,09,10,11,12,1.0,1.0,1.0*30
$GPRMC,063551.510,A,2112.294,N,07250.458,E,000.0,000.0,220224,000.0,W*78
$GPGGA,063552.510,2112.294,N,07250.458,E,1,12,1.0,0.0,M,0.0,M,,*6B
$GPGSA,A,3,01,02,03,04,05,06,07,08,09,10,11,12,1.0,1.0,1.0*30
$GPRMC,063552.510,A,2112.294,N,07250.458,E,000.0,000.0,220224,000.0,W*7B
$GPGGA,063553.510,2112.294,N,07250.458,E,1,12,1.0,0.0,M,0.0,M,,*6A
$GPGSA,A,3,01,02,03,04,05,06,07,08,09,10,11,12,1.0,1.0,1.0*30
$GPRMC,063553.510,A,2112.294,N,07250.458,E,000.0,000.0,220224,000.0,W*7A
$GPGGA,063554.510,2112.294,N,07250.458,E,1,12,1.0,0.0,M,0.0,M,,*6D
$GPGSA,A,3,01,02,03,04,05,06,07,08,09,10,11,12,1.0,1.0,1.0*30
$GPRMC,063554.510,A,2112.294,N,07250.458,E,000.0,000.0,220224,000.0,W*7D
$GPGGA,063555.510,2112.294,N,07250.458,E,1,12,1.0,0.0,M,0.0,M,,*6C
$GPGSA,A,3,01,02,03,04,05,06,07,08,09,10,11,12,1.0,1.0,1.0*30
$GPRMC,063555.510,A,2112.294,N,07250.458,E,000.0,000.0,220224,000.0,W*7C
$GPGGA,063556.510,2112.294,N,07250.458,E,1,12,1.0,0.0,M,0.0,M,,*6F
$GPGSA,A,3,01,02,03,04,05,06,07,08,09,10,11,12,1.0,1.0,1.0*30
$GPRMC,063556.510,A,2112.294,N,07250.458,E,000.0,000.0,220224,000.0,W*7F
$GPGGA,063557.510,2112.294,N,07250.458,E,1,12,1.0,0.0,M,0.0,M,,*6E
$GPGSA,A,3,01,02,03,04,05,06,07,08,09,10,11,12,1.0,1.0,1.0*30
$GPRMC,063557.510,A,2112.294,N,07250.458,E,000.0,000.0,220224,000.0,W*7E
$GPGGA,063558.510,2112.294,N,07250.458,E,1,12,1.0,0.0,M,0.0,M,,*61
$GPGSA,A,3,01,02,03,04,05,06,07,08,09,10,11,12,1.0,1.0,1.0*30
$GPRMC,063558.510,A,2112.294,N,07250.458,E,000.0,000.0,220224,000.0,W*71
$GPGGA,063559.510,2112.294,N,07250.458,E,1,12,1.0,0.0,M,0.0,M,,*60
$GPGSA,A,3,01,02,03,04,05,06,07,08,09,10,11,12,1.0,1.0,1.0*30
$GPRMC,063559.510,A,2112.294,N,07250.458,E,000.0,000.0,220224,000.0,W*70
$GPGGA,063600.510,2112.294,N,07250.458,E,1,12,1.0,0.0,M,0.0,M,,*6F
$GPGSA,A,3,01,02,03,04,05,06,07,08,09,10,11,12,1.0,1.0,1.0*30
$GPRMC,063600.510,A,2112.294,N,07250.458,E,000.0,000.0,220224,000.0,W*7F
$GPGGA,063601.510,2112.294,N,07250.458,E,1,12,1.0,0.0,M,0.0,M,,*6E
$GPGSA,A,3,01,02,03,04,05,06,07,08,09,10,11,12,1.0,1.0,1.0*30
$GPRMC,063601.510,A,2112.294,N,07250.458,E,000.0,000.0,220224,000.0,W*7E
$GPGGA,063602.510,2112.294,N,07250.458,E,1,12,1.0,0.0,M,0.0,M,,*6D
$GPGSA,A,3,01,02,03,04,05,06,07,08,09,10,11,12,1.0,1.0,1.0*30
$GPRMC,063602.510,A,2112.294,N,07250.458,E,000.0,000.0,220224,000.0,W*7D
$GPGGA,063603.510,2112.294,N,07250.458,E,1,12,1.0,0.0,M,0.0,M,,*6C
$GPGSA,A,3,01,02,03,04,05,06,07,08,09,10,11,12,1.0,1.0,1.0*30
$GPRMC,063603.510,A,2112.294,N,07250.458,E,000.0,000.0,220224,000.0,W*7C
$GPGGA,063604.510,2112.294,N,07250.458,E,1,12,1.0,0.0,M,0.0,M,,*6B
$GPGSA,A,3,01,02,03,04,05,06,07,08,09,10,11,12,1.0,1.0,1.0*30
$GPRMC,063604.510,A,2112.294,N,07250.458,E,000.0,000.0,220224,000.0,W*7B
$GPGGA,063605.510,2112.294,N,07250.458,E,1,12,1.0,0.0,M,0.0,M,,*6A
$GPGSA,A,3,01,02,03,04,05,06,07,08,09,10,11,12,1.0,1.0,1.0*30
$GPRMC,063605.510,A,2112.294,N,07250.458,E,000.0,000.0,220224,000.0,W*7A
$GPGGA,063606.510,2112.294,N,07250.458,E,1,12,1.0,0.0,M,0.0,M,,*69
$GPGSA,A,3,01,02,03,04,05,06,07,08,09,10,11,12,1.0,1.0,1.0*30
$GPRMC,063606.510,A,2112.294,N,07250.458,E,000.0,000.0,220224,000.0,W*79
$GPGGA,063607.510,2112.294,N,07250.458,E,1,12,1.0,0.0,M,0.0,M,,*68
$GPGSA,A,3,01,02,03,04,05,06,07,08,09,10,11,12,1.0,1.0,1.0*30
$GPRMC,063607.510,A,2112.294,N,07250.458,E,000.0,000.0,220224,000.0,W*78
$GPGGA,063608.510,2112.294,N,07250.458,E,1,12,1.0,0.0,M,0.0,M,,*67
$GPGSA,A,3,01,02,03,04,05,06,07,08,09,10,11,12,1.0,1.0,1.0*30
$GPRMC,063608.510,A,2112.294,N,07250.458,E,000.0,000.0,220224,000.0,W*77
$GPGGA,063609.510,2112.294,N,07250.458,E,1,12,1.0,0.0,M,0.0,M,,*66
$GPGSA,A,3,01,02,03,04,05,06,07,08,09,10,11,12,1.0,1.0,1.0*30
$GPRMC,063609.510,A,2112.294,N,07250.458,E,000.0,000.0,220224,000.0,W*76
$GPGGA,063610.510,2112.294,N,07250.458,E,1,12,1.0,0.0,M,0.0,M,,*6E
$GPGSA,A,3,01,02,03,04,05,06,07,08,09,10,11,12,1.0,1.0,1.0*30
$GPRMC,063610.510,A,2112.294,N,07250.458,E,000.0,000.0,220224,000.0,W*7E
$GPGGA,063611.510,2112.294,N,07250.458,E,1,12,1.0,0.0,M,0.0,M,,*6F
$GPGSA,A,3,01,02,03,04,05,06,07,08,09,10,11,12,1.0,1.0,1.0*30
$GPRMC,063611.510,A,2112.294,N,07250.458,E,000.0,000.0,220224,000.0,W*7F
$GPGGA,063612.510,2112.294,N,07250.458,E,1,12,1.0,0.0,M,0.0,M,,*6C
$GPGSA,A,3,01,02,03,04,05,06,07,08,09,10,11,12,1.0,1.0,1.0*30
$GPRMC,063612.510,A,2112.294,N,07250.458,E,000.0,000.0,220224,000.0,W*7C
$GPGGA,063613.510,2112.294,N,07250.458,E,1,12,1.0,0.0,M,0.0,M,,*6D
$GPGSA,A,3,01,02,03,04,05,06,07,08,09,10,11,12,1.0,1.0,1.0*30
$GPRMC,063613.510,A,2112.294,N,07250.458,E,000.0,000.0,220224,000.0,W*7D
$GPGGA,063614.510,2112.294,N,07250.458,E,1,12,1.0,0.0,M,0.0,M,,*6A
$GPGSA,A,3,01,02,03,04,05,06,07,08,09,10,11,12,1.0,1.0,1.0*30
$GPRMC,063614.510,A,2112.294,N,07250.458,E,000.0,000.0,220224,000.0,W*7A
$GPGGA,063615.510,2112.294,N,07250.458,E,1,12,1.0,0.0,M,0.0,M,,*6B
$GPGSA,A,3,01,02,03,04,05,06,07,08,09,10,11,12,1.0,1.0,1.0*30
$GPRMC,063615.510,A,2112.294,N,07250.458,E,000.0,000.0,220224,000.0,W*7B
$GPGGA,063616.510,2112.294,N,07250.458,E,1,12,1.0,0.0,M,0.0,M,,*68
$GPGSA,A,3,01,02,03,04,05,06,07,08,09,10,11,12,1.0,1.0,1.0*30
$GPRMC,063616.510,A,2112.294,N,07250.458,E,000.0,000.0,220224,000.0,W*78
$GPGGA,063617.510,2112.294,N,07250.458,E,1,12,1.0,0.0,M,0.0,M,,*69
$GPGSA,A,3,01,02,03,04,05,06,07,08,09,10,11,12,1.0,1.0,1.0*30
$GPRMC,063617.510,A,2112.294,N,07250.458,E,000.0,000.0,220224,000.0,W*79
$GPGGA,063618.510,2112.294,N,07250.458,E,1,12,1.0,0.0,M,0.0,M,,*66
$GPGSA,A,3,01,02,03,04,05,06,07,08,09,10,11,12,1.0,1.0,1.0*30
$GPRMC,063618.510,A,2112.294,N,07250.458,E,000.0,000.0,220224,000.0,W*76
$GPGGA,063619.510,2112.294,N,07250.458,E,1,12,1.0,0.0,M,0.0,M,,*67
$GPGSA,A,3,01,02,03,04,05,06,07,08,09,10,11,12,1.0,1.0,1.0*30
$GPRMC,063619.510,A,2112.294,N,07250.458,E,000.0,000.0,220224,000.0,W*77
$GPGGA,063620.510,2112.294,N,07250.458,E,1,12,1.0,0.0,M,0.0,M,,*6D
$GPGSA,A,3,01,02,03,04,05,06,07,08,09,10,11,12,1.0,1.0,1.0*30
$GPRMC,063620.510,A,2112.294,N,07250.458,E,000.0,000.0,220224,000.0,W*7D
$GPGGA,063621.510,2112.294,N,07250.458,E,1,12,1.0,0.0,M,0.0,M,,*6C
$GPGSA,A,3,01,02,03,04,05,06,07,08,09,10,11,12,1.0,1.0,1.0*30
$GPRMC,063621.510,A,2112.294,N,07250.458,E,000.0,000.0,220224,000.0,W*7C
$GPGGA,063622.510,2112.294,N,07250.458,E,1,12,1.0,0.0,M,0.0,M,,*6F
$GPGSA,A,3,01,02,03,04,05,06,07,08,09,10,11,12,1.0,1.0,1.0*30
$GPRMC,063622.510,A,2112.294,N,07250.458,E,000.0,000.0,220224,000.0,W*7F
$GPGGA,063623.510,2112.294,N,07250.458,E,1,12,1.0,0.0,M,0.0,M,,*6E
$GPGSA,A,3,01,02,03,04,05,06,07,08,09,10,11,12,1.0,1.0,1.0*30
$GPRMC,063623.510,A,2112.294,N,07250.458,E,000.0,000.0,220224,000.0,W*7E
$GPGGA,063624.510,2112.294,N,07250.458,E,1,12,1.0,0.0,M,0.0,M,,*69
$GPGSA,A,3,01,02,03,04,05,06,07,08,09,10,11,12,1.0,1.0,1.0*30
$GPRMC,063624.510,A,2112.294,N,07250.458,E,000.0,000.0,220224,000.0,W*79
$GPGGA,063625.510,2112.294,N,07250.458,E,1,12,1.0,0.0,M,0.0,M,,*68
$GPGSA,A,3,01,02,03,04,05,06,07,08,09,10,11,12,1.0,1.0,1.0*30
$GPRMC,063625.510,A,2112.294,N,07250.458,E,000.0,000.0,220224,000.0,W*78
$GPGGA,063626.510,2112.294,N,07250.458,E,1,12,1.0,0.0,M,0.0,M,,*6B
$GPGSA,A,3,01,02,03,04,05,06,07,08,09,10,11,12,1.0,1.0,1.0*30
$GPRMC,063626.510,A,2112.294,N,07250.458,E,000.0,000.0,220224,000.0,W*7B
$GPGGA,063627.510,2112.294,N,07250.458,E,1,12,1.0,0.0,M,0.0,M,,*6A
$GPGSA,A,3,01,02,03,04,05,06,07,08,09,10,11,12,1.0,1.0,1.0*30
$GPRMC,063627.510,A,2112.294,N,07250.458,E,000.0,000.0,220224,000.0,W*7A
$GPGGA,063628.510,2112.294,N,07250.458,E,1,12,1.0,0.0,M,0.0,M,,*65
$GPGSA,A,3,01,02,03,04,05,06,07,08,09,10,11,12,1.0,1.0,1.0*30
$GPRMC,063628.510,A,2112.294,N,07250.458,E,000.0,000.0,220224,000.0,W*75
$GPGGA,063629.510,2112.294,N,07250.458,E,1,12,1.0,0.0,M,0.0,M,,*64
$GPGSA,A,3,01,02,03,04,05,06,07,08,09,10,11,12,1.0,1.0,1.0*30
$GPRMC,063629.510,A,2112.294,N,07250.458,E,000.0,000.0,220224,000.0,W*74
$GPGGA,063630.510,2112.294,N,07250.458,E,1,12,1.0,0.0,M,0.0,M,,*6C
$GPGSA,A,3,01,02,03,04,05,06,07,08,09,10,11,12,1.0,1.0,1.0*30
$GPRMC,063630.510,A,2112.294,N,07250.458,E,000.0,000.0,220224,000.0,W*7C
$GPGGA,063631.510,2112.294,N,07250.458,E,1,12,1.0,0.0,M,0.0,M,,*6D
$GPGSA,A,3,01,02,03,04,05,06,07,08,09,10,11,12,1.0,1.0,1.0*30
$GPRMC,063631.510,A,2112.294,N,07250.458,E,000.0,000.0,220224,000.0,W*7D
$GPGGA,063632.510,2112.294,N,07250.458,E,1,12,1.0,0.0,M,0.0,M,,*6E
$GPGSA,A,3,01,02,03,04,05,06,07,08,09,10,11,12,1.0,1.0,1.0*30
$GPRMC,063632.510,A,2112.294,N,07250.458,E,000.0,000.0,220224,000.0,W*7E
$GPGGA,063633.510,2112.294,N,07250.458,E,1,12,1.0,0.0,M,0.0,M,,*6F
$GPGSA,A,3,01,02,03,04,05,06,07,08,09,10,11,12,1.0,1.0,1.0*30
$GPRMC,063633.510,A,2112.294,N,07250.458,E,000.0,000.0,220224,000.0,W*7F
$GPGGA,063634.510,2112.294,N,07250.458,E,1,12,1.0,0.0,M,0.0,M,,*68
$GPGSA,A,3,01,02,03,04,05,06,07,08,09,10,11,12,1.0,1.0,1.0*30
$GPRMC,063634.510,A,2112.294,N,07250.458,E,000.0,000.0,220224,000.0,W*78
$GPGGA,063635.510,2112.294,N,07250.458,E,1,12,1.0,0.0,M,0.0,M,,*69
$GPGSA,A,3,01,02,03,04,05,06,07,08,09,10,11,12,1.0,1.0,1.0*30
$GPRMC,063635.510,A,2112.294,N,07250.458,E,000.0,000.0,220224,000.0,W*79
$GPGGA,063636.510,2112.294,N,07250.458,E,1,12,1.0,0.0,M,0.0,M,,*6A
$GPGSA,A,3,01,02,03,04,05,06,07,08,09,10,11,12,1.0,1.0,1.0*30
$GPRMC,063636.510,A,2112.294,N,07250.458,E,000.0,000.0,220224,000.0,W*7A
$GPGGA,063637.510,2112.294,N,07250.458,E,1,12,1.0,0.0,M,0.0,M,,*6B
$GPGSA,A,3,01,02,03,04,05,06,07,08,09,10,11,12,1.0,1.0,1.0*30
$GPRMC,063637.510,A,2112.294,N,07250.458,E,000.0,000.0,220224,000.0,W*7B
$GPGGA,063638.510,2112.294,N,07250.458,E,1,12,1.0,0.0,M,0.0,M,,*64
$GPGSA,A,3,01,02,03,04,05,06,07,08,09,10,11,12,1.0,1.0,1.0*30
$GPRMC,063638.510,A,2112.294,N,07250.458,E,000.0,000.0,220224,000.0,W*74
$GPGGA,063639.510,2112.294,N,07250.458,E,1,12,1.0,0.0,M,0.0,M,,*65
$GPGSA,A,3,01,02,03,04,05,06,07,08,09,10,11,12,1.0,1.0,1.0*30
$GPRMC,063639.510,A,2112.294,N,07250.458,E,000.0,000.0,220224,000.0,W*75
$GPGGA,063640.510,2112.294,N,07250.458,E,1,12,1.0,0.0,M,0.0,M,,*6B
$GPGSA,A,3,01,02,03,04,05,06,07,08,09,10,11,12,1.0,1.0,1.0*30
$GPRMC,063640.510,A,2112.294,N,07250.458,E,000.0,000.0,220224,000.0,W*7B
$GPGGA,063641.510,2112.294,N,07250.458,E,1,12,1.0,0.0,M,0.0,M,,*6A
$GPGSA,A,3,01,02,03,04,05,06,07,08,09,10,11,12,1.0,1.0,1.0*30
$GPRMC,063641.510,A,2112.294,N,07250.458,E,000.0,000.0,220224,000.0,W*7A
$GPGGA,063642.510,2112.294,N,07250.458,E,1,12,1.0,0.0,M,0.0,M,,*69
$GPGSA,A,3,01,02,03,04,05,06,07,08,09,10,11,12,1.0,1.0,1.0*30
$GPRMC,063642.510,A,2112.294,N,07250.458,E,000.0,000.0,220224,000.0,W*79
$GPGGA,063643.510,2112.294,N,07250.458,E,1,12,1.0,0.0,M,0.0,M,,*68
$GPGSA,A,3,01,02,03,04,05,06,07,08,09,10,11,12,1.0,1.0,1.0*30
$GPRMC,063643.510,A,2112.294,N,07250.458,E,000.0,000.0,220224,000.0,W*78
$GPGGA,063644.510,2112.294,N,07250.458,E,1,12,1.0,0.0,M,0.0,M,,*6F
$GPGSA,A,3,01,02,03,04,05,06,07,08,09,10,11,12,1.0,1.0,1.0*30
$GPRMC,063644.510,A,2112.294,N,07250.458,E,000.0,000.0,220224,000.0,W*7F
$GPGGA,063645.510,2112.294,N,07250.458,E,1,12,1.0,0.0,M,0.0,M,,*6E
$GPGSA,A,3,01,02,03,04,05,06,07,08,09,10,11,12,1.0,1.0,1.0*30
$GPRMC,063645.510,A,2112.294,N,07250.458,E,000.0,000.0,220224,000.0,W*7E
$GPGGA,063646.510,2112.294,N,07250.458,E,1,12,1.0,0.0,M,0.0,M,,*6D
$GPGSA,A,3,01,02,03,04,05,06,07,08,09,10,11,12,1.0,1.0,1.0*30
$GPRMC,063646.510,A,2112.294,N,07250.458,E,000.0,000.0,220224,000.0,W*7D
$GPGGA,063647.510,2112.294,N,07250.458,E,1,12,1.0,0.0,M,0.0,M,,*6C
$GPGSA,A,3,01,02,03,04,05,06,07,08,09,10,11,12,1.0,1.0,1.0*30
$GPRMC,063647.510,A,2112.294,N,07250.458,E,000.0,000.0,220224,000.0,W*7C
$GPGGA,063648.510,2112.294,N,07250.458,E,1,12,1.0,0.0,M,0.0,M,,*63
$GPGSA,A,3,01,02,03,04,05,06,07,08,09,10,11,12,1.0,1.0,1.0*30
$GPRMC,063648.510,A,2112.294,N,07250.458,E,000.0,000.0,220224,000.0,W*73
$GPGGA,063649.510,2112.294,N,07250.458,E,1,12,1.0,0.0,M,0.0,M,,*62
$GPGSA,A,3,01,02,03,04,05,06,07,08,09,10,11,12,1.0,1.0,1.0*30
$GPRMC,063649.510,A,2112.294,N,07250.458,E,000.0,000.0,220224,000.0,W*72
$GPGGA,063650.510,2112.294,N,07250.458,E,1,12,1.0,0.0,M,0.0,M,,*6A
$GPGSA,A,3,01,02,03,04,05,06,07,08,09,10,11,12,1.0,1.0,1.0*30
$GPRMC,063650.510,A,2112.294,N,07250.458,E,000.0,000.0,220224,000.0,W*7A
$GPGGA,063651.510,2112.294,N,07250.458,E,1,12,1.0,0.0,M,0.0,M,,*6B
$GPGSA,A,3,01,02,03,04,05,06,07,08,09,10,11,12,1.0,1.0,1.0*30
$GPRMC,063651.510,A,2112.294,N,07250.458,E,000.0,000.0,220224,000.0,W*7B
$GPGGA,063652.510,2112.294,N,07250.458,E,1,12,1.0,0.0,M,0.0,M,,*68
$GPGSA,A,3,01,02,03,04,05,06,07,08,09,10,11,12,1.0,1.0,1.0*30
$GPRMC,063652.510,A,2112.294,N,07250.458,E,000.0,000.0,220224,000.0,W*78
$GPGGA,063653.510,2112.294,N,07250.458,E,1,12,1.0,0.0,M,0.0,M,,*69
$GPGSA,A,3,01,02,03,04,05,06,07,08,09,10,11,12,1.0,1.0,1.0*30
$GPRMC,063653.510,A,2112.294,N,07250.458,E,000.0,000.0,220224,000.0,W*79
$GPGGA,063654.510,2112.294,N,07250.458,E,1,12,1.0,0.0,M,0.0,M,,*6E
$GPGSA,A,3,01,02,03,04,05,06,07,08,09,10,11,12,1.0,1.0,1.0*30
$GPRMC,063654.510,A,2112.294,N,07250.458,E,000.0,000.0,220224,000.0,W*7E
$GPGGA,063655.510,2112.294,N,07250.458,E,1,12,1.0,0.0,M,0.0,M,,*6F
$GPGSA,A,3,01,02,03,04,05,06,07,08,09,10,11,12,1.0,1.0,1.0*30
$GPRMC,063655.510,A,2112.294,N,07250.458,E,000.0,000.0,220224,000.0,W*7F
$GPGGA,063656.510,2112.294,N,07250.458,E,1,12,1.0,0.0,M,0.0,M,,*6C
$GPGSA,A,3,01,02,03,04,05,06,07,08,09,10,11,12,1.0,1.0,1.0*30
$GPRMC,063656.510,A,2112.294,N,07250.458,E,000.0,000.0,220224,000.0,W*7C
$GPGGA,063657.510,2112.294,N,07250.458,E,1,12,1.0,0.0,M,0.0,M,,*6D
$GPGSA,A,3,01,02,03,04,05,06,07,08,09,10,11,12,1.0,1.0,1.0*30
$GPRMC,063657.510,A,2112.294,N,07250.458,E,000.0,000.0,220224,000.0,W*7D
$GPGGA,063658.510,2112.294,N,07250.458,E,1,12,1.0,0.0,M,0.0,M,,*62
$GPGSA,A,3,01,02,03,04,05,06,07,08,09,10,11,12,1.0,1.0,1.0*30
$GPRMC,063658.510,A,2112.294,N,07250.458,E,000.0,000.0,220224,000.0,W*72
$GPGGA,063659.510,2112.294,N,07250.458,E,1,12,1.0,0.0,M,0.0,M,,*63
$GPGSA,A,3,01,02,03,04,05,06,07,08,09,10,11,12,1.0,1.0,1.0*30
$GPRMC,063659.510,A,2112.294,N,07250.458,E,000.0,000.0,220224,000.0,W*73
$GPGGA,063700.510,2112.294,N,07250.458,E,1,12,1.0,0.0,M,0.0,M,,*6E
$GPGSA,A,3,01,02,03,04,05,06,07,08,09,10,11,12,1.0,1.0,1.0*30
$GPRMC,063700.510,A,2112.294,N,07250.458,E,000.0,000.0,220224,000.0,W*7E
$GPGGA,063701.510,2112.294,N,07250.458,E,1,12,1.0,0.0,M,0.0,M,,*6F
$GPGSA,A,3,01,02,03,04,05,06,07,08,09,10,11,12,1.0,1.0,1.0*30
$GPRMC,063701.510,A,2112.294,N,07250.458,E,000.0,000.0,220224,000.0,W*7F
$GPGGA,063702.510,2112.294,N,07250.458,E,1,12,1.0,0.0,M,0.0,M,,*6C
$GPGSA,A,3,01,02,03,04,05,06,07,08,09,10,11,12,1.0,1.0,1.0*30
$GPRMC,063702.510,A,2112.294,N,07250.458,E,000.0,000.0,220224,000.0,W*7C
$GPGGA,063703.510,2112.294,N,07250.458,E,1,12,1.0,0.0,M,0.0,M,,*6D
$GPGSA,A,3,01,02,03,04,05,06,07,08,09,10,11,12,1.0,1.0,1.0*30
$GPRMC,063703.510,A,2112.294,N,07250.458,E,000.0,000.0,220224,000.0,W*7D
$GPGGA,063704.510,2112.294,N,07250.458,E,1,12,1.0,0.0,M,0.0,M,,*6A
$GPGSA,A,3,01,02,03,04,05,06,07,08,09,10,11,12,1.0,1.0,1.0*30
$GPRMC,063704.510,A,2112.294,N,07250.458,E,000.0,000.0,220224,000.0,W*7A
$GPGGA,063705.510,2112.294,N,07250.458,E,1,12,1.0,0.0,M,0.0,M,,*6B
$GPGSA,A,3,01,02,03,04,05,06,07,08,09,10,11,12,1.0,1.0,1.0*30
$GPRMC,063705.510,A,2112.294,N,07250.458,E,097.2,168.8,220224,000.0,W*70
$GPGGA,063706.510,2112.268,N,07250.463,E,1,12,1.0,0.0,M,0.0,M,,*63
$GPGSA,A,3,01,02,03,04,05,06,07,08,09,10,11,12,1.0,1.0,1.0*30
$GPRMC,063706.510,A,2112.268,N,07250.463,E,097.2,168.8,220224,000.0,W*78
$GPGGA,063707.510,2112.241,N,07250.469,E,1,12,1.0,0.0,M,0.0,M,,*63
$GPGSA,A,3,01,02,03,04,05,06,07,08,09,10,11,12,1.0,1.0,1.0*30
$GPRMC,063707.510,A,2112.241,N,07250.469,E,097.2,166.5,220224,000.0,W*7B
$GPGGA,063708.510,2112.215,N,07250.475,E,1,12,1.0,0.0,M,0.0,M,,*60
$GPGSA,A,3,01,02,03,04,05,06,07,08,09,10,11,12,1.0,1.0,1.0*30
$GPRMC,063708.510,A,2112.215,N,07250.475,E,097.2,166.0,220224,000.0,W*7D
$GPGGA,063709.510,2112.189,N,07250.481,E,1,12,1.0,0.0,M,0.0,M,,*6C
$GPGSA,A,3,01,02,03,04,05,06,07,08,09,10,11,12,1.0,1.0,1.0*30
$GPRMC,063709.510,A,2112.189,N,07250.481,E,097.2,166.0,220224,000.0,W*71
$GPGGA,063710.510,2112.162,N,07250.488,E,1,12,1.0,0.0,M,0.0,M,,*68
$GPGSA,A,3,01,02,03,04,05,06,07,08,09,10,11,12,1.0,1.0,1.0*30
$GPRMC,063710.510,A,2112.162,N,07250.488,E,097.2,162.8,220224,000.0,W*79
$GPGGA,063711.510,2112.136,N,07250.496,E,1,12,1.0,0.0,M,0.0,M,,*67
$GPGSA,A,3,01,02,03,04,05,06,07,08,09,10,11,12,1.0,1.0,1.0*30
$GPRMC,063711.510,A,2112.136,N,07250.496,E,097.2,162.8,220224,000.0,W*76
$GPGGA,063712.510,2112.110,N,07250.504,E,1,12,1.0,0.0,M,0.0,M,,*6A
$GPGSA,A,3,01,02,03,04,05,06,07,08,09,10,11,12,1.0,1.0,1.0*30
$GPRMC,063712.510,A,2112.110,N,07250.504,E,097.2,159.2,220224,000.0,W*79
$GPGGA,063713.510,2112.085,N,07250.514,E,1,12,1.0,0.0,M,0.0,M,,*67
$GPGSA,A,3,01,02,03,04,05,06,07,08,09,10,11,12,1.0,1.0,1.0*30
$GPRMC,063713.510,A,2112.085,N,07250.514,E,097.2,159.2,220224,000.0,W*74
$GPGGA,063714.510,2112.060,N,07250.523,E,1,12,1.0,0.0,M,0.0,M,,*6F
$GPGSA,A,3,01,02,03,04,05,06,07,08,09,10,11,12,1.0,1.0,1.0*30
$GPRMC,063714.510,A,2112.060,N,07250.523,E,097.2,159.2,220224,000.0,W*7C
$GPGGA,063715.510,2112.034,N,07250.533,E,1,12,1.0,0.0,M,0.0,M,,*6E
$GPGSA,A,3,01,02,03,04,05,06,07,08,09,10,11,12,1.0,1.0,1.0*30
$GPRMC,063715.510,A,2112.034,N,07250.533,E,097.2,154.8,220224,000.0,W*7A
$GPGGA,063716.510,2112.009,N,07250.545,E,1,12,1.0,0.0,M,0.0,M,,*62
$GPGSA,A,3,01,02,03,04,05,06,07,08,09,10,11,12,1.0,1.0,1.0*30
$GPRMC,063716.510,A,2112.009,N,07250.545,E,097.2,150.5,220224,000.0,W*7F
$GPGGA,063717.510,2111.986,N,07250.558,E,1,12,1.0,0.0,M,0.0,M,,*62
$GPGSA,A,3,01,02,03,04,05,06,07,08,09,10,11,12,1.0,1.0,1.0*30
$GPRMC,063717.510,A,2111.986,N,07250.558,E,097.2,148.8,220224,000.0,W*7B
$GPGGA,063718.510,2111.962,N,07250.572,E,1,12,1.0,0.0,M,0.0,M,,*6F
$GPGSA,A,3,01,02,03,04,05,06,07,08,09,10,11,12,1.0,1.0,1.0*30
$GPRMC,063718.510,A,2111.962,N,07250.572,E,097.2,148.8,220224,000.0,W*76
$GPGGA,063719.510,2111.939,N,07250.587,E,1,12,1.0,0.0,M,0.0,M,,*6A
$GPGSA,A,3,01,02,03,04,05,06,07,08,09,10,11,12,1.0,1.0,1.0*30
$GPRMC,063719.510,A,2111.939,N,07250.587,E,097.2,148.8,220224,000.0,W*73
$GPGGA,063720.510,2111.915,N,07250.601,E,1,12,1.0,0.0,M,0.0,M,,*63
$GPGSA,A,3,01,02,03,04,05,06,07,08,09,10,11,12,1.0,1.0,1.0*30
$GPRMC,063720.510,A,2111.915,N,07250.601,E,097.2,149.8,220224,000.0,W*7B
$GPGGA,063721.510,2111.891,N,07250.615,E,1,12,1.0,0.0,M,0.0,M,,*6A
$GPGSA,A,3,01,02,03,04,05,06,07,08,09,10,11,12,1.0,1.0,1.0*30
$GPRMC,063721.510,A,2111.891,N,07250.615,E,097.2,149.8,220224,000.0,W*72
$GPGGA,063722.510,2111.868,N,07250.629,E,1,12,1.0,0.0,M,0.0,M,,*60
$GPGSA,A,3,01,02,03,04,05,06,07,08,09,10,11,12,1.0,1.0,1.0*30
$GPRMC,063722.510,A,2111.868,N,07250.629,E,097.2,149.8,220224,000.0,W*78
$GPGGA,063723.510,2111.844,N,07250.642,E,1,12,1.0,0.0,M,0.0,M,,*62
$GPGSA,A,3,01,02,03,04,05,06,07,08,09,10,11,12,1.0,1.0,1.0*30
$GPRMC,063723.510,A,2111.844,N,07250.642,E,097.2,156.6,220224,000.0,W*7A
$GPGGA,063724.510,2111.819,N,07250.653,E,1,12,1.0,0.0,M,0.0,M,,*6D
$GPGSA,A,3,01,02,03,04,05,06,07,08,09,10,11,12,1.0,1.0,1.0*30
$GPRMC,063724.510,A,2111.819,N,07250.653,E,097.2,156.6,220224,000.0,W*75
$GPGGA,063725.510,2111.794,N,07250.664,E,1,12,1.0,0.0,M,0.0,M,,*62
$GPGSA,A,3,01,02,03,04,05,06,07,08,09,10,11,12,1.0,1.0,1.0*30
$GPRMC,063725.510,A,2111.794,N,07250.664,E,097.2,156.6,220224,000.0,W*7A
$GPGGA,063726.510,2111.769,N,07250.675,E,1,12,1.0,0.0,M,0.0,M,,*63
$GPGSA,A,3,01,02,03,04,05,06,07,08,09,10,11,12,1.0,1.0,1.0*30
$GPRMC,063726.510,A,2111.769,N,07250.675,E,097.2,160.7,220224,000.0,W*7F
$GPGGA,063727.510,2111.743,N,07250.684,E,1,12,1.0,0.0,M,0.0,M,,*64
$GPGSA,A,3,01,02,03,04,05,06,07,08,09,10,11,12,1.0,1.0,1.0*30
$GPRMC,063727.510,A,2111.743,N,07250.684,E,097.2,160.7,220224,000.0,W*78
$GPGGA,063728.510,2111.718,N,07250.693,E,1,12,1.0,0.0,M,0.0,M,,*63
$GPGSA,A,3,01,02,03,04,05,06,07,08,09,10,11,12,1.0,1.0,1.0*30
$GPRMC,063728.510,A,2111.718,N,07250.693,E,097.2,162.2,220224,000.0,W*78
$GPGGA,063729.510,2111.692,N,07250.701,E,1,12,1.0,0.0,M,0.0,M,,*6B
$GPGSA,A,3,01,02,03,04,05,06,07,08,09,10,11,12,1.0,1.0,1.0*30
$GPRMC,063729.510,A,2111.692,N,07250.701,E,097.2,165.3,220224,000.0,W*76
$GPGGA,063730.510,2111.666,N,07250.708,E,1,12,1.0,0.0,M,0.0,M,,*61
$GPGSA,A,3,01,02,03,04,05,06,07,08,09,10,11,12,1.0,1.0,1.0*30
$GPRMC,063730.510,A,2111.666,N,07250.708,E,097.2,165.3,220224,000.0,W*7C
$GPGGA,063731.510,2111.639,N,07250.715,E,1,12,1.0,0.0,M,0.0,M,,*66
$GPGSA,A,3,01,02,03,04,05,06,07,08,09,10,11,12,1.0,1.0,1.0*30
$GPRMC,063731.510,A,2111.639,N,07250.715,E,097.2,165.3,220224,000.0,W*7B
$GPGGA,063732.510,2111.613,N,07250.722,E,1,12,1.0,0.0,M,0.0,M,,*69
$GPGSA,A,3,01,02,03,04,05,06,07,08,09,10,11,12,1.0,1.0,1.0*30
$GPRMC,063732.510,A,2111.613,N,07250.722,E,097.2,165.9,220224,000.0,W*7E
$GPGGA,063733.510,2111.587,N,07250.728,E,1,12,1.0,0.0,M,0.0,M,,*6C
$GPGSA,A,3,01,02,03,04,05,06,07,08,09,10,11,12,1.0,1.0,1.0*30
$GPRMC,063733.510,A,2111.587,N,07250.728,E,097.2,165.9,220224,000.0,W*7B
$GPGGA,063734.510,2111.561,N,07250.735,E,1,12,1.0,0.0,M,0.0,M,,*6F
$GPGSA,A,3,01,02,03,04,05,06,07,08,09,10,11,12,1.0,1.0,1.0*30
$GPRMC,063734.510,A,2111.561,N,07250.735,E,097.2,165.9,220224,000.0,W*78
$GPGGA,063735.510,2111.534,N,07250.741,E,1,12,1.0,0.0,M,0.0,M,,*6D
$GPGSA,A,3,01,02,03,04,05,06,07,08,09,10,11,12,1.0,1.0,1.0*30
$GPRMC,063735.510,A,2111.534,N,07250.741,E,097.2,165.9,220224,000.0,W*7A
$GPGGA,063736.510,2111.508,N,07250.748,E,1,12,1.0,0.0,M,0.0,M,,*68
$GPGSA,A,3,01,02,03,04,05,06,07,08,09,10,11,12,1.0,1.0,1.0*30
$GPRMC,063736.510,A,2111.508,N,07250.748,E,097.2,165.9,220224,000.0,W*7F
$GPGGA,063737.510,2111.482,N,07250.755,E,1,12,1.0,0.0,M,0.0,M,,*66
$GPGSA,A,3,01,02,03,04,05,06,07,08,09,10,11,12,1.0,1.0,1.0*30
$GPRMC,063737.510,A,2111.482,N,07250.755,E,097.2,165.9,220224,000.0,W*71
$GPGGA,063738.510,2111.456,N,07250.761,E,1,12,1.0,0.0,M,0.0,M,,*67
$GPGSA,A,3,01,02,03,04,05,06,07,08,09,10,11,12,1.0,1.0,1.0*30
$GPRMC,063738.510,A,2111.456,N,07250.761,E,097.2,165.6,220224,000.0,W*7F
$GPGGA,063739.510,2111.429,N,07250.768,E,1,12,1.0,0.0,M,0.0,M,,*67
$GPGSA,A,3,01,02,03,04,05,06,07,08,09,10,11,12,1.0,1.0,1.0*30
$GPRMC,063739.510,A,2111.429,N,07250.768,E,097.2,165.6,220224,000.0,W*7F
$GPGGA,063740.510,2111.403,N,07250.775,E,1,12,1.0,0.0,M,0.0,M,,*6D
$GPGSA,A,3,01,02,03,04,05,06,07,08,09,10,11,12,1.0,1.0,1.0*30
$GPRMC,063740.510,A,2111.403,N,07250.775,E,097.2,165.6,220224,000.0,W*75
$GPGGA,063741.510,2111.377,N,07250.781,E,1,12,1.0,0.0,M,0.0,M,,*63
$GPGSA,A,3,01,02,03,04,05,06,07,08,09,10,11,12,1.0,1.0,1.0*30
$GPRMC,063741.510,A,2111.377,N,07250.781,E,097.2,166.0,220224,000.0,W*7E
$GPGGA,063742.510,2111.351,N,07250.788,E,1,12,1.0,0.0,M,0.0,M,,*6D
$GPGSA,A,3,01,02,03,04,05,06,07,08,09,10,11,12,1.0,1.0,1.0*30
$GPRMC,063742.510,A,2111.351,N,07250.788,E,097.2,166.0,220224,000.0,W*70
$GPGGA,063743.510,2111.324,N,07250.795,E,1,12,1.0,0.0,M,0.0,M,,*62
$GPGSA,A,3,01,02,03,04,05,06,07,08,09,10,11,12,1.0,1.0,1.0*30
$GPRMC,063743.510,A,2111.324,N,07250.795,E,097.2,166.0,220224,000.0,W*7F
$GPGGA,063744.510,2111.298,N,07250.801,E,1,12,1.0,0.0,M,0.0,M,,*61
$GPGSA,A,3,01,02,03,04,05,06,07,08,09,10,11,12,1.0,1.0,1.0*30
$GPRMC,063744.510,A,2111.298,N,07250.801,E,097.2,165.3,220224,000.0,W*7C
$GPGGA,063745.510,2111.272,N,07250.808,E,1,12,1.0,0.0,M,0.0,M,,*6D
$GPGSA,A,3,01,02,03,04,05,06,07,08,09,10,11,12,1.0,1.0,1.0*30
$GPRMC,063745.510,A,2111.272,N,07250.808,E,097.2,165.3,220224,000.0,W*70
$GPGGA,063746.510,2111.246,N,07250.815,E,1,12,1.0,0.0,M,0.0,M,,*65
$GPGSA,A,3,01,02,03,04,05,06,07,08,09,10,11,12,1.0,1.0,1.0*30
$GPRMC,063746.510,A,2111.246,N,07250.815,E,097.2,165.3,220224,000.0,W*78
$GPGGA,063747.510,2111.219,N,07250.822,E,1,12,1.0,0.0,M,0.0,M,,*6A
$GPGSA,A,3,01,02,03,04,05,06,07,08,09,10,11,12,1.0,1.0,1.0*30
$GPRMC,063747.510,A,2111.219,N,07250.822,E,097.2,165.8,220224,000.0,W*7C
$GPGGA,063748.510,2111.193,N,07250.828,E,1,12,1.0,0.0,M,0.0,M,,*6E
$GPGSA,A,3,01,02,03,04,05,06,07,08,09,10,11,12,1.0,1.0,1.0*30
$GPRMC,063748.510,A,2111.193,N,07250.828,E,097.2,165.8,220224,000.0,W*78
$GPGGA,063749.510,2111.167,N,07250.835,E,1,12,1.0,0.0,M,0.0,M,,*68
$GPGSA,A,3,01,02,03,04,05,06,07,08,09,10,11,12,1.0,1.0,1.0*30
$GPRMC,063749.510,A,2111.167,N,07250.835,E,097.2,165.8,220224,000.0,W*7E
$GPGGA,063750.510,2111.141,N,07250.842,E,1,12,1.0,0.0,M,0.0,M,,*64
$GPGSA,A,3,01,02,03,04,05,06,07,08,09,10,11,12,1.0,1.0,1.0*30
$GPRMC,063750.510,A,2111.141,N,07250.842,E,097.2,166.2,220224,000.0,W*7B
$GPGGA,063751.510,2111.114,N,07250.848,E,1,12,1.0,0.0,M,0.0,M,,*6F
$GPGSA,A,3,01,02,03,04,05,06,07,08,09,10,11,12,1.0,1.0,1.0*30
$GPRMC,063751.510,A,2111.114,N,07250.848,E,097.2,166.2,220224,000.0,W*70
$GPGGA,063752.510,2111.088,N,07250.855,E,1,12,1.0,0.0,M,0.0,M,,*64
$GPGSA,A,3,01,02,03,04,05,06,07,08,09,10,11,12,1.0,1.0,1.0*30
$GPRMC,063752.510,A,2111.088,N,07250.855,E,097.2,166.2,220224,000.0,W*7B
$GPGGA,063753.510,2111.062,N,07250.861,E,1,12,1.0,0.0,M,0.0,M,,*66
$GPGSA,A,3,01,02,03,04,05,06,07,08,09,10,11,12,1.0,1.0,1.0*30
$GPRMC,063753.510,A,2111.062,N,07250.861,E,097.2,166.0,220224,000.0,W*7B
$GPGGA,063754.510,2111.035,N,07250.868,E,1,12,1.0,0.0,M,0.0,M,,*6A
$GPGSA,A,3,01,02,03,04,05,06,07,08,09,10,11,12,1.0,1.0,1.0*30
$GPRMC,063754.510,A,2111.035,N,07250.868,E,097.2,166.0,220224,000.0,W*77
$GPGGA,063755.510,2111.009,N,07250.874,E,1,12,1.0,0.0,M,0.0,M,,*69
$GPGSA,A,3,01,02,03,04,05,06,07,08,09,10,11,12,1.0,1.0,1.0*30
$GPRMC,063755.510,A,2111.009,N,07250.874,E,097.2,166.0,220224,000.0,W*74
$GPGGA,063756.510,2110.983,N,07250.881,E,1,12,1.0,0.0,M,0.0,M,,*6A
$GPGSA,A,3,01,02,03,04,05,06,07,08,09,10,11,12,1.0,1.0,1.0*30
$GPRMC,063756.510,A,2110.983,N,07250.881,E,097.2,166.0,220224,000.0,W*77
$GPGGA,063757.510,2110.957,N,07250.887,E,1,12,1.0,0.0,M,0.0,M,,*64
$GPGSA,A,3,01,02,03,04,05,06,07,08,09,10,11,12,1.0,1.0,1.0*30
$GPRMC,063757.510,A,2110.957,N,07250.887,E,097.2,166.0,220224,000.0,W*79
$GPGGA,063758.510,2110.930,N,07250.894,E,1,12,1.0,0.0,M,0.0,M,,*68
$GPGSA,A,3,01,02,03,04,05,06,07,08,09,10,11,12,1.0,1.0,1.0*30
$GPRMC,063758.510,A,2110.930,N,07250.894,E,097.2,166.0,220224,000.0,W*75
$GPGGA,063759.510,2110.904,N,07250.901,E,1,12,1.0,0.0,M,0.0,M,,*63
$GPGSA,A,3,01,02,03,04,05,06,07,08,09,10,11,12,1.0,1.0,1.0*30
$GPRMC,063759.510,A,2110.904,N,07250.901,E,097.2,165.6,220224,000.0,W*7B
$GPGGA,063800.510,2110.878,N,07250.907,E,1,12,1.0,0.0,M,0.0,M,,*6C
$GPGSA,A,3,01,02,03,04,05,06,07,08,09,10,11,12,1.0,1.0,1.0*30
$GPRMC,063800.510,A,2110.878,N,07250.907,E,097.2,165.6,220224,000.0,W*74
$GPGGA,063801.510,2110.852,N,07250.914,E,1,12,1.0,0.0,M,0.0,M,,*67
$GPGSA,A,3,01,02,03,04,05,06,07,08,09,10,11,12,1.0,1.0,1.0*30
$GPRMC,063801.510,A,2110.852,N,07250.914,E,097.2,165.6,220224,000.0,W*7F
$GPGGA,063802.510,2110.825,N,07250.921,E,1,12,1.0,0.0,M,0.0,M,,*62
$GPGSA,A,3,01,02,03,04,05,06,07,08,09,10,11,12,1.0,1.0,1.0*30
$GPRMC,063802.510,A,2110.825,N,07250.921,E,097.2,165.7,220224,000.0,W*7B
$GPGGA,063803.510,2110.799,N,07250.927,E,1,12,1.0,0.0,M,0.0,M,,*6D
$GPGSA,A,3,01,02,03,04,05,06,07,08,09,10,11,12,1.0,1.0,1.0*30
$GPRMC,063803.510,A,2110.799,N,07250.927,E,097.2,165.7,220224,000.0,W*74
$GPGGA,063804.510,2110.773,N,07250.934,E,1,12,1.0,0.0,M,0.0,M,,*6C
$GPGSA,A,3,01,02,03,04,05,06,07,08,09,10,11,12,1.0,1.0,1.0*30
$GPRMC,063804.510,A,2110.773,N,07250.934,E,097.2,165.7,220224,000.0,W*75
$GPGGA,063805.510,2110.747,N,07250.941,E,1,12,1.0,0.0,M,0.0,M,,*68
$GPGSA,A,3,01,02,03,04,05,06,07,08,09,10,11,12,1.0,1.0,1.0*30
$GPRMC,063805.510,A,2110.747,N,07250.941,E,097.2,166.0,220224,000.0,W*75
$GPGGA,063806.510,2110.720,N,07250.947,E,1,12,1.0,0.0,M,0.0,M,,*6C
$GPGSA,A,3,01,02,03,04,05,06,07,08,09,10,11,12,1.0,1.0,1.0*30
$GPRMC,063806.510,A,2110.720,N,07250.947,E,097.2,166.0,220224,000.0,W*71
$GPGGA,063807.510,2110.694,N,07250.954,E,1,12,1.0,0.0,M,0.0,M,,*61
$GPGSA,A,3,01,02,03,04,05,06,07,08,09,10,11,12,1.0,1.0,1.0*30
$GPRMC,063807.510,A,2110.694,N,07250.954,E,097.2,166.0,220224,000.0,W*7C
$GPGGA,063808.510,2110.668,N,07250.961,E,1,12,1.0,0.0,M,0.0,M,,*6B
$GPGSA,A,3,01,02,03,04,05,06,07,08,09,10,11,12,1.0,1.0,1.0*30
$GPRMC,063808.510,A,2110.668,N,07250.961,E,097.2,166.4,220224,000.0,W*72
$GPGGA,063809.510,2110.641,N,07250.967,E,1,12,1.0,0.0,M,0.0,M,,*67
$GPGSA,A,3,01,02,03,04,05,06,07,08,09,10,11,12,1.0,1.0,1.0*30
$GPRMC,063809.510,A,2110.641,N,07250.967,E,097.2,166.4,220224,000.0,W*7E
$GPGGA,063810.510,2110.615,N,07250.973,E,1,12,1.0,0.0,M,0.0,M,,*6B
$GPGSA,A,3,01,02,03,04,05,06,07,08,09,10,11,12,1.0,1.0,1.0*30
$GPRMC,063810.510,A,2110.615,N,07250.973,E,097.2,166.4,220224,000.0,W*72
$GPGGA,063811.510,2110.589,N,07250.980,E,1,12,1.0,0.0,M,0.0,M,,*60
$GPGSA,A,3,01,02,03,04,05,06,07,08,09,10,11,12,1.0,1.0,1.0*30
$GPRMC,063811.510,A,2110.589,N,07250.980,E,097.2,165.7,220224,000.0,W*79
$GPGGA,063812.510,2110.563,N,07250.986,E,1,12,1.0,0.0,M,0.0,M,,*61
$GPGSA,A,3,01,02,03,04,05,06,07,08,09,10,11,12,1.0,1.0,1.0*30
$GPRMC,063812.510,A,2110.563,N,07250.986,E,097.2,165.7,220224,000.0,W*78
$GPGGA,063813.510,2110.536,N,07250.993,E,1,12,1.0,0.0,M,0.0,M,,*64
$GPGSA,A,3,01,02,03,04,05,06,07,08,09,10,11,12,1.0,1.0,1.0*30
$GPRMC,063813.510,A,2110.536,N,07250.993,E,097.2,165.7,220224,000.0,W*7D
$GPGGA,063814.510,2110.510,N,07251.000,E,1,12,1.0,0.0,M,0.0,M,,*65
$GPGSA,A,3,01,02,03,04,05,06,07,08,09,10,11,12,1.0,1.0,1.0*30
$GPRMC,063814.510,A,2110.510,N,07251.000,E,097.2,165.7,220224,000.0,W*7C
$GPGGA,063815.510,2110.484,N,07251.006,E,1,12,1.0,0.0,M,0.0,M,,*6E
$GPGSA,A,3,01,02,03,04,05,06,07,08,09,10,11,12,1.0,1.0,1.0*30
$GPRMC,063815.510,A,2110.484,N,07251.006,E,097.2,165.7,220224,000.0,W*77
$GPGGA,063816.510,2110.458,N,07251.013,E,1,12,1.0,0.0,M,0.0,M,,*68
$GPGSA,A,3,01,02,03,04,05,06,07,08,09,10,11,12,1.0,1.0,1.0*30
$GPRMC,063816.510,A,2110.458,N,07251.013,E,097.2,165.7,220224,000.0,W*71
$GPGGA,063817.510,2110.431,N,07251.020,E,1,12,1.0,0.0,M,0.0,M,,*66
$GPGSA,A,3,01,02,03,04,05,06,07,08,09,10,11,12,1.0,1.0,1.0*30
$GPRMC,063817.510,A,2110.431,N,07251.020,E,097.2,165.7,220224,000.0,W*7F
$GPGGA,063818.510,2110.405,N,07251.027,E,1,12,1.0,0.0,M,0.0,M,,*69
$GPGSA,A,3,01,02,03,04,05,06,07,08,09,10,11,12,1.0,1.0,1.0*30
$GPRMC,063818.510,A,2110.405,N,07251.027,E,097.2,165.7,220224,000.0,W*70
$GPGGA,063819.510,2110.379,N,07251.033,E,1,12,1.0,0.0,M,0.0,M,,*61
$GPGSA,A,3,01,02,03,04,05,06,07,08,09,10,11,12,1.0,1.0,1.0*30
$GPRMC,063819.510,A,2110.379,N,07251.033,E,097.2,165.7,220224,000.0,W*78
$GPGGA,063820.510,2110.353,N,07251.040,E,1,12,1.0,0.0,M,0.0,M,,*67
$GPGSA,A,3,01,02,03,04,05,06,07,08,09,10,11,12,1.0,1.0,1.0*30
$GPRMC,063820.510,A,2110.353,N,07251.040,E,097.2,165.6,220224,000.0,W*7F
$GPGGA,063821.510,2110.326,N,07251.047,E,1,12,1.0,0.0,M,0.0,M,,*63
$GPGSA,A,3,01,02,03,04,05,06,07,08,09,10,11,12,1.0,1.0,1.0*30
$GPRMC,063821.510,A,2110.326,N,07251.047,E,097.2,165.6,220224,000.0,W*7B
$GPGGA,063822.510,2110.300,N,07251.053,E,1,12,1.0,0.0,M,0.0,M,,*61
$GPGSA,A,3,01,02,03,04,05,06,07,08,09,10,11,12,1.0,1.0,1.0*30
$GPRMC,063822.510,A,2110.300,N,07251.053,E,097.2,165.6,220224,000.0,W*79
$GPGGA,063823.510,2110.274,N,07251.060,E,1,12,1.0,0.0,M,0.0,M,,*62
$GPGSA,A,3,01,02,03,04,05,06,07,08,09,10,11,12,1.0,1.0,1.0*30
$GPRMC,063823.510,A,2110.274,N,07251.060,E,097.2,165.8,220224,000.0,W*74
$GPGGA,063824.510,2110.248,N,07251.067,E,1,12,1.0,0.0,M,0.0,M,,*6D
$GPGSA,A,3,01,02,03,04,05,06,07,08,09,10,11,12,1.0,1.0,1.0*30
$GPRMC,063824.510,A,2110.248,N,07251.067,E,097.2,165.8,220224,000.0,W*7B
$GPGGA,063825.510,2110.221,N,07251.073,E,1,12,1.0,0.0,M,0.0,M,,*66
$GPGSA,A,3,01,02,03,04,05,06,07,08,09,10,11,12,1.0,1.0,1.0*30
$GPRMC,063825.510,A,2110.221,N,07251.073,E,194.4,165.7,220224,000.0,W*7B
$GPGGA,063826.510,2110.169,N,07251.087,E,1,12,1.0,0.0,M,0.0,M,,*61
$GPGSA,A,3,01,02,03,04,05,06,07,08,09,10,11,12,1.0,1.0,1.0*30
$GPRMC,063826.510,A,2110.169,N,07251.087,E,194.4,165.7,220224,000.0,W*7C
$GPGGA,063827.510,2110.116,N,07251.100,E,1,12,1.0,0.0,M,0.0,M,,*66
$GPGSA,A,3,01,02,03,04,05,06,07,08,09,10,11,12,1.0,1.0,1.0*30
$GPRMC,063827.510,A,2110.116,N,07251.100,E,194.4,165.7,220224,000.0,W*7B
$GPGGA,063828.510,2110.064,N,07251.114,E,1,12,1.0,0.0,M,0.0,M,,*68
$GPGSA,A,3,01,02,03,04,05,06,07,08,09,10,11,12,1.0,1.0,1.0*30
$GPRMC,063828.510,A,2110.064,N,07251.114,E,194.4,165.7,220224,000.0,W*75
$GPGGA,063829.510,2110.011,N,07251.127,E,1,12,1.0,0.0,M,0.0,M,,*6B
$GPGSA,A,3,01,02,03,04,05,06,07,08,09,10,11,12,1.0,1.0,1.0*30
$GPRMC,063829.510,A,2110.011,N,07251.127,E,194.4,165.7,220224,000.0,W*76
$GPGGA,063830.510,2109.959,N,07251.140,E,1,12,1.0,0.0,M,0.0,M,,*6F
$GPGSA,A,3,01,02,03,04,05,06,07,08,09,10,11,12,1.0,1.0,1.0*30
$GPRMC,063830.510,A,2109.959,N,07251.140,E,194.4,165.7,220224,000.0,W*72
$GPGGA,063831.510,2109.906,N,07251.154,E,1,12,1.0,0.0,M,0.0,M,,*61
$GPGSA,A,3,01,02,03,04,05,06,07,08,09,10,11,12,1.0,1.0,1.0*30
$GPRMC,063831.510,A,2109.906,N,07251.154,E,194.4,166.4,220224,000.0,W*7C
$GPGGA,063832.510,2109.854,N,07251.166,E,1,12,1.0,0.0,M,0.0,M,,*65
$GPGSA,A,3,01,02,03,04,05,06,07,08,09,10,11,12,1.0,1.0,1.0*30
$GPRMC,063832.510,A,2109.854,N,07251.166,E,194.4,166.4,220224,000.0,W*78
$GPGGA,063833.510,2109.801,N,07251.179,E,1,12,1.0,0.0,M,0.0,M,,*6A
$GPGSA,A,3,01,02,03,04,05,06,07,08,09,10,11,12,1.0,1.0,1.0*30
$GPRMC,063833.510,A,2109.801,N,07251.179,E,194.4,166.4,220224,000.0,W*77
$GPGGA,063834.510,2109.749,N,07251.192,E,1,12,1.0,0.0,M,0.0,M,,*6B
$GPGSA,A,3,01,02,03,04,05,06,07,08,09,10,11,12,1.0,1.0,1.0*30
$GPRMC,063834.510,A,2109.749,N,07251.192,E,194.4,165.5,220224,000.0,W*74
$GPGGA,063835.510,2109.696,N,07251.205,E,1,12,1.0,0.0,M,0.0,M,,*64
$GPGSA,A,3,01,02,03,04,05,06,07,08,09,10,11,12,1.0,1.0,1.0*30
$GPRMC,063835.510,A,2109.696,N,07251.205,E,194.4,165.5,220224,000.0,W*7B
$GPGGA,063836.510,2109.644,N,07251.219,E,1,12,1.0,0.0,M,0.0,M,,*65
$GPGSA,A,3,01,02,03,04,05,06,07,08,09,10,11,12,1.0,1.0,1.0*30
$GPRMC,063836.510,A,2109.644,N,07251.219,E,194.4,165.5,220224,000.0,W*7A
$GPGGA,063837.510,2109.591,N,07251.233,E,1,12,1.0,0.0,M,0.0,M,,*67
$GPGSA,A,3,01,02,03,04,05,06,07,08,09,10,11,12,1.0,1.0,1.0*30
$GPRMC,063837.510,A,2109.591,N,07251.233,E,194.4,166.1,220224,000.0,W*7F
$GPGGA,063838.510,2109.539,N,07251.246,E,1,12,1.0,0.0,M,0.0,M,,*68
$GPGSA,A,3,01,02,03,04,05,06,07,08,09,10,11,12,1.0,1.0,1.0*30
$GPRMC,063838.510,A,2109.539,N,07251.246,E,194.4,166.1,220224,000.0,W*70
$GPGGA,063839.510,2109.486,N,07251.259,E,1,12,1.0,0.0,M,0.0,M,,*62
$GPGSA,A,3,01,02,03,04,05,06,07,08,09,10,11,12,1.0,1.0,1.0*30
$GPRMC,063839.510,A,2109.486,N,07251.259,E,194.4,166.1,220224,000.0,W*7A
$GPGGA,063840.510,2109.433,N,07251.272,E,1,12,1.0,0.0,M,0.0,M,,*6B
$GPGSA,A,3,01,02,03,04,05,06,07,08,09,10,11,12,1.0,1.0,1.0*30
$GPRMC,063840.510,A,2109.433,N,07251.272,E,194.4,165.7,220224,000.0,W*76
$GPGGA,063841.510,2109.381,N,07251.285,E,1,12,1.0,0.0,M,0.0,M,,*6C
$GPGSA,A,3,01,02,03,04,05,06,07,08,09,10,11,12,1.0,1.0,1.0*30
$GPRMC,063841.510,A,2109.381,N,07251.285,E,194.4,165.7,220224,000.0,W*71
$GPGGA,063842.510,2109.328,N,07251.299,E,1,12,1.0,0.0,M,0.0,M,,*61
$GPGSA,A,3,01,02,03,04,05,06,07,08,09,10,11,12,1.0,1.0,1.0*30
$GPRMC,063842.510,A,2109.328,N,07251.299,E,194.4,165.7,220224,000.0,W*7C
