$GPGGA,064016.565,2835.341,N,07715.229,E,1,12,1.0,0.0,M,0.0,M,,*6A
$GPGSA,A,3,01,02,03,04,05,06,07,08,09,10,11,12,1.0,1.0,1.0*30
$GPRMC,064016.565,A,2835.341,N,07715.229,E,000.3,180.0,140224,000.0,W*75
$GPGGA,064017.565,2835.341,N,07715.229,E,1,12,1.0,0.0,M,0.0,M,,*6B
$GPGSA,A,3,01,02,03,04,05,06,07,08,09,10,11,12,1.0,1.0,1.0*30
$GPRMC,064017.565,A,2835.341,N,07715.229,E,000.3,000.0,140224,000.0,W*7D
$GPGGA,064018.565,2835.341,N,07715.229,E,1,12,1.0,0.0,M,0.0,M,,*64
$GPGSA,A,3,01,02,03,04,05,06,07,08,09,10,11,12,1.0,1.0,1.0*30
$GPRMC,064018.565,A,2835.341,N,07715.229,E,000.0,000.0,140224,000.0,W*71
$GPGGA,064019.565,2835.341,N,07715.229,E,1,12,1.0,0.0,M,0.0,M,,*65
$GPGSA,A,3,01,02,03,04,05,06,07,08,09,10,11,12,1.0,1.0,1.0*30
$GPRMC,064019.565,A,2835.341,N,07715.229,E,000.0,000.0,140224,000.0,W*70
$GPGGA,064020.565,2835.341,N,07715.229,E,1,12,1.0,0.0,M,0.0,M,,*6F
$GPGSA,A,3,01,02,03,04,05,06,07,08,09,10,11,12,1.0,1.0,1.0*30
$GPRMC,064020.565,A,2835.341,N,07715.229,E,000.0,000.0,140224,000.0,W*7A
$GPGGA,064021.565,2835.341,N,07715.229,E,1,12,1.0,0.0,M,0.0,M,,*6E
$GPGSA,A,3,01,02,03,04,05,06,07,08,09,10,11,12,1.0,1.0,1.0*30
$GPRMC,064021.565,A,2835.341,N,07715.229,E,000.0,000.0,140224,000.0,W*7B
$GPGGA,064022.565,2835.341,N,07715.229,E,1,12,1.0,0.0,M,0.0,M,,*6D
$GPGSA,A,3,01,02,03,04,05,06,07,08,09,10,11,12,1.0,1.0,1.0*30
$GPRMC,064022.565,A,2835.341,N,07715.229,E,000.0,000.0,140224,000.0,W*78
$GPGGA,064023.565,2835.341,N,07715.229,E,1,12,1.0,0.0,M,0.0,M,,*6C
$GPGSA,A,3,01,02,03,04,05,06,07,08,09,10,11,12,1.0,1.0,1.0*30
$GPRMC,064023.565,A,2835.341,N,07715.229,E,000.0,000.0,140224,000.0,W*79
$GPGGA,064024.565,2835.341,N,07715.229,E,1,12,1.0,0.0,M,0.0,M,,*6B
$GPGSA,A,3,01,02,03,04,05,06,07,08,09,10,11,12,1.0,1.0,1.0*30
$GPRMC,064024.565,A,2835.341,N,07715.229,E,000.0,000.0,140224,000.0,W*7E
$GPGGA,064025.565,2835.341,N,07715.229,E,1,12,1.0,0.0,M,0.0,M,,*6A
$GPGSA,A,3,01,02,03,04,05,06,07,08,09,10,11,12,1.0,1.0,1.0*30
$GPRMC,064025.565,A,2835.341,N,07715.229,E,000.0,000.0,140224,000.0,W*7F
$GPGGA,064026.565,2835.341,N,07715.229,E,1,12,1.0,0.0,M,0.0,M,,*69
$GPGSA,A,3,01,02,03,04,05,06,07,08,09,10,11,12,1.0,1.0,1.0*30
$GPRMC,064026.565,A,2835.341,N,07715.229,E,000.0,000.0,140224,000.0,W*7C
$GPGGA,064027.565,2835.341,N,07715.229,E,1,12,1.0,0.0,M,0.0,M,,*68
$GPGSA,A,3,01,02,03,04,05,06,07,08,09,10,11,12,1.0,1.0,1.0*30
$GPRMC,064027.565,A,2835.341,N,07715.229,E,000.0,000.0,140224,000.0,W*7D
$GPGGA,064028.565,2835.341,N,07715.229,E,1,12,1.0,0.0,M,0.0,M,,*67
$GPGSA,A,3,01,02,03,04,05,06,07,08,09,10,11,12,1.0,1.0,1.0*30
$GPRMC,064028.565,A,2835.341,N,07715.229,E,000.0,000.0,140224,000.0,W*72
$GPGGA,064029.565,2835.341,N,07715.229,E,1,12,1.0,0.0,M,0.0,M,,*66
$GPGSA,A,3,01,02,03,04,05,06,07,08,09,10,11,12,1.0,1.0,1.0*30
$GPRMC,064029.565,A,2835.341,N,07715.229,E,000.0,000.0,140224,000.0,W*73
$GPGGA,064030.565,2835.341,N,07715.229,E,1,12,1.0,0.0,M,0.0,M,,*6E
$GPGSA,A,3,01,02,03,04,05,06,07,08,09,10,11,12,1.0,1.0,1.0*30
$GPRMC,064030.565,A,2835.341,N,07715.229,E,000.0,000.0,140224,000.0,W*7B
$GPGGA,064031.565,2835.341,N,07715.229,E,1,12,1.0,0.0,M,0.0,M,,*6F
$GPGSA,A,3,01,02,03,04,05,06,07,08,09,10,11,12,1.0,1.0,1.0*30
$GPRMC,064031.565,A,2835.341,N,07715.229,E,000.0,000.0,140224,000.0,W*7A
$GPGGA,064032.565,2835.341,N,07715.229,E,1,12,1.0,0.0,M,0.0,M,,*6C
$GPGSA,A,3,01,02,03,04,05,06,07,08,09,10,11,12,1.0,1.0,1.0*30
$GPRMC,064032.565,A,2835.341,N,07715.229,E,000.0,000.0,140224,000.0,W*79
$GPGGA,064033.565,2835.341,N,07715.229,E,1,12,1.0,0.0,M,0.0,M,,*6D
$GPGSA,A,3,01,02,03,04,05,06,07,08,09,10,11,12,1.0,1.0,1.0*30
$GPRMC,064033.565,A,2835.341,N,07715.229,E,000.0,000.0,140224,000.0,W*78
$GPGGA,064034.565,2835.341,N,07715.229,E,1,12,1.0,0.0,M,0.0,M,,*6A
$GPGSA,A,3,01,02,03,04,05,06,07,08,09,10,11,12,1.0,1.0,1.0*30
$GPRMC,064034.565,A,2835.341,N,07715.229,E,000.0,000.0,140224,000.0,W*7F
$GPGGA,064035.565,2835.341,N,07715.229,E,1,12,1.0,0.0,M,0.0,M,,*6B
$GPGSA,A,3,01,02,03,04,05,06,07,08,09,10,11,12,1.0,1.0,1.0*30
$GPRMC,064035.565,A,2835.341,N,07715.229,E,000.0,000.0,140224,000.0,W*7E
$GPGGA,064036.565,2835.341,N,07715.229,E,1,12,1.0,0.0,M,0.0,M,,*68
$GPGSA,A,3,01,02,03,04,05,06,07,08,09,10,11,12,1.0,1.0,1.0*30
$GPRMC,064036.565,A,2835.341,N,07715.229,E,000.0,000.0,140224,000.0,W*7D
$GPGGA,064037.565,2835.341,N,07715.229,E,1,12,1.0,0.0,M,0.0,M,,*69
$GPGSA,A,3,01,02,03,04,05,06,07,08,09,10,11,12,1.0,1.0,1.0*30
$GPRMC,064037.565,A,2835.341,N,07715.229,E,000.0,000.0,140224,000.0,W*7C
$GPGGA,064038.565,2835.341,N,07715.229,E,1,12,1.0,0.0,M,0.0,M,,*66
$GPGSA,A,3,01,02,03,04,05,06,07,08,09,10,11,12,1.0,1.0,1.0*30
$GPRMC,064038.565,A,2835.341,N,07715.229,E,000.0,000.0,140224,000.0,W*73
$GPGGA,064039.565,2835.341,N,07715.229,E,1,12,1.0,0.0,M,0.0,M,,*67
$GPGSA,A,3,01,02,03,04,05,06,07,08,09,10,11,12,1.0,1.0,1.0*30
$GPRMC,064039.565,A,2835.341,N,07715.229,E,000.0,000.0,140224,000.0,W*72
$GPGGA,064040.565,2835.341,N,07715.229,E,1,12,1.0,0.0,M,0.0,M,,*69
$GPGSA,A,3,01,02,03,04,05,06,07,08,09,10,11,12,1.0,1.0,1.0*30
$GPRMC,064040.565,A,2835.341,N,07715.229,E,000.0,000.0,140224,000.0,W*7C
$GPGGA,064041.565,2835.341,N,07715.229,E,1,12,1.0,0.0,M,0.0,M,,*68
$GPGSA,A,3,01,02,03,04,05,06,07,08,09,10,11,12,1.0,1.0,1.0*30
$GPRMC,064041.565,A,2835.341,N,07715.229,E,000.0,000.0,140224,000.0,W*7D
$GPGGA,064042.565,2835.341,N,07715.229,E,1,12,1.0,0.0,M,0.0,M,,*6B
$GPGSA,A,3,01,02,03,04,05,06,07,08,09,10,11,12,1.0,1.0,1.0*30
$GPRMC,064042.565,A,2835.341,N,07715.229,E,000.0,000.0,140224,000.0,W*7E
$GPGGA,064043.565,2835.341,N,07715.229,E,1,12,1.0,0.0,M,0.0,M,,*6A
$GPGSA,A,3,01,02,03,04,05,06,07,08,09,10,11,12,1.0,1.0,1.0*30
$GPRMC,064043.565,A,2835.341,N,07715.229,E,000.0,000.0,140224,000.0,W*7F
$GPGGA,064044.565,2835.341,N,07715.229,E,1,12,1.0,0.0,M,0.0,M,,*6D
$GPGSA,A,3,01,02,03,04,05,06,07,08,09,10,11,12,1.0,1.0,1.0*30
$GPRMC,064044.565,A,2835.341,N,07715.229,E,000.0,000.0,140224,000.0,W*78
$GPGGA,064045.565,2835.341,N,07715.229,E,1,12,1.0,0.0,M,0.0,M,,*6C
$GPGSA,A,3,01,02,03,04,05,06,07,08,09,10,11,12,1.0,1.0,1.0*30
$GPRMC,064045.565,A,2835.341,N,07715.229,E,000.0,000.0,140224,000.0,W*79
$GPGGA,064046.565,2835.341,N,07715.229,E,1,12,1.0,0.0,M,0.0,M,,*6F
$GPGSA,A,3,01,02,03,04,05,06,07,08,09,10,11,12,1.0,1.0,1.0*30
$GPRMC,064046.565,A,2835.341,N,07715.229,E,000.3,270.0,140224,000.0,W*7C
$GPGGA,064047.565,2835.341,N,07715.229,E,1,12,1.0,0.0,M,0.0,M,,*6E
$GPGSA,A,3,01,02,03,04,05,06,07,08,09,10,11,12,1.0,1.0,1.0*30
$GPRMC,064047.565,A,2835.341,N,07715.229,E,000.3,000.0,140224,000.0,W*78
$GPGGA,064048.565,2835.341,N,07715.229,E,1,12,1.0,0.0,M,0.0,M,,*61
$GPGSA,A,3,01,02,03,04,05,06,07,08,09,10,11,12,1.0,1.0,1.0*30
$GPRMC,064048.565,A,2835.341,N,07715.229,E,000.0,000.0,140224,000.0,W*74
$GPGGA,064049.565,2835.341,N,07715.229,E,1,12,1.0,0.0,M,0.0,M,,*60
$GPGSA,A,3,01,02,03,04,05,06,07,08,09,10,11,12,1.0,1.0,1.0*30
$GPRMC,064049.565,A,2835.341,N,07715.229,E,000.0,000.0,140224,000.0,W*75
$GPGGA,064050.565,2835.341,N,07715.229,E,1,12,1.0,0.0,M,0.0,M,,*68
$GPGSA,A,3,01,02,03,04,05,06,07,08,09,10,11,12,1.0,1.0,1.0*30
$GPRMC,064050.565,A,2835.341,N,07715.229,E,000.0,000.0,140224,000.0,W*7D
$GPGGA,064051.565,2835.341,N,07715.229,E,1,12,1.0,0.0,M,0.0,M,,*69
$GPGSA,A,3,01,02,03,04,05,06,07,08,09,10,11,12,1.0,1.0,1.0*30
$GPRMC,064051.565,A,2835.341,N,07715.229,E,194.4,173.9,140224,000.0,W*78
$GPGGA,064052.565,2835.287,N,07715.235,E,1,12,1.0,0.0,M,0.0,M,,*6C
$GPGSA,A,3,01,02,03,04,05,06,07,08,09,10,11,12,1.0,1.0,1.0*30
$GPRMC,064052.565,A,2835.287,N,07715.235,E,194.4,173.9,140224,000.0,W*7D
$GPGGA,064053.565,2835.233,N,07715.241,E,1,12,1.0,0.0,M,0.0,M,,*61
$GPGSA,A,3,01,02,03,04,05,06,07,08,09,10,11,12,1.0,1.0,1.0*30
$GPRMC,064053.565,A,2835.233,N,07715.241,E,194.4,173.9,140224,000.0,W*70
$GPGGA,064054.565,2835.179,N,07715.246,E,1,12,1.0,0.0,M,0.0,M,,*6C
$GPGSA,A,3,01,02,03,04,05,06,07,08,09,10,11,12,1.0,1.0,1.0*30
$GPRMC,064054.565,A,2835.179,N,07715.246,E,194.4,173.9,140224,000.0,W*7D
$GPGGA,064055.565,2835.126,N,07715.252,E,1,12,1.0,0.0,M,0.0,M,,*62
$GPGSA,A,3,01,02,03,04,05,06,07,08,09,10,11,12,1.0,1.0,1.0*30
$GPRMC,064055.565,A,2835.126,N,07715.252,E,194.4,177.9,140224,000.0,W*77
$GPGGA,064056.565,2835.072,N,07715.254,E,1,12,1.0,0.0,M,0.0,M,,*67
$GPGSA,A,3,01,02,03,04,05,06,07,08,09,10,11,12,1.0,1.0,1.0*30
$GPRMC,064056.565,A,2835.072,N,07715.254,E,194.4,177.9,140224,000.0,W*72
$GPGGA,064057.565,2835.018,N,07715.256,E,1,12,1.0,0.0,M,0.0,M,,*68
$GPGSA,A,3,01,02,03,04,05,06,07,08,09,10,11,12,1.0,1.0,1.0*30
$GPRMC,064057.565,A,2835.018,N,07715.256,E,194.4,177.9,140224,000.0,W*7D
$GPGGA,064058.565,2834.964,N,07715.258,E,1,12,1.0,0.0,M,0.0,M,,*6A
$GPGSA,A,3,01,02,03,04,05,06,07,08,09,10,11,12,1.0,1.0,1.0*30
$GPRMC,064058.565,A,2834.964,N,07715.258,E,194.4,177.9,140224,000.0,W*7F
$GPGGA,064059.565,2834.910,N,07715.260,E,1,12,1.0,0.0,M,0.0,M,,*63
$GPGSA,A,3,01,02,03,04,05,06,07,08,09,10,11,12,1.0,1.0,1.0*30
$GPRMC,064059.565,A,2834.910,N,07715.260,E,194.4,177.9,140224,000.0,W*76
$GPGGA,064100.565,2834.856,N,07715.262,E,1,12,1.0,0.0,M,0.0,M,,*6F
$GPGSA,A,3,01,02,03,04,05,06,07,08,09,10,11,12,1.0,1.0,1.0*30
$GPRMC,064100.565,A,2834.856,N,07715.262,E,194.4,177.9,140224,000.0,W*7A
$GPGGA,064101.565,2834.802,N,07715.264,E,1,12,1.0,0.0,M,0.0,M,,*69
$GPGSA,A,3,01,02,03,04,05,06,07,08,09,10,11,12,1.0,1.0,1.0*30
$GPRMC,064101.565,A,2834.802,N,07715.264,E,194.4,177.9,140224,000.0,W*7C
$GPGGA,064102.565,2834.748,N,07715.266,E,1,12,1.0,0.0,M,0.0,M,,*69
$GPGSA,A,3,01,02,03,04,05,06,07,08,09,10,11,12,1.0,1.0,1.0*30
$GPRMC,064102.565,A,2834.748,N,07715.266,E,194.4,178.4,140224,000.0,W*7E
$GPGGA,064103.565,2834.694,N,07715.267,E,1,12,1.0,0.0,M,0.0,M,,*69
$GPGSA,A,3,01,02,03,04,05,06,07,08,09,10,11,12,1.0,1.0,1.0*30
$GPRMC,064103.565,A,2834.694,N,07715.267,E,194.4,178.4,140224,000.0,W*7E
$GPGGA,064104.565,2834.640,N,07715.269,E,1,12,1.0,0.0,M,0.0,M,,*69
$GPGSA,A,3,01,02,03,04,05,06,07,08,09,10,11,12,1.0,1.0,1.0*30
$GPRMC,064104.565,A,2834.640,N,07715.269,E,194.4,178.4,140224,000.0,W*7E
$GPGGA,064105.565,2834.586,N,07715.270,E,1,12,1.0,0.0,M,0.0,M,,*69
$GPGSA,A,3,01,02,03,04,05,06,07,08,09,10,11,12,1.0,1.0,1.0*30
$GPRMC,064105.565,A,2834.586,N,07715.270,E,194.4,175.9,140224,000.0,W*7E
$GPGGA,064106.565,2834.532,N,07715.274,E,1,12,1.0,0.0,M,0.0,M,,*61
$GPGSA,A,3,01,02,03,04,05,06,07,08,09,10,11,12,1.0,1.0,1.0*30
$GPRMC,064106.565,A,2834.532,N,07715.274,E,194.4,175.9,140224,000.0,W*76
$GPGGA,064107.565,2834.479,N,07715.278,E,1,12,1.0,0.0,M,0.0,M,,*62
$GPGSA,A,3,01,02,03,04,05,06,07,08,09,10,11,12,1.0,1.0,1.0*30
$GPRMC,064107.565,A,2834.479,N,07715.278,E,194.4,175.9,140224,000.0,W*75
$GPGGA,064108.565,2834.425,N,07715.282,E,1,12,1.0,0.0,M,0.0,M,,*61
$GPGSA,A,3,01,02,03,04,05,06,07,08,09,10,11,12,1.0,1.0,1.0*30
$GPRMC,064108.565,A,2834.425,N,07715.282,E,194.4,162.8,140224,000.0,W*71
$GPGGA,064109.565,2834.373,N,07715.298,E,1,12,1.0,0.0,M,0.0,M,,*6F
$GPGSA,A,3,01,02,03,04,05,06,07,08,09,10,11,12,1.0,1.0,1.0*30
$GPRMC,064109.565,A,2834.373,N,07715.298,E,194.4,162.8,140224,000.0,W*7F
$GPGGA,064110.565,2834.321,N,07715.314,E,1,12,1.0,0.0,M,0.0,M,,*65
$GPGSA,A,3,01,02,03,04,05,06,07,08,09,10,11,12,1.0,1.0,1.0*30
$GPRMC,064110.565,A,2834.321,N,07715.314,E,194.4,149.8,140224,000.0,W*7C
$GPGGA,064111.565,2834.273,N,07715.342,E,1,12,1.0,0.0,M,0.0,M,,*61
$GPGSA,A,3,01,02,03,04,05,06,07,08,09,10,11,12,1.0,1.0,1.0*30
$GPRMC,064111.565,A,2834.273,N,07715.342,E,194.4,149.8,140224,000.0,W*78
$GPGGA,064112.565,2834.225,N,07715.370,E,1,12,1.0,0.0,M,0.0,M,,*60
$GPGSA,A,3,01,02,03,04,05,06,07,08,09,10,11,12,1.0,1.0,1.0*30
$GPRMC,064112.565,A,2834.225,N,07715.370,E,194.4,149.8,140224,000.0,W*79
$GPGGA,064113.565,2834.176,N,07715.398,E,1,12,1.0,0.0,M,0.0,M,,*62
$GPGSA,A,3,01,02,03,04,05,06,07,08,09,10,11,12,1.0,1.0,1.0*30
$GPRMC,064113.565,A,2834.176,N,07715.398,E,194.4,139.3,140224,000.0,W*77
$GPGGA,064114.565,2834.133,N,07715.435,E,1,12,1.0,0.0,M,0.0,M,,*64
$GPGSA,A,3,01,02,03,04,05,06,07,08,09,10,11,12,1.0,1.0,1.0*30
$GPRMC,064114.565,A,2834.133,N,07715.435,E,194.4,139.3,140224,000.0,W*71
$GPGGA,064115.565,2834.090,N,07715.472,E,1,12,1.0,0.0,M,0.0,M,,*6E
$GPGSA,A,3,01,02,03,04,05,06,07,08,09,10,11,12,1.0,1.0,1.0*30
$GPRMC,064115.565,A,2834.090,N,07715.472,E,194.4,139.3,140224,000.0,W*7B
$GPGGA,064116.565,2834.047,N,07715.509,E,1,12,1.0,0.0,M,0.0,M,,*6A
$GPGSA,A,3,01,02,03,04,05,06,07,08,09,10,11,12,1.0,1.0,1.0*30
$GPRMC,064116.565,A,2834.047,N,07715.509,E,194.4,139.3,140224,000.0,W*7F
$GPGGA,064117.565,2834.004,N,07715.546,E,1,12,1.0,0.0,M,0.0,M,,*67
$GPGSA,A,3,01,02,03,04,05,06,07,08,09,10,11,12,1.0,1.0,1.0*30
$GPRMC,064117.565,A,2834.004,N,07715.546,E,194.4,139.7,140224,000.0,W*76
$GPGGA,064118.565,2833.961,N,07715.583,E,1,12,1.0,0.0,M,0.0,M,,*6C
$GPGSA,A,3,01,02,03,04,05,06,07,08,09,10,11,12,1.0,1.0,1.0*30
$GPRMC,064118.565,A,2833.961,N,07715.583,E,194.4,139.7,140224,000.0,W*7D
$GPGGA,064119.565,2833.918,N,07715.620,E,1,12,1.0,0.0,M,0.0,M,,*69
$GPGSA,A,3,01,02,03,04,05,06,07,08,09,10,11,12,1.0,1.0,1.0*30
$GPRMC,064119.565,A,2833.918,N,07715.620,E,194.4,139.7,140224,000.0,W*78
$GPGGA,064120.565,2833.874,N,07715.656,E,1,12,1.0,0.0,M,0.0,M,,*69
$GPGSA,A,3,01,02,03,04,05,06,07,08,09,10,11,12,1.0,1.0,1.0*30
$GPRMC,064120.565,A,2833.874,N,07715.656,E,194.4,139.7,140224,000.0,W*78
$GPGGA,064121.565,2833.831,N,07715.693,E,1,12,1.0,0.0,M,0.0,M,,*60
$GPGSA,A,3,01,02,03,04,05,06,07,08,09,10,11,12,1.0,1.0,1.0*30
$GPRMC,064121.565,A,2833.831,N,07715.693,E,194.4,139.7,140224,000.0,W*71
$GPGGA,064122.565,2833.788,N,07715.730,E,1,12,1.0,0.0,M,0.0,M,,*66
$GPGSA,A,3,01,02,03,04,05,06,07,08,09,10,11,12,1.0,1.0,1.0*30
$GPRMC,064122.565,A,2833.788,N,07715.730,E,194.4,138.4,140224,000.0,W*75
$GPGGA,064123.565,2833.745,N,07715.768,E,1,12,1.0,0.0,M,0.0,M,,*6B
$GPGSA,A,3,01,02,03,04,05,06,07,08,09,10,11,12,1.0,1.0,1.0*30
$GPRMC,064123.565,A,2833.745,N,07715.768,E,194.4,138.4,140224,000.0,W*78
$GPGGA,064124.565,2833.703,N,07715.805,E,1,12,1.0,0.0,M,0.0,M,,*6A
$GPGSA,A,3,01,02,03,04,05,06,07,08,09,10,11,12,1.0,1.0,1.0*30
$GPRMC,064124.565,A,2833.703,N,07715.805,E,194.4,138.4,140224,000.0,W*79
$GPGGA,064125.565,2833.660,N,07715.843,E,1,12,1.0,0.0,M,0.0,M,,*6D
$GPGSA,A,3,01,02,03,04,05,06,07,08,09,10,11,12,1.0,1.0,1.0*30
$GPRMC,064125.565,A,2833.660,N,07715.843,E,194.4,138.4,140224,000.0,W*7E
$GPGGA,064126.565,2833.618,N,07715.881,E,1,12,1.0,0.0,M,0.0,M,,*6F
$GPGSA,A,3,01,02,03,04,05,06,07,08,09,10,11,12,1.0,1.0,1.0*30
$GPRMC,064126.565,A,2833.618,N,07715.881,E,194.4,138.1,140224,000.0,W*79
$GPGGA,064127.565,2833.575,N,07715.919,E,1,12,1.0,0.0,M,0.0,M,,*66
$GPGSA,A,3,01,02,03,04,05,06,07,08,09,10,11,12,1.0,1.0,1.0*30
$GPRMC,064127.565,A,2833.575,N,07715.919,E,194.4,138.1,140224,000.0,W*70
$GPGGA,064128.565,2833.533,N,07715.957,E,1,12,1.0,0.0,M,0.0,M,,*61
$GPGSA,A,3,01,02,03,04,05,06,07,08,09,10,11,12,1.0,1.0,1.0*30
$GPRMC,064128.565,A,2833.533,N,07715.957,E,194.4,138.1,140224,000.0,W*77
$GPGGA,064129.565,2833.491,N,07715.995,E,1,12,1.0,0.0,M,0.0,M,,*67
$GPGSA,A,3,01,02,03,04,05,06,07,08,09,10,11,12,1.0,1.0,1.0*30
$GPRMC,064129.565,A,2833.491,N,07715.995,E,194.4,138.1,140224,000.0,W*71
$GPGGA,064130.565,2833.448,N,07716.033,E,1,12,1.0,0.0,M,0.0,M,,*6D
$GPGSA,A,3,01,02,03,04,05,06,07,08,09,10,11,12,1.0,1.0,1.0*30
$GPRMC,064130.565,A,2833.448,N,07716.033,E,194.4,138.1,140224,000.0,W*7B
$GPGGA,064131.565,2833.406,N,07716.071,E,1,12,1.0,0.0,M,0.0,M,,*60
$GPGSA,A,3,01,02,03,04,05,06,07,08,09,10,11,12,1.0,1.0,1.0*30
$GPRMC,064131.565,A,2833.406,N,07716.071,E,194.4,138.1,140224,000.0,W*76
$GPGGA,064132.565,2833.364,N,07716.109,E,1,12,1.0,0.0,M,0.0,M,,*6E
$GPGSA,A,3,01,02,03,04,05,06,07,08,09,10,11,12,1.0,1.0,1.0*30
$GPRMC,064132.565,A,2833.364,N,07716.109,E,194.4,138.1,140224,000.0,W*78
$GPGGA,064133.565,2833.321,N,07716.147,E,1,12,1.0,0.0,M,0.0,M,,*64
$GPGSA,A,3,01,02,03,04,05,06,07,08,09,10,11,12,1.0,1.0,1.0*30
$GPRMC,064133.565,A,2833.321,N,07716.147,E,194.4,138.1,140224,000.0,W*72
$GPGGA,064134.565,2833.279,N,07716.185,E,1,12,1.0,0.0,M,0.0,M,,*61
$GPGSA,A,3,01,02,03,04,05,06,07,08,09,10,11,12,1.0,1.0,1.0*30
$GPRMC,064134.565,A,2833.279,N,07716.185,E,194.4,138.1,140224,000.0,W*77
$GPGGA,064135.565,2833.236,N,07716.224,E,1,12,1.0,0.0,M,0.0,M,,*63
$GPGSA,A,3,01,02,03,04,05,06,07,08,09,10,11,12,1.0,1.0,1.0*30
$GPRMC,064135.565,A,2833.236,N,07716.224,E,194.4,138.0,140224,000.0,W*74
$GPGGA,064136.565,2833.194,N,07716.262,E,1,12,1.0,0.0,M,0.0,M,,*69
$GPGSA,A,3,01,02,03,04,05,06,07,08,09,10,11,12,1.0,1.0,1.0*30
$GPRMC,064136.565,A,2833.194,N,07716.262,E,194.4,138.0,140224,000.0,W*7E
$GPGGA,064137.565,2833.152,N,07716.300,E,1,12,1.0,0.0,M,0.0,M,,*67
$GPGSA,A,3,01,02,03,04,05,06,07,08,09,10,11,12,1.0,1.0,1.0*30
$GPRMC,064137.565,A,2833.152,N,07716.300,E,194.4,138.0,140224,000.0,W*70
$GPGGA,064138.565,2833.110,N,07716.338,E,1,12,1.0,0.0,M,0.0,M,,*65
$GPGSA,A,3,01,02,03,04,05,06,07,08,09,10,11,12,1.0,1.0,1.0*30
$GPRMC,064138.565,A,2833.110,N,07716.338,E,194.4,138.0,140224,000.0,W*72
$GPGGA,064139.565,2833.067,N,07716.376,E,1,12,1.0,0.0,M,0.0,M,,*6F
$GPGSA,A,3,01,02,03,04,05,06,07,08,09,10,11,12,1.0,1.0,1.0*30
$GPRMC,064139.565,A,2833.067,N,07716.376,E,194.4,138.0,140224,000.0,W*78
$GPGGA,064140.565,2833.025,N,07716.414,E,1,12,1.0,0.0,M,0.0,M,,*64
$GPGSA,A,3,01,02,03,04,05,06,07,08,09,10,11,12,1.0,1.0,1.0*30
$GPRMC,064140.565,A,2833.025,N,07716.414,E,194.4,138.0,140224,000.0,W*73
$GPGGA,064141.565,2832.983,N,07716.452,E,1,12,1.0,0.0,M,0.0,M,,*63
$GPGSA,A,3,01,02,03,04,05,06,07,08,09,10,11,12,1.0,1.0,1.0*30
$GPRMC,064141.565,A,2832.983,N,07716.452,E,194.4,138.0,140224,000.0,W*74
$GPGGA,064142.565,2832.940,N,07716.491,E,1,12,1.0,0.0,M,0.0,M,,*60
$GPGSA,A,3,01,02,03,04,05,06,07,08,09,10,11,12,1.0,1.0,1.0*30
$GPRMC,064142.565,A,2832.940,N,07716.491,E,194.4,138.0,140224,000.0,W*77
$GPGGA,064143.565,2832.898,N,07716.529,E,1,12,1.0,0.0,M,0.0,M,,*67
$GPGSA,A,3,01,02,03,04,05,06,07,08,09,10,11,12,1.0,1.0,1.0*30
$GPRMC,064143.565,A,2832.898,N,07716.529,E,194.4,139.5,140224,000.0,W*74
$GPGGA,064144.565,2832.855,N,07716.566,E,1,12,1.0,0.0,M,0.0,M,,*6A
$GPGSA,A,3,01,02,03,04,05,06,07,08,09,10,11,12,1.0,1.0,1.0*30
$GPRMC,064144.565,A,2832.855,N,07716.566,E,194.4,139.5,140224,000.0,W*79
$GPGGA,064145.565,2832.812,N,07716.603,E,1,12,1.0,0.0,M,0.0,M,,*68
$GPGSA,A,3,01,02,03,04,05,06,07,08,09,10,11,12,1.0,1.0,1.0*30
$GPRMC,064145.565,A,2832.812,N,07716.603,E,194.4,139.5,140224,000.0,W*7B
$GPGGA,064146.565,2832.769,N,07716.639,E,1,12,1.0,0.0,M,0.0,M,,*61
$GPGSA,A,3,01,02,03,04,05,06,07,08,09,10,11,12,1.0,1.0,1.0*30
$GPRMC,064146.565,A,2832.769,N,07716.639,E,194.4,139.5,140224,000.0,W*72
$GPGGA,064147.565,2832.726,N,07716.676,E,1,12,1.0,0.0,M,0.0,M,,*60
$GPGSA,A,3,01,02,03,04,05,06,07,08,09,10,11,12,1.0,1.0,1.0*30
$GPRMC,064147.565,A,2832.726,N,07716.676,E,194.4,152.3,140224,000.0,W*78
$GPGGA,064148.565,2832.677,N,07716.702,E,1,12,1.0,0.0,M,0.0,M,,*68
$GPGSA,A,3,01,02,03,04,05,06,07,08,09,10,11,12,1.0,1.0,1.0*30
$GPRMC,064148.565,A,2832.677,N,07716.702,E,194.4,152.3,140224,000.0,W*70
$GPGGA,064149.565,2832.628,N,07716.728,E,1,12,1.0,0.0,M,0.0,M,,*6B
$GPGSA,A,3,01,02,03,04,05,06,07,08,09,10,11,12,1.0,1.0,1.0*30
$GPRMC,064149.565,A,2832.628,N,07716.728,E,194.4,152.1,140224,000.0,W*71
$GPGGA,064150.565,2832.579,N,07716.754,E,1,12,1.0,0.0,M,0.0,M,,*6F
$GPGSA,A,3,01,02,03,04,05,06,07,08,09,10,11,12,1.0,1.0,1.0*30
$GPRMC,064150.565,A,2832.579,N,07716.754,E,194.4,152.1,140224,000.0,W*75
$GPGGA,064151.565,2832.530,N,07716.780,E,1,12,1.0,0.0,M,0.0,M,,*6A
$GPGSA,A,3,01,02,03,04,05,06,07,08,09,10,11,12,1.0,1.0,1.0*30
$GPRMC,064151.565,A,2832.530,N,07716.780,E,194.4,152.1,140224,000.0,W*70
$GPGGA,064152.565,2832.481,N,07716.805,E,1,12,1.0,0.0,M,0.0,M,,*60
$GPGSA,A,3,01,02,03,04,05,06,07,08,09,10,11,12,1.0,1.0,1.0*30
$GPRMC,064152.565,A,2832.481,N,07716.805,E,194.4,152.1,140224,000.0,W*7A
$GPGGA,064153.565,2832.432,N,07716.831,E,1,12,1.0,0.0,M,0.0,M,,*6E
$GPGSA,A,3,01,02,03,04,05,06,07,08,09,10,11,12,1.0,1.0,1.0*30
$GPRMC,064153.565,A,2832.432,N,07716.831,E,194.4,152.1,140224,000.0,W*74
$GPGGA,064154.565,2832.383,N,07716.857,E,1,12,1.0,0.0,M,0.0,M,,*64
$GPGSA,A,3,01,02,03,04,05,06,07,08,09,10,11,12,1.0,1.0,1.0*30
$GPRMC,064154.565,A,2832.383,N,07716.857,E,194.4,152.6,140224,000.0,W*79
$GPGGA,064155.565,2832.334,N,07716.883,E,1,12,1.0,0.0,M,0.0,M,,*60
$GPGSA,A,3,01,02,03,04,05,06,07,08,09,10,11,12,1.0,1.0,1.0*30
$GPRMC,064155.565,A,2832.334,N,07716.883,E,194.4,152.6,140224,000.0,W*7D
$GPGGA,064156.565,2832.285,N,07716.908,E,1,12,1.0,0.0,M,0.0,M,,*6A
$GPGSA,A,3,01,02,03,04,05,06,07,08,09,10,11,12,1.0,1.0,1.0*30
$GPRMC,064156.565,A,2832.285,N,07716.908,E,194.4,152.6,140224,000.0,W*77
$GPGGA,064157.565,2832.236,N,07716.934,E,1,12,1.0,0.0,M,0.0,M,,*6C
$GPGSA,A,3,01,02,03,04,05,06,07,08,09,10,11,12,1.0,1.0,1.0*30
$GPRMC,064157.565,A,2832.236,N,07716.934,E,194.4,152.6,140224,000.0,W*71
$GPGGA,064158.565,2832.187,N,07716.959,E,1,12,1.0,0.0,M,0.0,M,,*61
$GPGSA,A,3,01,02,03,04,05,06,07,08,09,10,11,12,1.0,1.0,1.0*30
$GPRMC,064158.565,A,2832.187,N,07716.959,E,194.4,152.2,140224,000.0,W*78
$GPGGA,064159.565,2832.138,N,07716.985,E,1,12,1.0,0.0,M,0.0,M,,*65
$GPGSA,A,3,01,02,03,04,05,06,07,08,09,10,11,12,1.0,1.0,1.0*30
$GPRMC,064159.565,A,2832.138,N,07716.985,E,194.4,152.2,140224,000.0,W*7C
$GPGGA,064200.565,2832.089,N,07717.011,E,1,12,1.0,0.0,M,0.0,M,,*64
$GPGSA,A,3,01,02,03,04,05,06,07,08,09,10,11,12,1.0,1.0,1.0*30
$GPRMC,064200.565,A,2832.089,N,07717.011,E,194.4,152.2,140224,000.0,W*7D
$GPGGA,064201.565,2832.040,N,07717.037,E,1,12,1.0,0.0,M,0.0,M,,*64
$GPGSA,A,3,01,02,03,04,05,06,07,08,09,10,11,12,1.0,1.0,1.0*30
$GPRMC,064201.565,A,2832.040,N,07717.037,E,194.4,152.2,140224,000.0,W*7D
$GPGGA,064202.565,2831.991,N,07717.063,E,1,12,1.0,0.0,M,0.0,M,,*60
$GPGSA,A,3,01,02,03,04,05,06,07,08,09,10,11,12,1.0,1.0,1.0*30
$GPRMC,064202.565,A,2831.991,N,07717.063,E,194.4,152.2,140224,000.0,W*79
$GPGGA,064203.565,2831.942,N,07717.088,E,1,12,1.0,0.0,M,0.0,M,,*6A
$GPGSA,A,3,01,02,03,04,05,06,07,08,09,10,11,12,1.0,1.0,1.0*30
$GPRMC,064203.565,A,2831.942,N,07717.088,E,194.4,152.3,140224,000.0,W*72
$GPGGA,064204.565,2831.893,N,07717.114,E,1,12,1.0,0.0,M,0.0,M,,*64
$GPGSA,A,3,01,02,03,04,05,06,07,08,09,10,11,12,1.0,1.0,1.0*30
$GPRMC,064204.565,A,2831.893,N,07717.114,E,194.4,152.3,140224,000.0,W*7C
$GPGGA,064205.565,2831.844,N,07717.140,E,1,12,1.0,0.0,M,0.0,M,,*6E
$GPGSA,A,3,01,02,03,04,05,06,07,08,09,10,11,12,1.0,1.0,1.0*30
$GPRMC,064205.565,A,2831.844,N,07717.140,E,194.4,152.3,140224,000.0,W*76
$GPGGA,064206.565,2831.795,N,07717.166,E,1,12,1.0,0.0,M,0.0,M,,*6A
$GPGSA,A,3,01,02,03,04,05,06,07,08,09,10,11,12,1.0,1.0,1.0*30
$GPRMC,064206.565,A,2831.795,N,07717.166,E,194.4,152.3,140224,000.0,W*72
$GPGGA,064207.565,2831.746,N,07717.192,E,1,12,1.0,0.0,M,0.0,M,,*6E
$GPGSA,A,3,01,02,03,04,05,06,07,08,09,10,11,12,1.0,1.0,1.0*30
$GPRMC,064207.565,A,2831.746,N,07717.192,E,194.4,150.7,140224,000.0,W*70
$GPGGA,064208.565,2831.698,N,07717.219,E,1,12,1.0,0.0,M,0.0,M,,*63
$GPGSA,A,3,01,02,03,04,05,06,07,08,09,10,11,12,1.0,1.0,1.0*30
$GPRMC,064208.565,A,2831.698,N,07717.219,E,194.4,150.7,140224,000.0,W*7D
$GPGGA,064209.565,2831.649,N,07717.246,E,1,12,1.0,0.0,M,0.0,M,,*64
$GPGSA,A,3,01,02,03,04,05,06,07,08,09,10,11,12,1.0,1.0,1.0*30
$GPRMC,064209.565,A,2831.649,N,07717.246,E,194.4,150.7,140224,000.0,W*7A
$GPGGA,064210.565,2831.601,N,07717.273,E,1,12,1.0,0.0,M,0.0,M,,*66
$GPGSA,A,3,01,02,03,04,05,06,07,08,09,10,11,12,1.0,1.0,1.0*30
$GPRMC,064210.565,A,2831.601,N,07717.273,E,194.4,154.5,140224,000.0,W*7E
$GPGGA,064211.565,2831.551,N,07717.297,E,1,12,1.0,0.0,M,0.0,M,,*6B
$GPGSA,A,3,01,02,03,04,05,06,07,08,09,10,11,12,1.0,1.0,1.0*30
$GPRMC,064211.565,A,2831.551,N,07717.297,E,194.4,154.5,140224,000.0,W*73
$GPGGA,064212.565,2831.501,N,07717.320,E,1,12,1.0,0.0,M,0.0,M,,*60
$GPGSA,A,3,01,02,03,04,05,06,07,08,09,10,11,12,1.0,1.0,1.0*30
$GPRMC,064212.565,A,2831.501,N,07717.320,E,194.4,154.5,140224,000.0,W*78
$GPGGA,064213.565,2831.451,N,07717.344,E,1,12,1.0,0.0,M,0.0,M,,*67
$GPGSA,A,3,01,02,03,04,05,06,07,08,09,10,11,12,1.0,1.0,1.0*30
$GPRMC,064213.565,A,2831.451,N,07717.344,E,194.4,154.5,140224,000.0,W*7F
$GPGGA,064214.565,2831.402,N,07717.368,E,1,12,1.0,0.0,M,0.0,M,,*68
$GPGSA,A,3,01,02,03,04,05,06,07,08,09,10,11,12,1.0,1.0,1.0*30
$GPRMC,064214.565,A,2831.402,N,07717.368,E,194.4,154.5,140224,000.0,W*70
$GPGGA,064215.565,2831.352,N,07717.392,E,1,12,1.0,0.0,M,0.0,M,,*6E
$GPGSA,A,3,01,02,03,04,05,06,07,08,09,10,11,12,1.0,1.0,1.0*30
$GPRMC,064215.565,A,2831.352,N,07717.392,E,194.4,152.2,140224,000.0,W*77
$GPGGA,064216.565,2831.303,N,07717.417,E,1,12,1.0,0.0,M,0.0,M,,*63
$GPGSA,A,3,01,02,03,04,05,06,07,08,09,10,11,12,1.0,1.0,1.0*30
$GPRMC,064216.565,A,2831.303,N,07717.417,E,194.4,152.2,140224,000.0,W*7A
$GPGGA,064217.565,2831.254,N,07717.443,E,1,12,1.0,0.0,M,0.0,M,,*60
$GPGSA,A,3,01,02,03,04,05,06,07,08,09,10,11,12,1.0,1.0,1.0*30
$GPRMC,064217.565,A,2831.254,N,07717.443,E,194.4,152.2,140224,000.0,W*79
$GPGGA,064218.565,2831.205,N,07717.469,E,1,12,1.0,0.0,M,0.0,M,,*63
$GPGSA,A,3,01,02,03,04,05,06,07,08,09,10,11,12,1.0,1.0,1.0*30
$GPRMC,064218.565,A,2831.205,N,07717.469,E,194.4,152.2,140224,000.0,W*7A
$GPGGA,064219.565,2831.156,N,07717.495,E,1,12,1.0,0.0,M,0.0,M,,*64
$GPGSA,A,3,01,02,03,04,05,06,07,08,09,10,11,12,1.0,1.0,1.0*30
$GPRMC,064219.565,A,2831.156,N,07717.495,E,194.4,152.2,140224,000.0,W*7D
$GPGGA,064220.565,2831.107,N,07717.521,E,1,12,1.0,0.0,M,0.0,M,,*64
$GPGSA,A,3,01,02,03,04,05,06,07,08,09,10,11,12,1.0,1.0,1.0*30
$GPRMC,064220.565,A,2831.107,N,07717.521,E,194.4,153.3,140224,000.0,W*7D
$GPGGA,064221.565,2831.058,N,07717.546,E,1,12,1.0,0.0,M,0.0,M,,*6F
$GPGSA,A,3,01,02,03,04,05,06,07,08,09,10,11,12,1.0,1.0,1.0*30
$GPRMC,064221.565,A,2831.058,N,07717.546,E,194.4,161.5,140224,000.0,W*71
$GPGGA,064222.565,2831.006,N,07717.563,E,1,12,1.0,0.0,M,0.0,M,,*60
$GPGSA,A,3,01,02,03,04,05,06,07,08,09,10,11,12,1.0,1.0,1.0*30
$GPRMC,064222.565,A,2831.006,N,07717.563,E,194.4,162.9,140224,000.0,W*71
$GPGGA,064223.565,2830.954,N,07717.579,E,1,12,1.0,0.0,M,0.0,M,,*65
$GPGSA,A,3,01,02,03,04,05,06,07,08,09,10,11,12,1.0,1.0,1.0*30
$GPRMC,064223.565,A,2830.954,N,07717.579,E,194.4,162.9,140224,000.0,W*74
$GPGGA,064224.565,2830.902,N,07717.595,E,1,12,1.0,0.0,M,0.0,M,,*63
$GPGSA,A,3,01,02,03,04,05,06,07,08,09,10,11,12,1.0,1.0,1.0*30
$GPRMC,064224.565,A,2830.902,N,07717.595,E,194.4,162.9,140224,000.0,W*72
$GPGGA,064225.565,2830.850,N,07717.611,E,1,12,1.0,0.0,M,0.0,M,,*6B
$GPGSA,A,3,01,02,03,04,05,06,07,08,09,10,11,12,1.0,1.0,1.0*30
$GPRMC,064225.565,A,2830.850,N,07717.611,E,194.4,162.9,140224,000.0,W*7A
$GPGGA,064226.565,2830.798,N,07717.627,E,1,12,1.0,0.0,M,0.0,M,,*66
$GPGSA,A,3,01,02,03,04,05,06,07,08,09,10,11,12,1.0,1.0,1.0*30
$GPRMC,064226.565,A,2830.798,N,07717.627,E,194.4,162.8,140224,000.0,W*76
$GPGGA,064227.565,2830.746,N,07717.643,E,1,12,1.0,0.0,M,0.0,M,,*66
$GPGSA,A,3,01,02,03,04,05,06,07,08,09,10,11,12,1.0,1.0,1.0*30
$GPRMC,064227.565,A,2830.746,N,07717.643,E,194.4,162.8,140224,000.0,W*76
$GPGGA,064228.565,2830.694,N,07717.659,E,1,12,1.0,0.0,M,0.0,M,,*6C
$GPGSA,A,3,01,02,03,04,05,06,07,08,09,10,11,12,1.0,1.0,1.0*30
$GPRMC,064228.565,A,2830.694,N,07717.659,E,194.4,162.8,140224,000.0,W*7C
$GPGGA,064229.565,2830.641,N,07717.676,E,1,12,1.0,0.0,M,0.0,M,,*68
$GPGSA,A,3,01,02,03,04,05,06,07,08,09,10,11,12,1.0,1.0,1.0*30
$GPRMC,064229.565,A,2830.641,N,07717.676,E,194.4,162.8,140224,000.0,W*78
$GPGGA,064230.565,2830.589,N,07717.692,E,1,12,1.0,0.0,M,0.0,M,,*6D
$GPGSA,A,3,01,02,03,04,05,06,07,08,09,10,11,12,1.0,1.0,1.0*30
$GPRMC,064230.565,A,2830.589,N,07717.692,E,194.4,162.4,140224,000.0,W*71
$GPGGA,064231.565,2830.537,N,07717.708,E,1,12,1.0,0.0,M,0.0,M,,*6B
$GPGSA,A,3,01,02,03,04,05,06,07,08,09,10,11,12,1.0,1.0,1.0*30
$GPRMC,064231.565,A,2830.537,N,07717.708,E,194.4,170.6,140224,000.0,W*76
$GPGGA,064232.565,2830.484,N,07717.717,E,1,12,1.0,0.0,M,0.0,M,,*6F
$GPGSA,A,3,01,02,03,04,05,06,07,08,09,10,11,12,1.0,1.0,1.0*30
$GPRMC,064232.565,A,2830.484,N,07717.717,E,194.4,170.6,140224,000.0,W*72
$GPGGA,064233.565,2830.431,N,07717.726,E,1,12,1.0,0.0,M,0.0,M,,*62
$GPGSA,A,3,01,02,03,04,05,06,07,08,09,10,11,12,1.0,1.0,1.0*30
$GPRMC,064233.565,A,2830.431,N,07717.726,E,194.4,165.0,140224,000.0,W*7D
$GPGGA,064234.565,2830.378,N,07717.740,E,1,12,1.0,0.0,M,0.0,M,,*6F
$GPGSA,A,3,01,02,03,04,05,06,07,08,09,10,11,12,1.0,1.0,1.0*30
$GPRMC,064234.565,A,2830.378,N,07717.740,E,194.4,158.7,140224,000.0,W*79
$GPGGA,064235.565,2830.327,N,07717.760,E,1,12,1.0,0.0,M,0.0,M,,*66
$GPGSA,A,3,01,02,03,04,05,06,07,08,09,10,11,12,1.0,1.0,1.0*30
$GPRMC,064235.565,A,2830.327,N,07717.760,E,194.4,158.7,140224,000.0,W*70
$GPGGA,064236.565,2830.276,N,07717.780,E,1,12,1.0,0.0,M,0.0,M,,*6E
$GPGSA,A,3,01,02,03,04,05,06,07,08,09,10,11,12,1.0,1.0,1.0*30
$GPRMC,064236.565,A,2830.276,N,07717.780,E,194.4,158.7,140224,000.0,W*78
$GPGGA,064237.565,2830.225,N,07717.800,E,1,12,1.0,0.0,M,0.0,M,,*6E
$GPGSA,A,3,01,02,03,04,05,06,07,08,09,10,11,12,1.0,1.0,1.0*30
$GPRMC,064237.565,A,2830.225,N,07717.800,E,194.4,158.7,140224,000.0,W*78
$GPGGA,064238.565,2830.174,N,07717.820,E,1,12,1.0,0.0,M,0.0,M,,*64
$GPGSA,A,3,01,02,03,04,05,06,07,08,09,10,11,12,1.0,1.0,1.0*30
$GPRMC,064238.565,A,2830.174,N,07717.820,E,194.4,162.5,140224,000.0,W*79
$GPGGA,064239.565,2830.122,N,07717.836,E,1,12,1.0,0.0,M,0.0,M,,*61
$GPGSA,A,3,01,02,03,04,05,06,07,08,09,10,11,12,1.0,1.0,1.0*30
$GPRMC,064239.565,A,2830.122,N,07717.836,E,194.4,162.5,140224,000.0,W*7C
$GPGGA,064240.565,2830.070,N,07717.853,E,1,12,1.0,0.0,M,0.0,M,,*6A
$GPGSA,A,3,01,02,03,04,05,06,07,08,09,10,11,12,1.0,1.0,1.0*30
$GPRMC,064240.565,A,2830.070,N,07717.853,E,194.4,162.5,140224,000.0,W*77
$GPGGA,064241.565,2830.018,N,07717.869,E,1,12,1.0,0.0,M,0.0,M,,*6C
$GPGSA,A,3,01,02,03,04,05,06,07,08,09,10,11,12,1.0,1.0,1.0*30
$GPRMC,064241.565,A,2830.018,N,07717.869,E,194.4,162.5,140224,000.0,W*71
$GPGGA,064242.565,2829.966,N,07717.886,E,1,12,1.0,0.0,M,0.0,M,,*66
$GPGSA,A,3,01,02,03,04,05,06,07,08,09,10,11,12,1.0,1.0,1.0*30
$GPRMC,064242.565,A,2829.966,N,07717.886,E,194.4,163.1,140224,000.0,W*7E
$GPGGA,064243.565,2829.914,N,07717.902,E,1,12,1.0,0.0,M,0.0,M,,*6F
$GPGSA,A,3,01,02,03,04,05,06,07,08,09,10,11,12,1.0,1.0,1.0*30
$GPRMC,064243.565,A,2829.914,N,07717.902,E,194.4,163.1,140224,000.0,W*77
$GPGGA,064244.565,2829.862,N,07717.917,E,1,12,1.0,0.0,M,0.0,M,,*6C
$GPGSA,A,3,01,02,03,04,05,06,07,08,09,10,11,12,1.0,1.0,1.0*30
$GPRMC,064244.565,A,2829.862,N,07717.917,E,194.4,159.5,140224,000.0,W*79
$GPGGA,064245.565,2829.811,N,07717.937,E,1,12,1.0,0.0,M,0.0,M,,*6B
$GPGSA,A,3,01,02,03,04,05,06,07,08,09,10,11,12,1.0,1.0,1.0*30
$GPRMC,064245.565,A,2829.811,N,07717.937,E,194.4,159.5,140224,000.0,W*7E
$GPGGA,064246.565,2829.759,N,07717.956,E,1,12,1.0,0.0,M,0.0,M,,*6C
$GPGSA,A,3,01,02,03,04,05,06,07,08,09,10,11,12,1.0,1.0,1.0*30
$GPRMC,064246.565,A,2829.759,N,07717.956,E,194.4,159.5,140224,000.0,W*79
$GPGGA,064247.565,2829.708,N,07717.975,E,1,12,1.0,0.0,M,0.0,M,,*68
$GPGSA,A,3,01,02,03,04,05,06,07,08,09,10,11,12,1.0,1.0,1.0*30
$GPRMC,064247.565,A,2829.708,N,07717.975,E,194.4,174.1,140224,000.0,W*76
$GPGGA,064248.565,2829.654,N,07717.980,E,1,12,1.0,0.0,M,0.0,M,,*65
$GPGSA,A,3,01,02,03,04,05,06,07,08,09,10,11,12,1.0,1.0,1.0*30
$GPRMC,064248.565,A,2829.654,N,07717.980,E,194.4,174.1,140224,000.0,W*7B
$GPGGA,064249.565,2829.601,N,07717.986,E,1,12,1.0,0.0,M,0.0,M,,*62
$GPGSA,A,3,01,02,03,04,05,06,07,08,09,10,11,12,1.0,1.0,1.0*30
$GPRMC,064249.565,A,2829.601,N,07717.986,E,194.4,174.1,140224,000.0,W*7C
$GPGGA,064250.565,2829.547,N,07717.992,E,1,12,1.0,0.0,M,0.0,M,,*6E
$GPGSA,A,3,01,02,03,04,05,06,07,08,09,10,11,12,1.0,1.0,1.0*30
$GPRMC,064250.565,A,2829.547,N,07717.992,E,194.4,173.6,140224,000.0,W*70
$GPGGA,064251.565,2829.493,N,07717.998,E,1,12,1.0,0.0,M,0.0,M,,*6D
$GPGSA,A,3,01,02,03,04,05,06,07,08,09,10,11,12,1.0,1.0,1.0*30
$GPRMC,064251.565,A,2829.493,N,07717.998,E,194.4,173.6,140224,000.0,W*73
$GPGGA,064252.565,2829.439,N,07718.004,E,1,12,1.0,0.0,M,0.0,M,,*6D
$GPGSA,A,3,01,02,03,04,05,06,07,08,09,10,11,12,1.0,1.0,1.0*30
$GPRMC,064252.565,A,2829.439,N,07718.004,E,194.4,173.6,140224,000.0,W*73
$GPGGA,064253.565,2829.386,N,07718.010,E,1,12,1.0,0.0,M,0.0,M,,*6A
$GPGSA,A,3,01,02,03,04,05,06,07,08,09,10,11,12,1.0,1.0,1.0*30
$GPRMC,064253.565,A,2829.386,N,07718.010,E,194.4,173.6,140224,000.0,W*74
$GPGGA,064254.565,2829.332,N,07718.016,E,1,12,1.0,0.0,M,0.0,M,,*64
$GPGSA,A,3,01,02,03,04,05,06,07,08,09,10,11,12,1.0,1.0,1.0*30
$GPRMC,064254.565,A,2829.332,N,07718.016,E,194.4,173.9,140224,000.0,W*75
$GPGGA,064255.565,2829.278,N,07718.021,E,1,12,1.0,0.0,M,0.0,M,,*6E
$GPGSA,A,3,01,02,03,04,05,06,07,08,09,10,11,12,1.0,1.0,1.0*30
$GPRMC,064255.565,A,2829.278,N,07718.021,E,194.4,173.9,140224,000.0,W*7F
$GPGGA,064256.565,2829.225,N,07718.027,E,1,12,1.0,0.0,M,0.0,M,,*63
$GPGSA,A,3,01,02,03,04,05,06,07,08,09,10,11,12,1.0,1.0,1.0*30
$GPRMC,064256.565,A,2829.225,N,07718.027,E,194.4,173.9,140224,000.0,W*72
$GPGGA,064257.565,2829.171,N,07718.033,E,1,12,1.0,0.0,M,0.0,M,,*65
$GPGSA,A,3,01,02,03,04,05,06,07,08,09,10,11,12,1.0,1.0,1.0*30
$GPRMC,064257.565,A,2829.171,N,07718.033,E,194.4,173.9,140224,000.0,W*74
$GPGGA,064258.565,2829.117,N,07718.039,E,1,12,1.0,0.0,M,0.0,M,,*60
$GPGSA,A,3,01,02,03,04,05,06,07,08,09,10,11,12,1.0,1.0,1.0*30
$GPRMC,064258.565,A,2829.117,N,07718.039,E,194.4,174.5,140224,000.0,W*7A
$GPGGA,064259.565,2829.063,N,07718.044,E,1,12,1.0,0.0,M,0.0,M,,*69
$GPGSA,A,3,01,02,03,04,05,06,07,08,09,10,11,12,1.0,1.0,1.0*30
$GPRMC,064259.565,A,2829.063,N,07718.044,E,194.4,174.5,140224,000.0,W*73
$GPGGA,064300.565,2829.010,N,07718.049,E,1,12,1.0,0.0,M,0.0,M,,*6D
$GPGSA,A,3,01,02,03,04,05,06,07,08,09,10,11,12,1.0,1.0,1.0*30
$GPRMC,064300.565,A,2829.010,N,07718.049,E,194.4,174.5,140224,000.0,W*77
$GPGGA,064301.565,2828.956,N,07718.054,E,1,12,1.0,0.0,M,0.0,M,,*6A
$GPGSA,A,3,01,02,03,04,05,06,07,08,09,10,11,12,1.0,1.0,1.0*30
$GPRMC,064301.565,A,2828.956,N,07718.054,E,194.4,174.5,140224,000.0,W*70
$GPGGA,064302.565,2828.902,N,07718.059,E,1,12,1.0,0.0,M,0.0,M,,*65
$GPGSA,A,3,01,02,03,04,05,06,07,08,09,10,11,12,1.0,1.0,1.0*30
$GPRMC,064302.565,A,2828.902,N,07718.059,E,194.4,173.6,140224,000.0,W*7B
$GPGGA,064303.565,2828.848,N,07718.066,E,1,12,1.0,0.0,M,0.0,M,,*67
$GPGSA,A,3,01,02,03,04,05,06,07,08,09,10,11,12,1.0,1.0,1.0*30
$GPRMC,064303.565,A,2828.848,N,07718.066,E,194.4,173.6,140224,000.0,W*79
$GPGGA,064304.565,2828.795,N,07718.072,E,1,12,1.0,0.0,M,0.0,M,,*6A
$GPGSA,A,3,01,02,03,04,05,06,07,08,09,10,11,12,1.0,1.0,1.0*30
$GPRMC,064304.565,A,2828.795,N,07718.072,E,194.4,173.6,140224,000.0,W*74
$GPGGA,064305.565,2828.741,N,07718.078,E,1,12,1.0,0.0,M,0.0,M,,*68
$GPGSA,A,3,01,02,03,04,05,06,07,08,09,10,11,12,1.0,1.0,1.0*30
$GPRMC,064305.565,A,2828.741,N,07718.078,E,194.4,173.6,140224,000.0,W*76
$GPGGA,064306.565,2828.687,N,07718.084,E,1,12,1.0,0.0,M,0.0,M,,*63
$GPGSA,A,3,01,02,03,04,05,06,07,08,09,10,11,12,1.0,1.0,1.0*30
$GPRMC,064306.565,A,2828.687,N,07718.084,E,194.4,174.2,140224,000.0,W*7E
$GPGGA,064307.565,2828.633,N,07718.089,E,1,12,1.0,0.0,M,0.0,M,,*60
$GPGSA,A,3,01,02,03,04,05,06,07,08,09,10,11,12,1.0,1.0,1.0*30
$GPRMC,064307.565,A,2828.633,N,07718.089,E,194.4,174.2,140224,000.0,W*7D
$GPGGA,064308.565,2828.580,N,07718.095,E,1,12,1.0,0.0,M,0.0,M,,*69
$GPGSA,A,3,01,02,03,04,05,06,07,08,09,10,11,12,1.0,1.0,1.0*30
$GPRMC,064308.565,A,2828.580,N,07718.095,E,194.4,174.2,140224,000.0,W*74
$GPGGA,064309.565,2828.526,N,07718.100,E,1,12,1.0,0.0,M,0.0,M,,*69
$GPGSA,A,3,01,02,03,04,05,06,07,08,09,10,11,12,1.0,1.0,1.0*30
$GPRMC,064309.565,A,2828.526,N,07718.100,E,194.4,174.2,140224,000.0,W*74
$GPGGA,064310.565,2828.472,N,07718.106,E,1,12,1.0,0.0,M,0.0,M,,*67
$GPGSA,A,3,01,02,03,04,05,06,07,08,09,10,11,12,1.0,1.0,1.0*30
$GPRMC,064310.565,A,2828.472,N,07718.106,E,194.4,173.7,140224,000.0,W*78
$GPGGA,064311.565,2828.419,N,07718.112,E,1,12,1.0,0.0,M,0.0,M,,*6E
$GPGSA,A,3,01,02,03,04,05,06,07,08,09,10,11,12,1.0,1.0,1.0*30
$GPRMC,064311.565,A,2828.419,N,07718.112,E,194.4,173.7,140224,000.0,W*71
$GPGGA,064312.565,2828.365,N,07718.117,E,1,12,1.0,0.0,M,0.0,M,,*64
$GPGSA,A,3,01,02,03,04,05,06,07,08,09,10,11,12,1.0,1.0,1.0*30
$GPRMC,064312.565,A,2828.365,N,07718.117,E,194.4,173.7,140224,000.0,W*7B
$GPGGA,064313.565,2828.311,N,07718.123,E,1,12,1.0,0.0,M,0.0,M,,*61
$GPGSA,A,3,01,02,03,04,05,06,07,08,09,10,11,12,1.0,1.0,1.0*30
$GPRMC,064313.565,A,2828.311,N,07718.123,E,194.4,173.7,140224,000.0,W*7E
$GPGGA,064314.565,2828.257,N,07718.129,E,1,12,1.0,0.0,M,0.0,M,,*6F
$GPGSA,A,3,01,02,03,04,05,06,07,08,09,10,11,12,1.0,1.0,1.0*30
$GPRMC,064314.565,A,2828.257,N,07718.129,E,194.4,174.0,140224,000.0,W*70
$GPGGA,064315.565,2828.204,N,07718.135,E,1,12,1.0,0.0,M,0.0,M,,*65
$GPGSA,A,3,01,02,03,04,05,06,07,08,09,10,11,12,1.0,1.0,1.0*30
$GPRMC,064315.565,A,2828.204,N,07718.135,E,194.4,174.0,140224,000.0,W*7A
$GPGGA,064316.565,2828.150,N,07718.141,E,1,12,1.0,0.0,M,0.0,M,,*67
$GPGSA,A,3,01,02,03,04,05,06,07,08,09,10,11,12,1.0,1.0,1.0*30
$GPRMC,064316.565,A,2828.150,N,07718.141,E,194.4,174.0,140224,000.0,W*78
$GPGGA,064317.565,2828.096,N,07718.146,E,1,12,1.0,0.0,M,0.0,M,,*6A
$GPGSA,A,3,01,02,03,04,05,06,07,08,09,10,11,12,1.0,1.0,1.0*30
$GPRMC,064317.565,A,2828.096,N,07718.146,E,194.4,174.0,140224,000.0,W*75
$GPGGA,064318.565,2828.043,N,07718.152,E,1,12,1.0,0.0,M,0.0,M,,*68
$GPGSA,A,3,01,02,03,04,05,06,07,08,09,10,11,12,1.0,1.0,1.0*30
$GPRMC,064318.565,A,2828.043,N,07718.152,E,194.4,174.3,140224,000.0,W*74
$GPGGA,064319.565,2827.989,N,07718.157,E,1,12,1.0,0.0,M,0.0,M,,*6C
$GPGSA,A,3,01,02,03,04,05,06,07,08,09,10,11,12,1.0,1.0,1.0*30
$GPRMC,064319.565,A,2827.989,N,07718.157,E,194.4,174.3,140224,000.0,W*70
$GPGGA,064320.565,2827.935,N,07718.163,E,1,12,1.0,0.0,M,0.0,M,,*66
$GPGSA,A,3,01,02,03,04,05,06,07,08,09,10,11,12,1.0,1.0,1.0*30
$GPRMC,064320.565,A,2827.935,N,07718.163,E,194.4,174.3,140224,000.0,W*7A
$GPGGA,064321.565,2827.881,N,07718.168,E,1,12,1.0,0.0,M,0.0,M,,*62
$GPGSA,A,3,01,02,03,04,05,06,07,08,09,10,11,12,1.0,1.0,1.0*30
$GPRMC,064321.565,A,2827.881,N,07718.168,E,194.4,174.3,140224,000.0,W*7E
$GPGGA,064322.565,2827.827,N,07718.173,E,1,12,1.0,0.0,M,0.0,M,,*67
$GPGSA,A,3,01,02,03,04,05,06,07,08,09,10,11,12,1.0,1.0,1.0*30
$GPRMC,064322.565,A,2827.827,N,07718.173,E,194.4,173.9,140224,000.0,W*76
$GPGGA,064323.565,2827.774,N,07718.179,E,1,12,1.0,0.0,M,0.0,M,,*65
$GPGSA,A,3,01,02,03,04,05,06,07,08,09,10,11,12,1.0,1.0,1.0*30
$GPRMC,064323.565,A,2827.774,N,07718.179,E,194.4,173.9,140224,000.0,W*74
$GPGGA,064324.565,2827.720,N,07718.185,E,1,12,1.0,0.0,M,0.0,M,,*60
$GPGSA,A,3,01,02,03,04,05,06,07,08,09,10,11,12,1.0,1.0,1.0*30
$GPRMC,064324.565,A,2827.720,N,07718.185,E,194.4,173.9,140224,000.0,W*71
$GPGGA,064325.565,2827.666,N,07718.191,E,1,12,1.0,0.0,M,0.0,M,,*67
$GPGSA,A,3,01,02,03,04,05,06,07,08,09,10,11,12,1.0,1.0,1.0*30
$GPRMC,064325.565,A,2827.666,N,07718.191,E,194.4,173.9,140224,000.0,W*76
$GPGGA,064326.565,2827.613,N,07718.196,E,1,12,1.0,0.0,M,0.0,M,,*61
$GPGSA,A,3,01,02,03,04,05,06,07,08,09,10,11,12,1.0,1.0,1.0*30
$GPRMC,064326.565,A,2827.613,N,07718.196,E,194.4,173.9,140224,000.0,W*70
$GPGGA,064327.565,2827.559,N,07718.202,E,1,12,1.0,0.0,M,0.0,M,,*63
$GPGSA,A,3,01,02,03,04,05,06,07,08,09,10,11,12,1.0,1.0,1.0*30
$GPRMC,064327.565,A,2827.559,N,07718.202,E,194.4,173.9,140224,000.0,W*72
$GPGGA,064328.565,2827.505,N,07718.208,E,1,12,1.0,0.0,M,0.0,M,,*6F
$GPGSA,A,3,01,02,03,04,05,06,07,08,09,10,11,12,1.0,1.0,1.0*30
$GPRMC,064328.565,A,2827.505,N,07718.208,E,194.4,173.9,140224,000.0,W*7E
$GPGGA,064329.565,2827.451,N,07718.213,E,1,12,1.0,0.0,M,0.0,M,,*64
$GPGSA,A,3,01,02,03,04,05,06,07,08,09,10,11,12,1.0,1.0,1.0*30
$GPRMC,064329.565,A,2827.451,N,07718.213,E,194.4,173.9,140224,000.0,W*75
$GPGGA,064330.565,2827.398,N,07718.219,E,1,12,1.0,0.0,M,0.0,M,,*64
$GPGSA,A,3,01,02,03,04,05,06,07,08,09,10,11,12,1.0,1.0,1.0*30
$GPRMC,064330.565,A,2827.398,N,07718.219,E,194.4,174.1,140224,000.0,W*7A
$GPGGA,064331.565,2827.344,N,07718.225,E,1,12,1.0,0.0,M,0.0,M,,*6B
$GPGSA,A,3,01,02,03,04,05,06,07,08,09,10,11,12,1.0,1.0,1.0*30
$GPRMC,064331.565,A,2827.344,N,07718.225,E,194.4,174.1,140224,000.0,W*75
$GPGGA,064332.565,2827.290,N,07718.230,E,1,12,1.0,0.0,M,0.0,M,,*64
$GPGSA,A,3,01,02,03,04,05,06,07,08,09,10,11,12,1.0,1.0,1.0*30
$GPRMC,064332.565,A,2827.290,N,07718.230,E,194.4,174.1,140224,000.0,W*7A
$GPGGA,064333.565,2827.236,N,07718.236,E,1,12,1.0,0.0,M,0.0,M,,*6F
$GPGSA,A,3,01,02,03,04,05,06,07,08,09,10,11,12,1.0,1.0,1.0*30
$GPRMC,064333.565,A,2827.236,N,07718.236,E,194.4,174.1,140224,000.0,W*71
$GPGGA,064334.565,2827.183,N,07718.241,E,1,12,1.0,0.0,M,0.0,M,,*65
$GPGSA,A,3,01,02,03,04,05,06,07,08,09,10,11,12,1.0,1.0,1.0*30
$GPRMC,064334.565,A,2827.183,N,07718.241,E,194.4,173.9,140224,000.0,W*74
$GPGGA,064335.565,2827.129,N,07718.247,E,1,12,1.0,0.0,M,0.0,M,,*62
$GPGSA,A,3,01,02,03,04,05,06,07,08,09,10,11,12,1.0,1.0,1.0*30
$GPRMC,064335.565,A,2827.129,N,07718.247,E,194.4,173.9,140224,000.0,W*73
$GPGGA,064336.565,2827.075,N,07718.253,E,1,12,1.0,0.0,M,0.0,M,,*6C
$GPGSA,A,3,01,02,03,04,05,06,07,08,09,10,11,12,1.0,1.0,1.0*30
$GPRMC,064336.565,A,2827.075,N,07718.253,E,194.4,173.9,140224,000.0,W*7D
$GPGGA,064337.565,2827.022,N,07718.259,E,1,12,1.0,0.0,M,0.0,M,,*65
$GPGSA,A,3,01,02,03,04,05,06,07,08,09,10,11,12,1.0,1.0,1.0*30
$GPRMC,064337.565,A,2827.022,N,07718.259,E,194.4,173.9,140224,000.0,W*74
$GPGGA,064338.565,2826.968,N,07718.264,E,1,12,1.0,0.0,M,0.0,M,,*62
$GPGSA,A,3,01,02,03,04,05,06,07,08,09,10,11,12,1.0,1.0,1.0*30
$GPRMC,064338.565,A,2826.968,N,07718.264,E,194.4,175.2,140224,000.0,W*7E
$GPGGA,064339.565,2826.914,N,07718.269,E,1,12,1.0,0.0,M,0.0,M,,*65
$GPGSA,A,3,01,02,03,04,05,06,07,08,09,10,11,12,1.0,1.0,1.0*30
$GPRMC,064339.565,A,2826.914,N,07718.269,E,194.4,175.2,140224,000.0,W*79
$GPGGA,064340.565,2826.860,N,07718.273,E,1,12,1.0,0.0,M,0.0,M,,*62
$GPGSA,A,3,01,02,03,04,05,06,07,08,09,10,11,12,1.0,1.0,1.0*30
$GPRMC,064340.565,A,2826.860,N,07718.273,E,194.4,175.2,140224,000.0,W*7E
$GPGGA,064341.565,2826.806,N,07718.278,E,1,12,1.0,0.0,M,0.0,M,,*68
$GPGSA,A,3,01,02,03,04,05,06,07,08,09,10,11,12,1.0,1.0,1.0*30
$GPRMC,064341.565,A,2826.806,N,07718.278,E,194.4,176.2,140224,000.0,W*77
$GPGGA,064342.565,2826.753,N,07718.281,E,1,12,1.0,0.0,M,0.0,M,,*62
$GPGSA,A,3,01,02,03,04,05,06,07,08,09,10,11,12,1.0,1.0,1.0*30
$GPRMC,064342.565,A,2826.753,N,07718.281,E,194.4,176.2,140224,000.0,W*7D
$GPGGA,064343.565,2826.699,N,07718.285,E,1,12,1.0,0.0,M,0.0,M,,*60
$GPGSA,A,3,01,02,03,04,05,06,07,08,09,10,11,12,1.0,1.0,1.0*30
$GPRMC,064343.565,A,2826.699,N,07718.285,E,194.4,176.2,140224,000.0,W*7F
$GPGGA,064344.565,2826.645,N,07718.288,E,1,12,1.0,0.0,M,0.0,M,,*6B
$GPGSA,A,3,01,02,03,04,05,06,07,08,09,10,11,12,1.0,1.0,1.0*30
$GPRMC,064344.565,A,2826.645,N,07718.288,E,194.4,176.2,140224,000.0,W*74
$GPGGA,064345.565,2826.591,N,07718.292,E,1,12,1.0,0.0,M,0.0,M,,*6B
$GPGSA,A,3,01,02,03,04,05,06,07,08,09,10,11,12,1.0,1.0,1.0*30
$GPRMC,064345.565,A,2826.591,N,07718.292,E,194.4,176.1,140224,000.0,W*77
$GPGGA,064346.565,2826.537,N,07718.296,E,1,12,1.0,0.0,M,0.0,M,,*60
$GPGSA,A,3,01,02,03,04,05,06,07,08,09,10,11,12,1.0,1.0,1.0*30
$GPRMC,064346.565,A,2826.537,N,07718.296,E,194.4,176.1,140224,000.0,W*7C
$GPGGA,064347.565,2826.483,N,07718.299,E,1,12,1.0,0.0,M,0.0,M,,*60
$GPGSA,A,3,01,02,03,04,05,06,07,08,09,10,11,12,1.0,1.0,1.0*30
$GPRMC,064347.565,A,2826.483,N,07718.299,E,194.4,176.1,140224,000.0,W*7C
$GPGGA,064348.565,2826.429,N,07718.303,E,1,12,1.0,0.0,M,0.0,M,,*6D
$GPGSA,A,3,01,02,03,04,05,06,07,08,09,10,11,12,1.0,1.0,1.0*30
$GPRMC,064348.565,A,2826.429,N,07718.303,E,194.4,176.1,140224,000.0,W*71
$GPGGA,064349.565,2826.376,N,07718.307,E,1,12,1.0,0.0,M,0.0,M,,*65
$GPGSA,A,3,01,02,03,04,05,06,07,08,09,10,11,12,1.0,1.0,1.0*30
$GPRMC,064349.565,A,2826.376,N,07718.307,E,194.4,176.0,140224,000.0,W*78
$GPGGA,064350.565,2826.322,N,07718.311,E,1,12,1.0,0.0,M,0.0,M,,*6B
$GPGSA,A,3,01,02,03,04,05,06,07,08,09,10,11,12,1.0,1.0,1.0*30
$GPRMC,064350.565,A,2826.322,N,07718.311,E,194.4,176.0,140224,000.0,W*76
$GPGGA,064351.565,2826.268,N,07718.314,E,1,12,1.0,0.0,M,0.0,M,,*60
$GPGSA,A,3,01,02,03,04,05,06,07,08,09,10,11,12,1.0,1.0,1.0*30
$GPRMC,064351.565,A,2826.268,N,07718.314,E,194.4,176.0,140224,000.0,W*7D
$GPGGA,064352.565,2826.214,N,07718.318,E,1,12,1.0,0.0,M,0.0,M,,*64
$GPGSA,A,3,01,02,03,04,05,06,07,08,09,10,11,12,1.0,1.0,1.0*30
$GPRMC,064352.565,A,2826.214,N,07718.318,E,194.4,176.0,140224,000.0,W*79
$GPGGA,064353.565,2826.160,N,07718.322,E,1,12,1.0,0.0,M,0.0,M,,*6C
$GPGSA,A,3,01,02,03,04,05,06,07,08,09,10,11,12,1.0,1.0,1.0*30
$GPRMC,064353.565,A,2826.160,N,07718.322,E,194.4,176.1,140224,000.0,W*70
$GPGGA,064354.565,2826.106,N,07718.326,E,1,12,1.0,0.0,M,0.0,M,,*6F
$GPGSA,A,3,01,02,03,04,05,06,07,08,09,10,11,12,1.0,1.0,1.0*30
$GPRMC,064354.565,A,2826.106,N,07718.326,E,194.4,176.1,140224,000.0,W*73
$GPGGA,064355.565,2826.052,N,07718.329,E,1,12,1.0,0.0,M,0.0,M,,*61
$GPGSA,A,3,01,02,03,04,05,06,07,08,09,10,11,12,1.0,1.0,1.0*30
$GPRMC,064355.565,A,2826.052,N,07718.329,E,194.4,176.1,140224,000.0,W*7D
$GPGGA,064356.565,2825.998,N,07718.333,E,1,12,1.0,0.0,M,0.0,M,,*65
$GPGSA,A,3,01,02,03,04,05,06,07,08,09,10,11,12,1.0,1.0,1.0*30
$GPRMC,064356.565,A,2825.998,N,07718.333,E,194.4,176.1,140224,000.0,W*79
$GPGGA,064357.565,2825.945,N,07718.337,E,1,12,1.0,0.0,M,0.0,M,,*60
$GPGSA,A,3,01,02,03,04,05,06,07,08,09,10,11,12,1.0,1.0,1.0*30
$GPRMC,064357.565,A,2825.945,N,07718.337,E,194.4,176.0,140224,000.0,W*7D
$GPGGA,064358.565,2825.891,N,07718.341,E,1,12,1.0,0.0,M,0.0,M,,*66
$GPGSA,A,3,01,02,03,04,05,06,07,08,09,10,11,12,1.0,1.0,1.0*30
$GPRMC,064358.565,A,2825.891,N,07718.341,E,194.4,176.0,140224,000.0,W*7B
$GPGGA,064359.565,2825.837,N,07718.344,E,1,12,1.0,0.0,M,0.0,M,,*6E
$GPGSA,A,3,01,02,03,04,05,06,07,08,09,10,11,12,1.0,1.0,1.0*30
$GPRMC,064359.565,A,2825.837,N,07718.344,E,194.4,176.0,140224,000.0,W*73
$GPGGA,064400.565,2825.783,N,07718.348,E,1,12,1.0,0.0,M,0.0,M,,*69
$GPGSA,A,3,01,02,03,04,05,06,07,08,09,10,11,12,1.0,1.0,1.0*30
$GPRMC,064400.565,A,2825.783,N,07718.348,E,194.4,176.0,140224,000.0,W*74
$GPGGA,064401.565,2825.729,N,07718.352,E,1,12,1.0,0.0,M,0.0,M,,*63
$GPGSA,A,3,01,02,03,04,05,06,07,08,09,10,11,12,1.0,1.0,1.0*30
$GPRMC,064401.565,A,2825.729,N,07718.352,E,194.4,176.0,140224,000.0,W*7E
$GPGGA,064402.565,2825.675,N,07718.355,E,1,12,1.0,0.0,M,0.0,M,,*6F
$GPGSA,A,3,01,02,03,04,05,06,07,08,09,10,11,12,1.0,1.0,1.0*30
$GPRMC,064402.565,A,2825.675,N,07718.355,E,194.4,176.0,140224,000.0,W*72
$GPGGA,064403.565,2825.621,N,07718.359,E,1,12,1.0,0.0,M,0.0,M,,*63
$GPGSA,A,3,01,02,03,04,05,06,07,08,09,10,11,12,1.0,1.0,1.0*30
$GPRMC,064403.565,A,2825.621,N,07718.359,E,194.4,176.0,140224,000.0,W*7E
$GPGGA,064404.565,2825.568,N,07718.363,E,1,12,1.0,0.0,M,0.0,M,,*63
$GPGSA,A,3,01,02,03,04,05,06,07,08,09,10,11,12,1.0,1.0,1.0*30
$GPRMC,064404.565,A,2825.568,N,07718.363,E,194.4,176.0,140224,000.0,W*7E
$GPGGA,064405.565,2825.514,N,07718.367,E,1,12,1.0,0.0,M,0.0,M,,*6D
$GPGSA,A,3,01,02,03,04,05,06,07,08,09,10,11,12,1.0,1.0,1.0*30
$GPRMC,064405.565,A,2825.514,N,07718.367,E,194.4,175.7,140224,000.0,W*74
$GPGGA,064406.565,2825.460,N,07718.371,E,1,12,1.0,0.0,M,0.0,M,,*6B
$GPGSA,A,3,01,02,03,04,05,06,07,08,09,10,11,12,1.0,1.0,1.0*30
$GPRMC,064406.565,A,2825.460,N,07718.371,E,194.4,175.7,140224,000.0,W*72
$GPGGA,064407.565,2825.406,N,07718.375,E,1,12,1.0,0.0,M,0.0,M,,*6E
$GPGSA,A,3,01,02,03,04,05,06,07,08,09,10,11,12,1.0,1.0,1.0*30
$GPRMC,064407.565,A,2825.406,N,07718.375,E,194.4,175.7,140224,000.0,W*77
$GPGGA,064408.565,2825.352,N,07718.379,E,1,12,1.0,0.0,M,0.0,M,,*6B
$GPGSA,A,3,01,02,03,04,05,06,07,08,09,10,11,12,1.0,1.0,1.0*30
$GPRMC,064408.565,A,2825.352,N,07718.379,E,194.4,175.7,140224,000.0,W*72
$GPGGA,064409.565,2825.298,N,07718.383,E,1,12,1.0,0.0,M,0.0,M,,*68
$GPGSA,A,3,01,02,03,04,05,06,07,08,09,10,11,12,1.0,1.0,1.0*30
$GPRMC,064409.565,A,2825.298,N,07718.383,E,194.4,174.7,140224,000.0,W*70
$GPGGA,064410.565,2825.245,N,07718.388,E,1,12,1.0,0.0,M,0.0,M,,*6B
$GPGSA,A,3,01,02,03,04,05,06,07,08,09,10,11,12,1.0,1.0,1.0*30
$GPRMC,064410.565,A,2825.245,N,07718.388,E,194.4,174.7,140224,000.0,W*73
$GPGGA,064411.565,2825.191,N,07718.393,E,1,12,1.0,0.0,M,0.0,M,,*6A
$GPGSA,A,3,01,02,03,04,05,06,07,08,09,10,11,12,1.0,1.0,1.0*30
$GPRMC,064411.565,A,2825.191,N,07718.393,E,194.4,174.7,140224,000.0,W*72
$GPGGA,064412.565,2825.137,N,07718.398,E,1,12,1.0,0.0,M,0.0,M,,*6E
$GPGSA,A,3,01,02,03,04,05,06,07,08,09,10,11,12,1.0,1.0,1.0*30
$GPRMC,064412.565,A,2825.137,N,07718.398,E,194.4,175.5,140224,000.0,W*75
$GPGGA,064413.565,2825.083,N,07718.402,E,1,12,1.0,0.0,M,0.0,M,,*65
$GPGSA,A,3,01,02,03,04,05,06,07,08,09,10,11,12,1.0,1.0,1.0*30
$GPRMC,064413.565,A,2825.083,N,07718.402,E,194.4,175.5,140224,000.0,W*7E
$GPGGA,064414.565,2825.029,N,07718.406,E,1,12,1.0,0.0,M,0.0,M,,*66
$GPGSA,A,3,01,02,03,04,05,06,07,08,09,10,11,12,1.0,1.0,1.0*30
$GPRMC,064414.565,A,2825.029,N,07718.406,E,194.4,175.5,140224,000.0,W*7D
$GPGGA,064415.565,2824.976,N,07718.411,E,1,12,1.0,0.0,M,0.0,M,,*63
$GPGSA,A,3,01,02,03,04,05,06,07,08,09,10,11,12,1.0,1.0,1.0*30
$GPRMC,064415.565,A,2824.976,N,07718.411,E,194.4,175.5,140224,000.0,W*78
$GPGGA,064416.565,2824.922,N,07718.415,E,1,12,1.0,0.0,M,0.0,M,,*65
$GPGSA,A,3,01,02,03,04,05,06,07,08,09,10,11,12,1.0,1.0,1.0*30
$GPRMC,064416.565,A,2824.922,N,07718.415,E,194.4,175.1,140224,000.0,W*7A
$GPGGA,064417.565,2824.868,N,07718.420,E,1,12,1.0,0.0,M,0.0,M,,*6D
$GPGSA,A,3,01,02,03,04,05,06,07,08,09,10,11,12,1.0,1.0,1.0*30
$GPRMC,064417.565,A,2824.868,N,07718.420,E,194.4,175.1,140224,000.0,W*72
$GPGGA,064418.565,2824.814,N,07718.424,E,1,12,1.0,0.0,M,0.0,M,,*6D
$GPGSA,A,3,01,02,03,04,05,06,07,08,09,10,11,12,1.0,1.0,1.0*30
$GPRMC,064418.565,A,2824.814,N,07718.424,E,194.4,175.1,140224,000.0,W*72
$GPGGA,064419.565,2824.760,N,07718.429,E,1,12,1.0,0.0,M,0.0,M,,*6D
$GPGSA,A,3,01,02,03,04,05,06,07,08,09,10,11,12,1.0,1.0,1.0*30
$GPRMC,064419.565,A,2824.760,N,07718.429,E,194.4,176.6,140224,000.0,W*76
$GPGGA,064420.565,2824.706,N,07718.432,E,1,12,1.0,0.0,M,0.0,M,,*6D
$GPGSA,A,3,01,02,03,04,05,06,07,08,09,10,11,12,1.0,1.0,1.0*30
$GPRMC,064420.565,A,2824.706,N,07718.432,E,194.4,176.6,140224,000.0,W*76
$GPGGA,064421.565,2824.653,N,07718.435,E,1,12,1.0,0.0,M,0.0,M,,*6A
$GPGSA,A,3,01,02,03,04,05,06,07,08,09,10,11,12,1.0,1.0,1.0*30
$GPRMC,064421.565,A,2824.653,N,07718.435,E,194.4,176.6,140224,000.0,W*71
$GPGGA,064422.565,2824.599,N,07718.439,E,1,12,1.0,0.0,M,0.0,M,,*60
$GPGSA,A,3,01,02,03,04,05,06,07,08,09,10,11,12,1.0,1.0,1.0*30
$GPRMC,064422.565,A,2824.599,N,07718.439,E,194.4,176.6,140224,000.0,W*7B
$GPGGA,064423.565,2824.545,N,07718.442,E,1,12,1.0,0.0,M,0.0,M,,*6C
$GPGSA,A,3,01,02,03,04,05,06,07,08,09,10,11,12,1.0,1.0,1.0*30
$GPRMC,064423.565,A,2824.545,N,07718.442,E,194.4,176.6,140224,000.0,W*77
$GPGGA,064424.565,2824.491,N,07718.445,E,1,12,1.0,0.0,M,0.0,M,,*64
$GPGSA,A,3,01,02,03,04,05,06,07,08,09,10,11,12,1.0,1.0,1.0*30
$GPRMC,064424.565,A,2824.491,N,07718.445,E,194.4,176.6,140224,000.0,W*7F
$GPGGA,064425.565,2824.437,N,07718.448,E,1,12,1.0,0.0,M,0.0,M,,*64
$GPGSA,A,3,01,02,03,04,05,06,07,08,09,10,11,12,1.0,1.0,1.0*30
$GPRMC,064425.565,A,2824.437,N,07718.448,E,194.4,176.0,140224,000.0,W*79
$GPGGA,064426.565,2824.383,N,07718.452,E,1,12,1.0,0.0,M,0.0,M,,*64
$GPGSA,A,3,01,02,03,04,05,06,07,08,09,10,11,12,1.0,1.0,1.0*30
$GPRMC,064426.565,A,2824.383,N,07718.452,E,194.4,176.0,140224,000.0,W*79
$GPGGA,064427.565,2824.329,N,07718.456,E,1,12,1.0,0.0,M,0.0,M,,*61
$GPGSA,A,3,01,02,03,04,05,06,07,08,09,10,11,12,1.0,1.0,1.0*30
$GPRMC,064427.565,A,2824.329,N,07718.456,E,194.4,176.0,140224,000.0,W*7C
$GPGGA,064428.565,2824.275,N,07718.459,E,1,12,1.0,0.0,M,0.0,M,,*69
$GPGSA,A,3,01,02,03,04,05,06,07,08,09,10,11,12,1.0,1.0,1.0*30
$GPRMC,064428.565,A,2824.275,N,07718.459,E,194.4,176.0,140224,000.0,W*74
$GPGGA,064429.565,2824.222,N,07718.463,E,1,12,1.0,0.0,M,0.0,M,,*63
$GPGSA,A,3,01,02,03,04,05,06,07,08,09,10,11,12,1.0,1.0,1.0*30
$GPRMC,064429.565,A,2824.222,N,07718.463,E,194.4,176.6,140224,000.0,W*78
$GPGGA,064430.565,2824.168,N,07718.466,E,1,12,1.0,0.0,M,0.0,M,,*63
$GPGSA,A,3,01,02,03,04,05,06,07,08,09,10,11,12,1.0,1.0,1.0*30
$GPRMC,064430.565,A,2824.168,N,07718.466,E,194.4,176.6,140224,000.0,W*78
$GPGGA,064431.565,2824.114,N,07718.469,E,1,12,1.0,0.0,M,0.0,M,,*66
$GPGSA,A,3,01,02,03,04,05,06,07,08,09,10,11,12,1.0,1.0,1.0*30
$GPRMC,064431.565,A,2824.114,N,07718.469,E,194.4,176.6,140224,000.0,W*7D
$GPGGA,064432.565,2824.060,N,07718.473,E,1,12,1.0,0.0,M,0.0,M,,*6C
$GPGSA,A,3,01,02,03,04,05,06,07,08,09,10,11,12,1.0,1.0,1.0*30
$GPRMC,064432.565,A,2824.060,N,07718.473,E,194.4,176.8,140224,000.0,W*79
$GPGGA,064433.565,2824.006,N,07718.476,E,1,12,1.0,0.0,M,0.0,M,,*68
$GPGSA,A,3,01,02,03,04,05,06,07,08,09,10,11,12,1.0,1.0,1.0*30
$GPRMC,064433.565,A,2824.006,N,07718.476,E,194.4,176.8,140224,000.0,W*7D
$GPGGA,064434.565,2823.952,N,07718.479,E,1,12,1.0,0.0,M,0.0,M,,*6F
$GPGSA,A,3,01,02,03,04,05,06,07,08,09,10,11,12,1.0,1.0,1.0*30
$GPRMC,064434.565,A,2823.952,N,07718.479,E,194.4,176.8,140224,000.0,W*7A
$GPGGA,064435.565,2823.898,N,07718.482,E,1,12,1.0,0.0,M,0.0,M,,*6D
$GPGSA,A,3,01,02,03,04,05,06,07,08,09,10,11,12,1.0,1.0,1.0*30
$GPRMC,064435.565,A,2823.898,N,07718.482,E,194.4,176.8,140224,000.0,W*78
$GPGGA,064436.565,2823.844,N,07718.485,E,1,12,1.0,0.0,M,0.0,M,,*68
$GPGSA,A,3,01,02,03,04,05,06,07,08,09,10,11,12,1.0,1.0,1.0*30
$GPRMC,064436.565,A,2823.844,N,07718.485,E,194.4,175.5,140224,000.0,W*73
$GPGGA,064437.565,2823.791,N,07718.489,E,1,12,1.0,0.0,M,0.0,M,,*62
$GPGSA,A,3,01,02,03,04,05,06,07,08,09,10,11,12,1.0,1.0,1.0*30
$GPRMC,064437.565,A,2823.791,N,07718.489,E,194.4,175.5,140224,000.0,W*79
$GPGGA,064438.565,2823.737,N,07718.493,E,1,12,1.0,0.0,M,0.0,M,,*6A
$GPGSA,A,3,01,02,03,04,05,06,07,08,09,10,11,12,1.0,1.0,1.0*30
$GPRMC,064438.565,A,2823.737,N,07718.493,E,194.4,175.5,140224,000.0,W*71
$GPGGA,064439.565,2823.683,N,07718.498,E,1,12,1.0,0.0,M,0.0,M,,*6E
$GPGSA,A,3,01,02,03,04,05,06,07,08,09,10,11,12,1.0,1.0,1.0*30
$GPRMC,064439.565,A,2823.683,N,07718.498,E,194.4,176.2,140224,000.0,W*71
$GPGGA,064440.565,2823.629,N,07718.501,E,1,12,1.0,0.0,M,0.0,M,,*61
$GPGSA,A,3,01,02,03,04,05,06,07,08,09,10,11,12,1.0,1.0,1.0*30
$GPRMC,064440.565,A,2823.629,N,07718.501,E,194.4,176.2,140224,000.0,W*7E
$GPGGA,064441.565,2823.575,N,07718.505,E,1,12,1.0,0.0,M,0.0,M,,*6E
$GPGSA,A,3,01,02,03,04,05,06,07,08,09,10,11,12,1.0,1.0,1.0*30
$GPRMC,064441.565,A,2823.575,N,07718.505,E,194.4,176.2,140224,000.0,W*71
$GPGGA,064442.565,2823.521,N,07718.508,E,1,12,1.0,0.0,M,0.0,M,,*61
$GPGSA,A,3,01,02,03,04,05,06,07,08,09,10,11,12,1.0,1.0,1.0*30
$GPRMC,064442.565,A,2823.521,N,07718.508,E,194.4,176.2,140224,000.0,W*7E
$GPGGA,064443.565,2823.467,N,07718.512,E,1,12,1.0,0.0,M,0.0,M,,*68
$GPGSA,A,3,01,02,03,04,05,06,07,08,09,10,11,12,1.0,1.0,1.0*30
$GPRMC,064443.565,A,2823.467,N,07718.512,E,194.4,175.4,140224,000.0,W*72
$GPGGA,064444.565,2823.414,N,07718.516,E,1,12,1.0,0.0,M,0.0,M,,*6F
$GPGSA,A,3,01,02,03,04,05,06,07,08,09,10,11,12,1.0,1.0,1.0*30
$GPRMC,064444.565,A,2823.414,N,07718.516,E,194.4,175.4,140224,000.0,W*75
$GPGGA,064445.565,2823.360,N,07718.521,E,1,12,1.0,0.0,M,0.0,M,,*6E
$GPGSA,A,3,01,02,03,04,05,06,07,08,09,10,11,12,1.0,1.0,1.0*30
$GPRMC,064445.565,A,2823.360,N,07718.521,E,194.4,175.4,140224,000.0,W*74
$GPGGA,064446.565,2823.306,N,07718.525,E,1,12,1.0,0.0,M,0.0,M,,*69
$GPGSA,A,3,01,02,03,04,05,06,07,08,09,10,11,12,1.0,1.0,1.0*30
$GPRMC,064446.565,A,2823.306,N,07718.525,E,194.4,175.4,140224,000.0,W*73
$GPGGA,064447.565,2823.252,N,07718.529,E,1,12,1.0,0.0,M,0.0,M,,*64
$GPGSA,A,3,01,02,03,04,05,06,07,08,09,10,11,12,1.0,1.0,1.0*30
$GPRMC,064447.565,A,2823.252,N,07718.529,E,194.4,176.2,140224,000.0,W*7B
$GPGGA,064448.565,2823.198,N,07718.533,E,1,12,1.0,0.0,M,0.0,M,,*65
$GPGSA,A,3,01,02,03,04,05,06,07,08,09,10,11,12,1.0,1.0,1.0*30
$GPRMC,064448.565,A,2823.198,N,07718.533,E,194.4,176.2,140224,000.0,W*7A
$GPGGA,064449.565,2823.144,N,07718.536,E,1,12,1.0,0.0,M,0.0,M,,*60
$GPGSA,A,3,01,02,03,04,05,06,07,08,09,10,11,12,1.0,1.0,1.0*30
$GPRMC,064449.565,A,2823.144,N,07718.536,E,194.4,176.2,140224,000.0,W*7F
$GPGGA,064450.565,2823.090,N,07718.540,E,1,12,1.0,0.0,M,0.0,M,,*61
$GPGSA,A,3,01,02,03,04,05,06,07,08,09,10,11,12,1.0,1.0,1.0*30
$GPRMC,064450.565,A,2823.090,N,07718.540,E,194.4,176.2,140224,000.0,W*7E
$GPGGA,064451.565,2823.037,N,07718.544,E,1,12,1.0,0.0,M,0.0,M,,*69
$GPGSA,A,3,01,02,03,04,05,06,07,08,09,10,11,12,1.0,1.0,1.0*30
$GPRMC,064451.565,A,2823.037,N,07718.544,E,194.4,175.9,140224,000.0,W*7E
$GPGGA,064452.565,2822.983,N,07718.547,E,1,12,1.0,0.0,M,0.0,M,,*6E
$GPGSA,A,3,01,02,03,04,05,06,07,08,09,10,11,12,1.0,1.0,1.0*30
$GPRMC,064452.565,A,2822.983,N,07718.547,E,194.4,175.9,140224,000.0,W*79
$GPGGA,064453.565,2822.929,N,07718.551,E,1,12,1.0,0.0,M,0.0,M,,*68
$GPGSA,A,3,01,02,03,04,05,06,07,08,09,10,11,12,1.0,1.0,1.0*30
$GPRMC,064453.565,A,2822.929,N,07718.551,E,194.4,175.9,140224,000.0,W*7F
$GPGGA,064454.565,2822.875,N,07718.555,E,1,12,1.0,0.0,M,0.0,M,,*63
$GPGSA,A,3,01,02,03,04,05,06,07,08,09,10,11,12,1.0,1.0,1.0*30
$GPRMC,064454.565,A,2822.875,N,07718.555,E,194.4,175.9,140224,000.0,W*74
$GPGGA,064455.565,2822.821,N,07718.559,E,1,12,1.0,0.0,M,0.0,M,,*6F
$GPGSA,A,3,01,02,03,04,05,06,07,08,09,10,11,12,1.0,1.0,1.0*30
$GPRMC,064455.565,A,2822.821,N,07718.559,E,194.4,176.1,140224,000.0,W*73
$GPGGA,064456.565,2822.767,N,07718.563,E,1,12,1.0,0.0,M,0.0,M,,*68
$GPGSA,A,3,01,02,03,04,05,06,07,08,09,10,11,12,1.0,1.0,1.0*30
$GPRMC,064456.565,A,2822.767,N,07718.563,E,194.4,176.1,140224,000.0,W*74
$GPGGA,064457.565,2822.713,N,07718.566,E,1,12,1.0,0.0,M,0.0,M,,*6F
$GPGSA,A,3,01,02,03,04,05,06,07,08,09,10,11,12,1.0,1.0,1.0*30
$GPRMC,064457.565,A,2822.713,N,07718.566,E,194.4,176.1,140224,000.0,W*73
$GPGGA,064458.565,2822.660,N,07718.570,E,1,12,1.0,0.0,M,0.0,M,,*62
$GPGSA,A,3,01,02,03,04,05,06,07,08,09,10,11,12,1.0,1.0,1.0*30
$GPRMC,064458.565,A,2822.660,N,07718.570,E,194.4,176.1,140224,000.0,W*7E
$GPGGA,064459.565,2822.606,N,07718.574,E,1,12,1.0,0.0,M,0.0,M,,*67
$GPGSA,A,3,01,02,03,04,05,06,07,08,09,10,11,12,1.0,1.0,1.0*30
$GPRMC,064459.565,A,2822.606,N,07718.574,E,194.4,175.5,140224,000.0,W*7C
$GPGGA,064500.565,2822.552,N,07718.578,E,1,12,1.0,0.0,M,0.0,M,,*64
$GPGSA,A,3,01,02,03,04,05,06,07,08,09,10,11,12,1.0,1.0,1.0*30
$GPRMC,064500.565,A,2822.552,N,07718.578,E,194.4,175.5,140224,000.0,W*7F
$GPGGA,064501.565,2822.498,N,07718.582,E,1,12,1.0,0.0,M,0.0,M,,*67
$GPGSA,A,3,01,02,03,04,05,06,07,08,09,10,11,12,1.0,1.0,1.0*30
$GPRMC,064501.565,A,2822.498,N,07718.582,E,194.4,175.5,140224,000.0,W*7C
$GPGGA,064502.565,2822.444,N,07718.587,E,1,12,1.0,0.0,M,0.0,M,,*60
$GPGSA,A,3,01,02,03,04,05,06,07,08,09,10,11,12,1.0,1.0,1.0*30
$GPRMC,064502.565,A,2822.444,N,07718.587,E,194.4,175.5,140224,000.0,W*7B
$GPGGA,064503.565,2822.390,N,07718.591,E,1,12,1.0,0.0,M,0.0,M,,*68
$GPGSA,A,3,01,02,03,04,05,06,07,08,09,10,11,12,1.0,1.0,1.0*30
$GPRMC,064503.565,A,2822.390,N,07718.591,E,194.4,177.4,140224,000.0,W*70
$GPGGA,064504.565,2822.337,N,07718.593,E,1,12,1.0,0.0,M,0.0,M,,*60
$GPGSA,A,3,01,02,03,04,05,06,07,08,09,10,11,12,1.0,1.0,1.0*30
$GPRMC,064504.565,A,2822.337,N,07718.593,E,194.4,177.4,140224,000.0,W*78
$GPGGA,064505.565,2822.283,N,07718.596,E,1,12,1.0,0.0,M,0.0,M,,*6A
$GPGSA,A,3,01,02,03,04,05,06,07,08,09,10,11,12,1.0,1.0,1.0*30
$GPRMC,064505.565,A,2822.283,N,07718.596,E,194.4,177.4,140224,000.0,W*72
$GPGGA,064506.565,2822.229,N,07718.598,E,1,12,1.0,0.0,M,0.0,M,,*67
$GPGSA,A,3,01,02,03,04,05,06,07,08,09,10,11,12,1.0,1.0,1.0*30
$GPRMC,064506.565,A,2822.229,N,07718.598,E,194.4,177.4,140224,000.0,W*7F
$GPGGA,064507.565,2822.175,N,07718.601,E,1,12,1.0,0.0,M,0.0,M,,*6F
$GPGSA,A,3,01,02,03,04,05,06,07,08,09,10,11,12,1.0,1.0,1.0*30
$GPRMC,064507.565,A,2822.175,N,07718.601,E,194.4,174.9,140224,000.0,W*79
$GPGGA,064508.565,2822.121,N,07718.606,E,1,12,1.0,0.0,M,0.0,M,,*66
$GPGSA,A,3,01,02,03,04,05,06,07,08,09,10,11,12,1.0,1.0,1.0*30
$GPRMC,064508.565,A,2822.121,N,07718.606,E,194.4,174.9,140224,000.0,W*70
$GPGGA,064509.565,2822.067,N,07718.610,E,1,12,1.0,0.0,M,0.0,M,,*63
$GPGSA,A,3,01,02,03,04,05,06,07,08,09,10,11,12,1.0,1.0,1.0*30
$GPRMC,064509.565,A,2822.067,N,07718.610,E,194.4,174.9,140224,000.0,W*75
$GPGGA,064510.565,2822.013,N,07718.615,E,1,12,1.0,0.0,M,0.0,M,,*6D
$GPGSA,A,3,01,02,03,04,05,06,07,08,09,10,11,12,1.0,1.0,1.0*30
$GPRMC,064510.565,A,2822.013,N,07718.615,E,194.4,174.9,140224,000.0,W*7B
$GPGGA,064511.565,2821.960,N,07718.620,E,1,12,1.0,0.0,M,0.0,M,,*64
$GPGSA,A,3,01,02,03,04,05,06,07,08,09,10,11,12,1.0,1.0,1.0*30
$GPRMC,064511.565,A,2821.960,N,07718.620,E,194.4,176.0,140224,000.0,W*79
$GPGGA,064512.565,2821.906,N,07718.624,E,1,12,1.0,0.0,M,0.0,M,,*63
$GPGSA,A,3,01,02,03,04,05,06,07,08,09,10,11,12,1.0,1.0,1.0*30
$GPRMC,064512.565,A,2821.906,N,07718.624,E,194.4,176.0,140224,000.0,W*7E
