$GPGGA,104827.307,1858.241,N,07249.158,E,1,12,1.0,0.0,M,0.0,M,,*65
$GPGSA,A,3,01,02,03,04,05,06,07,08,09,10,11,12,1.0,1.0,1.0*30
$GPRMC,104827.307,A,1858.241,N,07249.158,E,003.1,313.4,140224,000.0,W*77
$GPGGA,104828.307,1858.241,N,07249.158,E,1,12,1.0,0.0,M,0.0,M,,*6A
$GPGSA,A,3,01,02,03,04,05,06,07,08,09,10,11,12,1.0,1.0,1.0*30
$GPRMC,104828.307,A,1858.241,N,07249.158,E,003.1,000.0,140224,000.0,W*7D
$GPGGA,104829.307,1858.241,N,07249.158,E,1,12,1.0,0.0,M,0.0,M,,*6B
$GPGSA,A,3,01,02,03,04,05,06,07,08,09,10,11,12,1.0,1.0,1.0*30
$GPRMC,104829.307,A,1858.241,N,07249.158,E,000.0,000.0,140224,000.0,W*7E
$GPGGA,104830.307,1858.241,N,07249.158,E,1,12,1.0,0.0,M,0.0,M,,*63
$GPGSA,A,3,01,02,03,04,05,06,07,08,09,10,11,12,1.0,1.0,1.0*30
$GPRMC,104830.307,A,1858.241,N,07249.158,E,000.0,000.0,140224,000.0,W*76
$GPGGA,104831.307,1858.241,N,07249.158,E,1,12,1.0,0.0,M,0.0,M,,*62
$GPGSA,A,3,01,02,03,04,05,06,07,08,09,10,11,12,1.0,1.0,1.0*30
$GPRMC,104831.307,A,1858.241,N,07249.158,E,000.0,000.0,140224,000.0,W*77
$GPGGA,104832.307,1858.241,N,07249.158,E,1,12,1.0,0.0,M,0.0,M,,*61
$GPGSA,A,3,01,02,03,04,05,06,07,08,09,10,11,12,1.0,1.0,1.0*30
$GPRMC,104832.307,A,1858.241,N,07249.158,E,000.0,000.0,140224,000.0,W*74
$GPGGA,104833.307,1858.241,N,07249.158,E,1,12,1.0,0.0,M,0.0,M,,*60
$GPGSA,A,3,01,02,03,04,05,06,07,08,09,10,11,12,1.0,1.0,1.0*30
$GPRMC,104833.307,A,1858.241,N,07249.158,E,000.0,000.0,140224,000.0,W*75
$GPGGA,104834.307,1858.241,N,07249.158,E,1,12,1.0,0.0,M,0.0,M,,*67
$GPGSA,A,3,01,02,03,04,05,06,07,08,09,10,11,12,1.0,1.0,1.0*30
$GPRMC,104834.307,A,1858.241,N,07249.158,E,000.0,000.0,140224,000.0,W*72
$GPGGA,104835.307,1858.241,N,07249.158,E,1,12,1.0,0.0,M,0.0,M,,*66
$GPGSA,A,3,01,02,03,04,05,06,07,08,09,10,11,12,1.0,1.0,1.0*30
$GPRMC,104835.307,A,1858.241,N,07249.158,E,000.0,000.0,140224,000.0,W*73
$GPGGA,104836.307,1858.241,N,07249.158,E,1,12,1.0,0.0,M,0.0,M,,*65
$GPGSA,A,3,01,02,03,04,05,06,07,08,09,10,11,12,1.0,1.0,1.0*30
$GPRMC,104836.307,A,1858.241,N,07249.158,E,000.0,000.0,140224,000.0,W*70
$GPGGA,104837.307,1858.241,N,07249.158,E,1,12,1.0,0.0,M,0.0,M,,*64
$GPGSA,A,3,01,02,03,04,05,06,07,08,09,10,11,12,1.0,1.0,1.0*30
$GPRMC,104837.307,A,1858.241,N,07249.158,E,000.0,000.0,140224,000.0,W*71
$GPGGA,104838.307,1858.241,N,07249.158,E,1,12,1.0,0.0,M,0.0,M,,*6B
$GPGSA,A,3,01,02,03,04,05,06,07,08,09,10,11,12,1.0,1.0,1.0*30
$GPRMC,104838.307,A,1858.241,N,07249.158,E,000.0,000.0,140224,000.0,W*7E
$GPGGA,104839.307,1858.241,N,07249.158,E,1,12,1.0,0.0,M,0.0,M,,*6A
$GPGSA,A,3,01,02,03,04,05,06,07,08,09,10,11,12,1.0,1.0,1.0*30
$GPRMC,104839.307,A,1858.241,N,07249.158,E,000.0,000.0,140224,000.0,W*7F
$GPGGA,104840.307,1858.241,N,07249.158,E,1,12,1.0,0.0,M,0.0,M,,*64
$GPGSA,A,3,01,02,03,04,05,06,07,08,09,10,11,12,1.0,1.0,1.0*30
$GPRMC,104840.307,A,1858.241,N,07249.158,E,000.0,000.0,140224,000.0,W*71
$GPGGA,104841.307,1858.241,N,07249.158,E,1,12,1.0,0.0,M,0.0,M,,*65
$GPGSA,A,3,01,02,03,04,05,06,07,08,09,10,11,12,1.0,1.0,1.0*30
$GPRMC,104841.307,A,1858.241,N,07249.158,E,000.0,000.0,140224,000.0,W*70
$GPGGA,104842.307,1858.241,N,07249.158,E,1,12,1.0,0.0,M,0.0,M,,*66
$GPGSA,A,3,01,02,03,04,05,06,07,08,09,10,11,12,1.0,1.0,1.0*30
$GPRMC,104842.307,A,1858.241,N,07249.158,E,000.0,000.0,140224,000.0,W*73
$GPGGA,104843.307,1858.241,N,07249.158,E,1,12,1.0,0.0,M,0.0,M,,*67
$GPGSA,A,3,01,02,03,04,05,06,07,08,09,10,11,12,1.0,1.0,1.0*30
$GPRMC,104843.307,A,1858.241,N,07249.158,E,000.0,000.0,140224,000.0,W*72
$GPGGA,104844.307,1858.241,N,07249.158,E,1,12,1.0,0.0,M,0.0,M,,*60
$GPGSA,A,3,01,02,03,04,05,06,07,08,09,10,11,12,1.0,1.0,1.0*30
$GPRMC,104844.307,A,1858.241,N,07249.158,E,000.0,000.0,140224,000.0,W*75
$GPGGA,104845.307,1858.241,N,07249.158,E,1,12,1.0,0.0,M,0.0,M,,*61
$GPGSA,A,3,01,02,03,04,05,06,07,08,09,10,11,12,1.0,1.0,1.0*30
$GPRMC,104845.307,A,1858.241,N,07249.158,E,000.0,000.0,140224,000.0,W*74
$GPGGA,104846.307,1858.241,N,07249.158,E,1,12,1.0,0.0,M,0.0,M,,*62
$GPGSA,A,3,01,02,03,04,05,06,07,08,09,10,11,12,1.0,1.0,1.0*30
$GPRMC,104846.307,A,1858.241,N,07249.158,E,194.4,008.3,140224,000.0,W*74
$GPGGA,104847.307,1858.295,N,07249.165,E,1,12,1.0,0.0,M,0.0,M,,*64
$GPGSA,A,3,01,02,03,04,05,06,07,08,09,10,11,12,1.0,1.0,1.0*30
$GPRMC,104847.307,A,1858.295,N,07249.165,E,194.4,008.3,140224,000.0,W*72
$GPGGA,104848.307,1858.348,N,07249.173,E,1,12,1.0,0.0,M,0.0,M,,*6D
$GPGSA,A,3,01,02,03,04,05,06,07,08,09,10,11,12,1.0,1.0,1.0*30
$GPRMC,104848.307,A,1858.348,N,07249.173,E,194.4,014.1,140224,000.0,W*74
$GPGGA,104849.307,1858.401,N,07249.186,E,1,12,1.0,0.0,M,0.0,M,,*6C
$GPGSA,A,3,01,02,03,04,05,06,07,08,09,10,11,12,1.0,1.0,1.0*30
$GPRMC,104849.307,A,1858.401,N,07249.186,E,194.4,014.1,140224,000.0,W*75
$GPGGA,104850.307,1858.453,N,07249.200,E,1,12,1.0,0.0,M,0.0,M,,*6E
$GPGSA,A,3,01,02,03,04,05,06,07,08,09,10,11,12,1.0,1.0,1.0*30
$GPRMC,104850.307,A,1858.453,N,07249.200,E,194.4,017.6,140224,000.0,W*73
$GPGGA,104851.307,1858.505,N,07249.216,E,1,12,1.0,0.0,M,0.0,M,,*6A
$GPGSA,A,3,01,02,03,04,05,06,07,08,09,10,11,12,1.0,1.0,1.0*30
$GPRMC,104851.307,A,1858.505,N,07249.216,E,194.4,017.6,140224,000.0,W*77
$GPGGA,104852.307,1858.557,N,07249.232,E,1,12,1.0,0.0,M,0.0,M,,*68
$GPGSA,A,3,01,02,03,04,05,06,07,08,09,10,11,12,1.0,1.0,1.0*30
$GPRMC,104852.307,A,1858.557,N,07249.232,E,194.4,011.1,140224,000.0,W*74
$GPGGA,104853.307,1858.610,N,07249.243,E,1,12,1.0,0.0,M,0.0,M,,*6F
$GPGSA,A,3,01,02,03,04,05,06,07,08,09,10,11,12,1.0,1.0,1.0*30
$GPRMC,104853.307,A,1858.610,N,07249.243,E,194.4,020.7,140224,000.0,W*77
$GPGGA,104854.307,1858.660,N,07249.262,E,1,12,1.0,0.0,M,0.0,M,,*6C
$GPGSA,A,3,01,02,03,04,05,06,07,08,09,10,11,12,1.0,1.0,1.0*30
$GPRMC,104854.307,A,1858.660,N,07249.262,E,194.4,029.5,140224,000.0,W*7F
$GPGGA,104855.307,1858.708,N,07249.289,E,1,12,1.0,0.0,M,0.0,M,,*67
$GPGSA,A,3,01,02,03,04,05,06,07,08,09,10,11,12,1.0,1.0,1.0*30
$GPRMC,104855.307,A,1858.708,N,07249.289,E,194.4,035.0,140224,000.0,W*7C
$GPGGA,104856.307,1858.753,N,07249.320,E,1,12,1.0,0.0,M,0.0,M,,*68
$GPGSA,A,3,01,02,03,04,05,06,07,08,09,10,11,12,1.0,1.0,1.0*30
$GPRMC,104856.307,A,1858.753,N,07249.320,E,194.4,035.0,140224,000.0,W*73
$GPGGA,104857.307,1858.798,N,07249.352,E,1,12,1.0,0.0,M,0.0,M,,*6B
$GPGSA,A,3,01,02,03,04,05,06,07,08,09,10,11,12,1.0,1.0,1.0*30
$GPRMC,104857.307,A,1858.798,N,07249.352,E,194.4,036.0,140224,000.0,W*73
$GPGGA,104858.307,1858.843,N,07249.384,E,1,12,1.0,0.0,M,0.0,M,,*66
$GPGSA,A,3,01,02,03,04,05,06,07,08,09,10,11,12,1.0,1.0,1.0*30
$GPRMC,104858.307,A,1858.843,N,07249.384,E,194.4,036.0,140224,000.0,W*7E
$GPGGA,104859.307,1858.887,N,07249.417,E,1,12,1.0,0.0,M,0.0,M,,*62
$GPGSA,A,3,01,02,03,04,05,06,07,08,09,10,11,12,1.0,1.0,1.0*30
$GPRMC,104859.307,A,1858.887,N,07249.417,E,194.4,035.4,140224,000.0,W*7D
$GPGGA,104900.307,1858.932,N,07249.448,E,1,12,1.0,0.0,M,0.0,M,,*6A
$GPGSA,A,3,01,02,03,04,05,06,07,08,09,10,11,12,1.0,1.0,1.0*30
$GPRMC,104900.307,A,1858.932,N,07249.448,E,194.4,034.9,140224,000.0,W*79
$GPGGA,104901.307,1858.977,N,07249.480,E,1,12,1.0,0.0,M,0.0,M,,*6E
$GPGSA,A,3,01,02,03,04,05,06,07,08,09,10,11,12,1.0,1.0,1.0*30
$GPRMC,104901.307,A,1858.977,N,07249.480,E,194.4,028.8,140224,000.0,W*71
$GPGGA,104902.307,1859.025,N,07249.506,E,1,12,1.0,0.0,M,0.0,M,,*6D
$GPGSA,A,3,01,02,03,04,05,06,07,08,09,10,11,12,1.0,1.0,1.0*30
$GPRMC,104902.307,A,1859.025,N,07249.506,E,194.4,022.8,140224,000.0,W*78
$GPGGA,104903.307,1859.075,N,07249.527,E,1,12,1.0,0.0,M,0.0,M,,*6A
$GPGSA,A,3,01,02,03,04,05,06,07,08,09,10,11,12,1.0,1.0,1.0*30
$GPRMC,104903.307,A,1859.075,N,07249.527,E,194.4,024.1,140224,000.0,W*70
$GPGGA,104904.307,1859.125,N,07249.549,E,1,12,1.0,0.0,M,0.0,M,,*61
$GPGSA,A,3,01,02,03,04,05,06,07,08,09,10,11,12,1.0,1.0,1.0*30
$GPRMC,104904.307,A,1859.125,N,07249.549,E,194.4,022.3,140224,000.0,W*7F
$GPGGA,104905.307,1859.175,N,07249.570,E,1,12,1.0,0.0,M,0.0,M,,*6F
$GPGSA,A,3,01,02,03,04,05,06,07,08,09,10,11,12,1.0,1.0,1.0*30
$GPRMC,104905.307,A,1859.175,N,07249.570,E,194.4,023.4,140224,000.0,W*77
$GPGGA,104906.307,1859.225,N,07249.592,E,1,12,1.0,0.0,M,0.0,M,,*66
$GPGSA,A,3,01,02,03,04,05,06,07,08,09,10,11,12,1.0,1.0,1.0*30
$GPRMC,104906.307,A,1859.225,N,07249.592,E,194.4,023.4,140224,000.0,W*7E
$GPGGA,104907.307,1859.275,N,07249.613,E,1,12,1.0,0.0,M,0.0,M,,*68
$GPGSA,A,3,01,02,03,04,05,06,07,08,09,10,11,12,1.0,1.0,1.0*30
$GPRMC,104907.307,A,1859.275,N,07249.613,E,194.4,023.5,140224,000.0,W*71
$GPGGA,104908.307,1859.325,N,07249.635,E,1,12,1.0,0.0,M,0.0,M,,*67
$GPGSA,A,3,01,02,03,04,05,06,07,08,09,10,11,12,1.0,1.0,1.0*30
$GPRMC,104908.307,A,1859.325,N,07249.635,E,194.4,023.5,140224,000.0,W*7E
$GPGGA,104909.307,1859.375,N,07249.657,E,1,12,1.0,0.0,M,0.0,M,,*67
$GPGSA,A,3,01,02,03,04,05,06,07,08,09,10,11,12,1.0,1.0,1.0*30
$GPRMC,104909.307,A,1859.375,N,07249.657,E,194.4,024.0,140224,000.0,W*7C
$GPGGA,104910.307,1859.424,N,07249.679,E,1,12,1.0,0.0,M,0.0,M,,*60
$GPGSA,A,3,01,02,03,04,05,06,07,08,09,10,11,12,1.0,1.0,1.0*30
$GPRMC,104910.307,A,1859.424,N,07249.679,E,194.4,024.0,140224,000.0,W*7B
$GPGGA,104911.307,1859.474,N,07249.701,E,1,12,1.0,0.0,M,0.0,M,,*6A
$GPGSA,A,3,01,02,03,04,05,06,07,08,09,10,11,12,1.0,1.0,1.0*30
$GPRMC,104911.307,A,1859.474,N,07249.701,E,194.4,024.2,140224,000.0,W*73
$GPGGA,104912.307,1859.524,N,07249.723,E,1,12,1.0,0.0,M,0.0,M,,*6D
$GPGSA,A,3,01,02,03,04,05,06,07,08,09,10,11,12,1.0,1.0,1.0*30
$GPRMC,104912.307,A,1859.524,N,07249.723,E,194.4,024.2,140224,000.0,W*74
$GPGGA,104913.307,1859.573,N,07249.746,E,1,12,1.0,0.0,M,0.0,M,,*6D
$GPGSA,A,3,01,02,03,04,05,06,07,08,09,10,11,12,1.0,1.0,1.0*30
$GPRMC,104913.307,A,1859.573,N,07249.746,E,194.4,024.4,140224,000.0,W*72
$GPGGA,104914.307,1859.623,N,07249.768,E,1,12,1.0,0.0,M,0.0,M,,*60
$GPGSA,A,3,01,02,03,04,05,06,07,08,09,10,11,12,1.0,1.0,1.0*30
$GPRMC,104914.307,A,1859.623,N,07249.768,E,194.4,024.4,140224,000.0,W*7F
$GPGGA,104915.307,1859.672,N,07249.791,E,1,12,1.0,0.0,M,0.0,M,,*63
$GPGSA,A,3,01,02,03,04,05,06,07,08,09,10,11,12,1.0,1.0,1.0*30
$GPRMC,104915.307,A,1859.672,N,07249.791,E,194.4,023.6,140224,000.0,W*79
$GPGGA,104916.307,1859.722,N,07249.813,E,1,12,1.0,0.0,M,0.0,M,,*61
$GPGSA,A,3,01,02,03,04,05,06,07,08,09,10,11,12,1.0,1.0,1.0*30
$GPRMC,104916.307,A,1859.722,N,07249.813,E,194.4,023.8,140224,000.0,W*75
$GPGGA,104917.307,1859.772,N,07249.835,E,1,12,1.0,0.0,M,0.0,M,,*61
$GPGSA,A,3,01,02,03,04,05,06,07,08,09,10,11,12,1.0,1.0,1.0*30
$GPRMC,104917.307,A,1859.772,N,07249.835,E,194.4,023.8,140224,000.0,W*75
$GPGGA,104918.307,1859.822,N,07249.857,E,1,12,1.0,0.0,M,0.0,M,,*60
$GPGSA,A,3,01,02,03,04,05,06,07,08,09,10,11,12,1.0,1.0,1.0*30
$GPRMC,104918.307,A,1859.822,N,07249.857,E,194.4,023.1,140224,000.0,W*7D
$GPGGA,104919.307,1859.872,N,07249.878,E,1,12,1.0,0.0,M,0.0,M,,*69
$GPGSA,A,3,01,02,03,04,05,06,07,08,09,10,11,12,1.0,1.0,1.0*30
$GPRMC,104919.307,A,1859.872,N,07249.878,E,194.4,024.7,140224,000.0,W*75
$GPGGA,104920.307,1859.921,N,07249.901,E,1,12,1.0,0.0,M,0.0,M,,*6B
$GPGSA,A,3,01,02,03,04,05,06,07,08,09,10,11,12,1.0,1.0,1.0*30
$GPRMC,104920.307,A,1859.921,N,07249.901,E,194.4,024.7,140224,000.0,W*77
$GPGGA,104921.307,1859.971,N,07249.923,E,1,12,1.0,0.0,M,0.0,M,,*6F
$GPGSA,A,3,01,02,03,04,05,06,07,08,09,10,11,12,1.0,1.0,1.0*30
$GPRMC,104921.307,A,1859.971,N,07249.923,E,194.4,026.0,140224,000.0,W*76
$GPGGA,104922.307,1900.020,N,07249.947,E,1,12,1.0,0.0,M,0.0,M,,*6E
$GPGSA,A,3,01,02,03,04,05,06,07,08,09,10,11,12,1.0,1.0,1.0*30
$GPRMC,104922.307,A,1900.020,N,07249.947,E,194.4,026.0,140224,000.0,W*77
$GPGGA,104923.307,1900.069,N,07249.971,E,1,12,1.0,0.0,M,0.0,M,,*67
$GPGSA,A,3,01,02,03,04,05,06,07,08,09,10,11,12,1.0,1.0,1.0*30
$GPRMC,104923.307,A,1900.069,N,07249.971,E,194.4,024.4,140224,000.0,W*78
$GPGGA,104924.307,1900.118,N,07249.994,E,1,12,1.0,0.0,M,0.0,M,,*6C
$GPGSA,A,3,01,02,03,04,05,06,07,08,09,10,11,12,1.0,1.0,1.0*30
$GPRMC,104924.307,A,1900.118,N,07249.994,E,194.4,024.2,140224,000.0,W*75
$GPGGA,104925.307,1900.168,N,07250.016,E,1,12,1.0,0.0,M,0.0,M,,*61
$GPGSA,A,3,01,02,03,04,05,06,07,08,09,10,11,12,1.0,1.0,1.0*30
$GPRMC,104925.307,A,1900.168,N,07250.016,E,194.4,024.2,140224,000.0,W*78
$GPGGA,104926.307,1900.218,N,07250.038,E,1,12,1.0,0.0,M,0.0,M,,*6A
$GPGSA,A,3,01,02,03,04,05,06,07,08,09,10,11,12,1.0,1.0,1.0*30
$GPRMC,104926.307,A,1900.218,N,07250.038,E,194.4,023.8,140224,000.0,W*7E
$GPGGA,104927.307,1900.268,N,07250.060,E,1,12,1.0,0.0,M,0.0,M,,*61
$GPGSA,A,3,01,02,03,04,05,06,07,08,09,10,11,12,1.0,1.0,1.0*30
$GPRMC,104927.307,A,1900.268,N,07250.060,E,194.4,028.1,140224,000.0,W*77
$GPGGA,104928.307,1900.316,N,07250.086,E,1,12,1.0,0.0,M,0.0,M,,*6E
$GPGSA,A,3,01,02,03,04,05,06,07,08,09,10,11,12,1.0,1.0,1.0*30
$GPRMC,104928.307,A,1900.316,N,07250.086,E,194.4,028.1,140224,000.0,W*78
$GPGGA,104929.307,1900.364,N,07250.112,E,1,12,1.0,0.0,M,0.0,M,,*66
$GPGSA,A,3,01,02,03,04,05,06,07,08,09,10,11,12,1.0,1.0,1.0*30
$GPRMC,104929.307,A,1900.364,N,07250.112,E,194.4,032.0,140224,000.0,W*7A
$GPGGA,104930.307,1900.410,N,07250.141,E,1,12,1.0,0.0,M,0.0,M,,*6C
$GPGSA,A,3,01,02,03,04,05,06,07,08,09,10,11,12,1.0,1.0,1.0*30
$GPRMC,104930.307,A,1900.410,N,07250.141,E,194.4,032.0,140224,000.0,W*70
$GPGGA,104931.307,1900.457,N,07250.170,E,1,12,1.0,0.0,M,0.0,M,,*6C
$GPGSA,A,3,01,02,03,04,05,06,07,08,09,10,11,12,1.0,1.0,1.0*30
$GPRMC,104931.307,A,1900.457,N,07250.170,E,194.4,029.6,140224,000.0,W*7C
$GPGGA,104932.307,1900.504,N,07250.197,E,1,12,1.0,0.0,M,0.0,M,,*61
$GPGSA,A,3,01,02,03,04,05,06,07,08,09,10,11,12,1.0,1.0,1.0*30
$GPRMC,104932.307,A,1900.504,N,07250.197,E,194.4,029.6,140224,000.0,W*71
$GPGGA,104933.307,1900.552,N,07250.224,E,1,12,1.0,0.0,M,0.0,M,,*68
$GPGSA,A,3,01,02,03,04,05,06,07,08,09,10,11,12,1.0,1.0,1.0*30
$GPRMC,104933.307,A,1900.552,N,07250.224,E,194.4,025.8,140224,000.0,W*7A
$GPGGA,104934.307,1900.601,N,07250.248,E,1,12,1.0,0.0,M,0.0,M,,*60
$GPGSA,A,3,01,02,03,04,05,06,07,08,09,10,11,12,1.0,1.0,1.0*30
$GPRMC,104934.307,A,1900.601,N,07250.248,E,194.4,028.2,140224,000.0,W*75
$GPGGA,104935.307,1900.649,N,07250.274,E,1,12,1.0,0.0,M,0.0,M,,*62
$GPGSA,A,3,01,02,03,04,05,06,07,08,09,10,11,12,1.0,1.0,1.0*30
$GPRMC,104935.307,A,1900.649,N,07250.274,E,194.4,031.6,140224,000.0,W*7B
$GPGGA,104936.307,1900.696,N,07250.302,E,1,12,1.0,0.0,M,0.0,M,,*63
$GPGSA,A,3,01,02,03,04,05,06,07,08,09,10,11,12,1.0,1.0,1.0*30
$GPRMC,104936.307,A,1900.696,N,07250.302,E,194.4,031.6,140224,000.0,W*7A
$GPGGA,104937.307,1900.742,N,07250.331,E,1,12,1.0,0.0,M,0.0,M,,*6A
$GPGSA,A,3,01,02,03,04,05,06,07,08,09,10,11,12,1.0,1.0,1.0*30
$GPRMC,104937.307,A,1900.742,N,07250.331,E,194.4,031.0,140224,000.0,W*75
$GPGGA,104938.307,1900.789,N,07250.359,E,1,12,1.0,0.0,M,0.0,M,,*6C
$GPGSA,A,3,01,02,03,04,05,06,07,08,09,10,11,12,1.0,1.0,1.0*30
$GPRMC,104938.307,A,1900.789,N,07250.359,E,194.4,031.0,140224,000.0,W*73
$GPGGA,104939.307,1900.836,N,07250.388,E,1,12,1.0,0.0,M,0.0,M,,*6A
$GPGSA,A,3,01,02,03,04,05,06,07,08,09,10,11,12,1.0,1.0,1.0*30
$GPRMC,104939.307,A,1900.836,N,07250.388,E,194.4,030.4,140224,000.0,W*70
$GPGGA,104940.307,1900.883,N,07250.415,E,1,12,1.0,0.0,M,0.0,M,,*69
$GPGSA,A,3,01,02,03,04,05,06,07,08,09,10,11,12,1.0,1.0,1.0*30
$GPRMC,104940.307,A,1900.883,N,07250.415,E,194.4,030.4,140224,000.0,W*73
$GPGGA,104941.307,1900.930,N,07250.443,E,1,12,1.0,0.0,M,0.0,M,,*62
$GPGSA,A,3,01,02,03,04,05,06,07,08,09,10,11,12,1.0,1.0,1.0*30
$GPRMC,104941.307,A,1900.930,N,07250.443,E,194.4,032.5,140224,000.0,W*7B
$GPGGA,104942.307,1900.977,N,07250.472,E,1,12,1.0,0.0,M,0.0,M,,*60
$GPGSA,A,3,01,02,03,04,05,06,07,08,09,10,11,12,1.0,1.0,1.0*30
$GPRMC,104942.307,A,1900.977,N,07250.472,E,194.4,034.5,140224,000.0,W*7F
$GPGGA,104943.307,1901.022,N,07250.504,E,1,12,1.0,0.0,M,0.0,M,,*69
$GPGSA,A,3,01,02,03,04,05,06,07,08,09,10,11,12,1.0,1.0,1.0*30
$GPRMC,104943.307,A,1901.022,N,07250.504,E,194.4,034.5,140224,000.0,W*76
$GPGGA,104944.307,1901.067,N,07250.535,E,1,12,1.0,0.0,M,0.0,M,,*6D
$GPGSA,A,3,01,02,03,04,05,06,07,08,09,10,11,12,1.0,1.0,1.0*30
$GPRMC,104944.307,A,1901.067,N,07250.535,E,194.4,034.5,140224,000.0,W*72
$GPGGA,104945.307,1901.112,N,07250.566,E,1,12,1.0,0.0,M,0.0,M,,*69
$GPGSA,A,3,01,02,03,04,05,06,07,08,09,10,11,12,1.0,1.0,1.0*30
$GPRMC,104945.307,A,1901.112,N,07250.566,E,194.4,032.0,140224,000.0,W*75
$GPGGA,104946.307,1901.159,N,07250.595,E,1,12,1.0,0.0,M,0.0,M,,*69
$GPGSA,A,3,01,02,03,04,05,06,07,08,09,10,11,12,1.0,1.0,1.0*30
$GPRMC,104946.307,A,1901.159,N,07250.595,E,194.4,030.1,140224,000.0,W*76
$GPGGA,104947.307,1901.206,N,07250.622,E,1,12,1.0,0.0,M,0.0,M,,*6E
$GPGSA,A,3,01,02,03,04,05,06,07,08,09,10,11,12,1.0,1.0,1.0*30
$GPRMC,104947.307,A,1901.206,N,07250.622,E,194.4,025.4,140224,000.0,W*70
$GPGGA,104948.307,1901.255,N,07250.646,E,1,12,1.0,0.0,M,0.0,M,,*65
$GPGSA,A,3,01,02,03,04,05,06,07,08,09,10,11,12,1.0,1.0,1.0*30
$GPRMC,104948.307,A,1901.255,N,07250.646,E,194.4,026.1,140224,000.0,W*7D
$GPGGA,104949.307,1901.304,N,07250.670,E,1,12,1.0,0.0,M,0.0,M,,*64
$GPGSA,A,3,01,02,03,04,05,06,07,08,09,10,11,12,1.0,1.0,1.0*30
$GPRMC,104949.307,A,1901.304,N,07250.670,E,194.4,023.5,140224,000.0,W*7D
$GPGGA,104950.307,1901.354,N,07250.691,E,1,12,1.0,0.0,M,0.0,M,,*66
$GPGSA,A,3,01,02,03,04,05,06,07,08,09,10,11,12,1.0,1.0,1.0*30
$GPRMC,104950.307,A,1901.354,N,07250.691,E,194.4,021.6,140224,000.0,W*7E
$GPGGA,104951.307,1901.405,N,07250.711,E,1,12,1.0,0.0,M,0.0,M,,*6D
$GPGSA,A,3,01,02,03,04,05,06,07,08,09,10,11,12,1.0,1.0,1.0*30
$GPRMC,104951.307,A,1901.405,N,07250.711,E,194.4,021.6,140224,000.0,W*75
$GPGGA,104952.307,1901.455,N,07250.731,E,1,12,1.0,0.0,M,0.0,M,,*69
$GPGSA,A,3,01,02,03,04,05,06,07,08,09,10,11,12,1.0,1.0,1.0*30
$GPRMC,104952.307,A,1901.455,N,07250.731,E,194.4,021.4,140224,000.0,W*73
$GPGGA,104953.307,1901.506,N,07250.751,E,1,12,1.0,0.0,M,0.0,M,,*69
$GPGSA,A,3,01,02,03,04,05,06,07,08,09,10,11,12,1.0,1.0,1.0*30
$GPRMC,104953.307,A,1901.506,N,07250.751,E,194.4,022.0,140224,000.0,W*74
$GPGGA,104954.307,1901.556,N,07250.771,E,1,12,1.0,0.0,M,0.0,M,,*69
$GPGSA,A,3,01,02,03,04,05,06,07,08,09,10,11,12,1.0,1.0,1.0*30
$GPRMC,104954.307,A,1901.556,N,07250.771,E,194.4,022.0,140224,000.0,W*74
$GPGGA,104955.307,1901.607,N,07250.792,E,1,12,1.0,0.0,M,0.0,M,,*62
$GPGSA,A,3,01,02,03,04,05,06,07,08,09,10,11,12,1.0,1.0,1.0*30
$GPRMC,104955.307,A,1901.607,N,07250.792,E,194.4,019.8,140224,000.0,W*7F
$GPGGA,104956.307,1901.658,N,07250.810,E,1,12,1.0,0.0,M,0.0,M,,*6E
$GPGSA,A,3,01,02,03,04,05,06,07,08,09,10,11,12,1.0,1.0,1.0*30
$GPRMC,104956.307,A,1901.658,N,07250.810,E,194.4,017.4,140224,000.0,W*71
$GPGGA,104957.307,1901.710,N,07250.826,E,1,12,1.0,0.0,M,0.0,M,,*67
$GPGSA,A,3,01,02,03,04,05,06,07,08,09,10,11,12,1.0,1.0,1.0*30
$GPRMC,104957.307,A,1901.710,N,07250.826,E,194.4,017.0,140224,000.0,W*7C
$GPGGA,104958.307,1901.761,N,07250.842,E,1,12,1.0,0.0,M,0.0,M,,*6C
$GPGSA,A,3,01,02,03,04,05,06,07,08,09,10,11,12,1.0,1.0,1.0*30
$GPRMC,104958.307,A,1901.761,N,07250.842,E,194.4,015.3,140224,000.0,W*76
$GPGGA,104959.307,1901.814,N,07250.857,E,1,12,1.0,0.0,M,0.0,M,,*64
$GPGSA,A,3,01,02,03,04,05,06,07,08,09,10,11,12,1.0,1.0,1.0*30
$GPRMC,104959.307,A,1901.814,N,07250.857,E,194.4,013.8,140224,000.0,W*73
$GPGGA,105000.307,1901.866,N,07250.870,E,1,12,1.0,0.0,M,0.0,M,,*60
$GPGSA,A,3,01,02,03,04,05,06,07,08,09,10,11,12,1.0,1.0,1.0*30
$GPRMC,105000.307,A,1901.866,N,07250.870,E,194.4,010.1,140224,000.0,W*7D
$GPGGA,105001.307,1901.919,N,07250.879,E,1,12,1.0,0.0,M,0.0,M,,*61
$GPGSA,A,3,01,02,03,04,05,06,07,08,09,10,11,12,1.0,1.0,1.0*30
$GPRMC,105001.307,A,1901.919,N,07250.879,E,194.4,008.0,140224,000.0,W*74
$GPGGA,105002.307,1901.973,N,07250.887,E,1,12,1.0,0.0,M,0.0,M,,*6F
$GPGSA,A,3,01,02,03,04,05,06,07,08,09,10,11,12,1.0,1.0,1.0*30
$GPRMC,105002.307,A,1901.973,N,07250.887,E,194.4,004.2,140224,000.0,W*74
$GPGGA,105003.307,1902.027,N,07250.890,E,1,12,1.0,0.0,M,0.0,M,,*63
$GPGSA,A,3,01,02,03,04,05,06,07,08,09,10,11,12,1.0,1.0,1.0*30
$GPRMC,105003.307,A,1902.027,N,07250.890,E,194.4,001.2,140224,000.0,W*7D
$GPGGA,105004.307,1902.081,N,07250.892,E,1,12,1.0,0.0,M,0.0,M,,*6A
$GPGSA,A,3,01,02,03,04,05,06,07,08,09,10,11,12,1.0,1.0,1.0*30
$GPRMC,105004.307,A,1902.081,N,07250.892,E,194.4,357.1,140224,000.0,W*77
$GPGGA,105005.307,1902.135,N,07250.889,E,1,12,1.0,0.0,M,0.0,M,,*6F
$GPGSA,A,3,01,02,03,04,05,06,07,08,09,10,11,12,1.0,1.0,1.0*30
$GPRMC,105005.307,A,1902.135,N,07250.889,E,194.4,353.1,140224,000.0,W*76
$GPGGA,105006.307,1902.188,N,07250.882,E,1,12,1.0,0.0,M,0.0,M,,*61
$GPGSA,A,3,01,02,03,04,05,06,07,08,09,10,11,12,1.0,1.0,1.0*30
$GPRMC,105006.307,A,1902.188,N,07250.882,E,194.4,351.4,140224,000.0,W*7F
$GPGGA,105007.307,1902.242,N,07250.874,E,1,12,1.0,0.0,M,0.0,M,,*6C
$GPGSA,A,3,01,02,03,04,05,06,07,08,09,10,11,12,1.0,1.0,1.0*30
$GPRMC,105007.307,A,1902.242,N,07250.874,E,194.4,349.7,140224,000.0,W*78
$GPGGA,105008.307,1902.295,N,07250.865,E,1,12,1.0,0.0,M,0.0,M,,*69
$GPGSA,A,3,01,02,03,04,05,06,07,08,09,10,11,12,1.0,1.0,1.0*30
$GPRMC,105008.307,A,1902.295,N,07250.865,E,194.4,346.0,140224,000.0,W*75
$GPGGA,105009.307,1902.347,N,07250.852,E,1,12,1.0,0.0,M,0.0,M,,*62
$GPGSA,A,3,01,02,03,04,05,06,07,08,09,10,11,12,1.0,1.0,1.0*30
$GPRMC,105009.307,A,1902.347,N,07250.852,E,194.4,340.4,140224,000.0,W*7C
$GPGGA,105010.307,1902.398,N,07250.833,E,1,12,1.0,0.0,M,0.0,M,,*6F
$GPGSA,A,3,01,02,03,04,05,06,07,08,09,10,11,12,1.0,1.0,1.0*30
$GPRMC,105010.307,A,1902.398,N,07250.833,E,194.4,337.1,140224,000.0,W*74
$GPGGA,105011.307,1902.448,N,07250.812,E,1,12,1.0,0.0,M,0.0,M,,*67
$GPGSA,A,3,01,02,03,04,05,06,07,08,09,10,11,12,1.0,1.0,1.0*30
$GPRMC,105011.307,A,1902.448,N,07250.812,E,194.4,335.3,140224,000.0,W*7C
$GPGGA,105012.307,1902.498,N,07250.789,E,1,12,1.0,0.0,M,0.0,M,,*64
$GPGSA,A,3,01,02,03,04,05,06,07,08,09,10,11,12,1.0,1.0,1.0*30
$GPRMC,105012.307,A,1902.498,N,07250.789,E,194.4,334.8,140224,000.0,W*75
$GPGGA,105013.307,1902.547,N,07250.766,E,1,12,1.0,0.0,M,0.0,M,,*67
$GPGSA,A,3,01,02,03,04,05,06,07,08,09,10,11,12,1.0,1.0,1.0*30
$GPRMC,105013.307,A,1902.547,N,07250.766,E,194.4,334.0,140224,000.0,W*7E
$GPGGA,105014.307,1902.596,N,07250.742,E,1,12,1.0,0.0,M,0.0,M,,*6A
$GPGSA,A,3,01,02,03,04,05,06,07,08,09,10,11,12,1.0,1.0,1.0*30
$GPRMC,105014.307,A,1902.596,N,07250.742,E,194.4,335.4,140224,000.0,W*76
$GPGGA,105015.307,1902.646,N,07250.719,E,1,12,1.0,0.0,M,0.0,M,,*6B
$GPGSA,A,3,01,02,03,04,05,06,07,08,09,10,11,12,1.0,1.0,1.0*30
$GPRMC,105015.307,A,1902.646,N,07250.719,E,194.4,332.7,140224,000.0,W*73
$GPGGA,105016.307,1902.694,N,07250.694,E,1,12,1.0,0.0,M,0.0,M,,*63
$GPGSA,A,3,01,02,03,04,05,06,07,08,09,10,11,12,1.0,1.0,1.0*30
$GPRMC,105016.307,A,1902.694,N,07250.694,E,194.4,335.6,140224,000.0,W*7D
$GPGGA,105017.307,1902.744,N,07250.672,E,1,12,1.0,0.0,M,0.0,M,,*66
$GPGSA,A,3,01,02,03,04,05,06,07,08,09,10,11,12,1.0,1.0,1.0*30
$GPRMC,105017.307,A,1902.744,N,07250.672,E,194.4,336.0,140224,000.0,W*7D
$GPGGA,105018.307,1902.794,N,07250.650,E,1,12,1.0,0.0,M,0.0,M,,*64
$GPGSA,A,3,01,02,03,04,05,06,07,08,09,10,11,12,1.0,1.0,1.0*30
$GPRMC,105018.307,A,1902.794,N,07250.650,E,194.4,335.1,140224,000.0,W*7D
$GPGGA,105019.307,1902.843,N,07250.627,E,1,12,1.0,0.0,M,0.0,M,,*60
$GPGSA,A,3,01,02,03,04,05,06,07,08,09,10,11,12,1.0,1.0,1.0*30
$GPRMC,105019.307,A,1902.843,N,07250.627,E,194.4,335.8,140224,000.0,W*70
$GPGGA,105020.307,1902.893,N,07250.605,E,1,12,1.0,0.0,M,0.0,M,,*67
$GPGSA,A,3,01,02,03,04,05,06,07,08,09,10,11,12,1.0,1.0,1.0*30
$GPRMC,105020.307,A,1902.893,N,07250.605,E,194.4,335.8,140224,000.0,W*77
$GPGGA,105021.307,1902.942,N,07250.582,E,1,12,1.0,0.0,M,0.0,M,,*67
$GPGSA,A,3,01,02,03,04,05,06,07,08,09,10,11,12,1.0,1.0,1.0*30
$GPRMC,105021.307,A,1902.942,N,07250.582,E,194.4,335.7,140224,000.0,W*78
$GPGGA,105022.307,1902.992,N,07250.560,E,1,12,1.0,0.0,M,0.0,M,,*65
$GPGSA,A,3,01,02,03,04,05,06,07,08,09,10,11,12,1.0,1.0,1.0*30
$GPRMC,105022.307,A,1902.992,N,07250.560,E,194.4,335.3,140224,000.0,W*7E
$GPGGA,105023.307,1903.041,N,07250.537,E,1,12,1.0,0.0,M,0.0,M,,*60
$GPGSA,A,3,01,02,03,04,05,06,07,08,09,10,11,12,1.0,1.0,1.0*30
$GPRMC,105023.307,A,1903.041,N,07250.537,E,194.4,335.2,140224,000.0,W*7A
$GPGGA,105024.307,1903.091,N,07250.514,E,1,12,1.0,0.0,M,0.0,M,,*6B
$GPGSA,A,3,01,02,03,04,05,06,07,08,09,10,11,12,1.0,1.0,1.0*30
$GPRMC,105024.307,A,1903.091,N,07250.514,E,194.4,336.7,140224,000.0,W*77
$GPGGA,105025.307,1903.141,N,07250.493,E,1,12,1.0,0.0,M,0.0,M,,*68
$GPGSA,A,3,01,02,03,04,05,06,07,08,09,10,11,12,1.0,1.0,1.0*30
$GPRMC,105025.307,A,1903.141,N,07250.493,E,194.4,336.7,140224,000.0,W*74
$GPGGA,105026.307,1903.191,N,07250.471,E,1,12,1.0,0.0,M,0.0,M,,*6A
$GPGSA,A,3,01,02,03,04,05,06,07,08,09,10,11,12,1.0,1.0,1.0*30
$GPRMC,105026.307,A,1903.191,N,07250.471,E,194.4,341.3,140224,000.0,W*72
$GPGGA,105027.307,1903.242,N,07250.454,E,1,12,1.0,0.0,M,0.0,M,,*61
$GPGSA,A,3,01,02,03,04,05,06,07,08,09,10,11,12,1.0,1.0,1.0*30
$GPRMC,105027.307,A,1903.242,N,07250.454,E,194.4,340.6,140224,000.0,W*7D
$GPGGA,105028.307,1903.293,N,07250.436,E,1,12,1.0,0.0,M,0.0,M,,*66
$GPGSA,A,3,01,02,03,04,05,06,07,08,09,10,11,12,1.0,1.0,1.0*30
$GPRMC,105028.307,A,1903.293,N,07250.436,E,194.4,341.1,140224,000.0,W*7C
$GPGGA,105029.307,1903.345,N,07250.418,E,1,12,1.0,0.0,M,0.0,M,,*61
$GPGSA,A,3,01,02,03,04,05,06,07,08,09,10,11,12,1.0,1.0,1.0*30
$GPRMC,105029.307,A,1903.345,N,07250.418,E,194.4,341.1,140224,000.0,W*7B
$GPGGA,105030.307,1903.396,N,07250.400,E,1,12,1.0,0.0,M,0.0,M,,*6E
$GPGSA,A,3,01,02,03,04,05,06,07,08,09,10,11,12,1.0,1.0,1.0*30
$GPRMC,105030.307,A,1903.396,N,07250.400,E,194.4,343.9,140224,000.0,W*7E
$GPGGA,105031.307,1903.448,N,07250.385,E,1,12,1.0,0.0,M,0.0,M,,*61
$GPGSA,A,3,01,02,03,04,05,06,07,08,09,10,11,12,1.0,1.0,1.0*30
$GPRMC,105031.307,A,1903.448,N,07250.385,E,194.4,346.2,140224,000.0,W*7F
$GPGGA,105032.307,1903.501,N,07250.372,E,1,12,1.0,0.0,M,0.0,M,,*66
$GPGSA,A,3,01,02,03,04,05,06,07,08,09,10,11,12,1.0,1.0,1.0*30
$GPRMC,105032.307,A,1903.501,N,07250.372,E,194.4,348.0,140224,000.0,W*74
$GPGGA,105033.307,1903.554,N,07250.361,E,1,12,1.0,0.0,M,0.0,M,,*65
$GPGSA,A,3,01,02,03,04,05,06,07,08,09,10,11,12,1.0,1.0,1.0*30
$GPRMC,105033.307,A,1903.554,N,07250.361,E,194.4,351.3,140224,000.0,W*7C
$GPGGA,105034.307,1903.607,N,07250.353,E,1,12,1.0,0.0,M,0.0,M,,*66
$GPGSA,A,3,01,02,03,04,05,06,07,08,09,10,11,12,1.0,1.0,1.0*30
$GPRMC,105034.307,A,1903.607,N,07250.353,E,194.4,357.7,140224,000.0,W*7D
$GPGGA,105035.307,1903.661,N,07250.351,E,1,12,1.0,0.0,M,0.0,M,,*65
$GPGSA,A,3,01,02,03,04,05,06,07,08,09,10,11,12,1.0,1.0,1.0*30
$GPRMC,105035.307,A,1903.661,N,07250.351,E,194.4,357.7,140224,000.0,W*7E
$GPGGA,105036.307,1903.715,N,07250.349,E,1,12,1.0,0.0,M,0.0,M,,*6D
$GPGSA,A,3,01,02,03,04,05,06,07,08,09,10,11,12,1.0,1.0,1.0*30
$GPRMC,105036.307,A,1903.715,N,07250.349,E,194.4,005.6,140224,000.0,W*73
$GPGGA,105037.307,1903.768,N,07250.354,E,1,12,1.0,0.0,M,0.0,M,,*6A
$GPGSA,A,3,01,02,03,04,05,06,07,08,09,10,11,12,1.0,1.0,1.0*30
$GPRMC,105037.307,A,1903.768,N,07250.354,E,194.4,010.3,140224,000.0,W*75
$GPGGA,105038.307,1903.822,N,07250.364,E,1,12,1.0,0.0,M,0.0,M,,*67
$GPGSA,A,3,01,02,03,04,05,06,07,08,09,10,11,12,1.0,1.0,1.0*30
$GPRMC,105038.307,A,1903.822,N,07250.364,E,194.4,010.3,140224,000.0,W*78
$GPGGA,105039.307,1903.875,N,07250.373,E,1,12,1.0,0.0,M,0.0,M,,*62
$GPGSA,A,3,01,02,03,04,05,06,07,08,09,10,11,12,1.0,1.0,1.0*30
$GPRMC,105039.307,A,1903.875,N,07250.373,E,194.4,010.3,140224,000.0,W*7D
$GPGGA,105040.307,1903.928,N,07250.383,E,1,12,1.0,0.0,M,0.0,M,,*6A
$GPGSA,A,3,01,02,03,04,05,06,07,08,09,10,11,12,1.0,1.0,1.0*30
$GPRMC,105040.307,A,1903.928,N,07250.383,E,194.4,005.9,140224,000.0,W*7B
$GPGGA,105041.307,1903.982,N,07250.389,E,1,12,1.0,0.0,M,0.0,M,,*61
$GPGSA,A,3,01,02,03,04,05,06,07,08,09,10,11,12,1.0,1.0,1.0*30
$GPRMC,105041.307,A,1903.982,N,07250.389,E,194.4,007.9,140224,000.0,W*72
$GPGGA,105042.307,1904.035,N,07250.396,E,1,12,1.0,0.0,M,0.0,M,,*6E
$GPGSA,A,3,01,02,03,04,05,06,07,08,09,10,11,12,1.0,1.0,1.0*30
$GPRMC,105042.307,A,1904.035,N,07250.396,E,194.4,008.7,140224,000.0,W*7C
$GPGGA,105043.307,1904.089,N,07250.404,E,1,12,1.0,0.0,M,0.0,M,,*64
$GPGSA,A,3,01,02,03,04,05,06,07,08,09,10,11,12,1.0,1.0,1.0*30
$GPRMC,105043.307,A,1904.089,N,07250.404,E,194.4,007.4,140224,000.0,W*7A
$GPGGA,105044.307,1904.142,N,07250.411,E,1,12,1.0,0.0,M,0.0,M,,*61
$GPGSA,A,3,01,02,03,04,05,06,07,08,09,10,11,12,1.0,1.0,1.0*30
$GPRMC,105044.307,A,1904.142,N,07250.411,E,194.4,007.2,140224,000.0,W*79
$GPGGA,105045.307,1904.196,N,07250.418,E,1,12,1.0,0.0,M,0.0,M,,*60
$GPGSA,A,3,01,02,03,04,05,06,07,08,09,10,11,12,1.0,1.0,1.0*30
$GPRMC,105045.307,A,1904.196,N,07250.418,E,194.4,003.1,140224,000.0,W*7F
$GPGGA,105046.307,1904.250,N,07250.421,E,1,12,1.0,0.0,M,0.0,M,,*60
$GPGSA,A,3,01,02,03,04,05,06,07,08,09,10,11,12,1.0,1.0,1.0*30
$GPRMC,105046.307,A,1904.250,N,07250.421,E,194.4,001.5,140224,000.0,W*79
$GPGGA,105047.307,1904.304,N,07250.422,E,1,12,1.0,0.0,M,0.0,M,,*62
$GPGSA,A,3,01,02,03,04,05,06,07,08,09,10,11,12,1.0,1.0,1.0*30
$GPRMC,105047.307,A,1904.304,N,07250.422,E,194.4,007.0,140224,000.0,W*78
$GPGGA,105048.307,1904.357,N,07250.429,E,1,12,1.0,0.0,M,0.0,M,,*60
$GPGSA,A,3,01,02,03,04,05,06,07,08,09,10,11,12,1.0,1.0,1.0*30
$GPRMC,105048.307,A,1904.357,N,07250.429,E,194.4,007.0,140224,000.0,W*7A
$GPGGA,105049.307,1904.411,N,07250.435,E,1,12,1.0,0.0,M,0.0,M,,*69
$GPGSA,A,3,01,02,03,04,05,06,07,08,09,10,11,12,1.0,1.0,1.0*30
$GPRMC,105049.307,A,1904.411,N,07250.435,E,194.4,007.7,140224,000.0,W*74
$GPGGA,105050.307,1904.464,N,07250.443,E,1,12,1.0,0.0,M,0.0,M,,*62
$GPGSA,A,3,01,02,03,04,05,06,07,08,09,10,11,12,1.0,1.0,1.0*30
$GPRMC,105050.307,A,1904.464,N,07250.443,E,194.4,007.9,140224,000.0,W*71
$GPGGA,105051.307,1904.518,N,07250.450,E,1,12,1.0,0.0,M,0.0,M,,*6B
$GPGSA,A,3,01,02,03,04,05,06,07,08,09,10,11,12,1.0,1.0,1.0*30
$GPRMC,105051.307,A,1904.518,N,07250.450,E,194.4,007.6,140224,000.0,W*77
$GPGGA,105052.307,1904.571,N,07250.457,E,1,12,1.0,0.0,M,0.0,M,,*60
$GPGSA,A,3,01,02,03,04,05,06,07,08,09,10,11,12,1.0,1.0,1.0*30
$GPRMC,105052.307,A,1904.571,N,07250.457,E,194.4,007.6,140224,000.0,W*7C
$GPGGA,105053.307,1904.625,N,07250.464,E,1,12,1.0,0.0,M,0.0,M,,*63
$GPGSA,A,3,01,02,03,04,05,06,07,08,09,10,11,12,1.0,1.0,1.0*30
$GPRMC,105053.307,A,1904.625,N,07250.464,E,194.4,007.3,140224,000.0,W*7A
$GPGGA,105054.307,1904.678,N,07250.471,E,1,12,1.0,0.0,M,0.0,M,,*68
$GPGSA,A,3,01,02,03,04,05,06,07,08,09,10,11,12,1.0,1.0,1.0*30
$GPRMC,105054.307,A,1904.678,N,07250.471,E,194.4,006.7,140224,000.0,W*74
$GPGGA,105055.307,1904.732,N,07250.477,E,1,12,1.0,0.0,M,0.0,M,,*60
$GPGSA,A,3,01,02,03,04,05,06,07,08,09,10,11,12,1.0,1.0,1.0*30
$GPRMC,105055.307,A,1904.732,N,07250.477,E,194.4,008.3,140224,000.0,W*76
$GPGGA,105056.307,1904.786,N,07250.485,E,1,12,1.0,0.0,M,0.0,M,,*61
$GPGSA,A,3,01,02,03,04,05,06,07,08,09,10,11,12,1.0,1.0,1.0*30
$GPRMC,105056.307,A,1904.786,N,07250.485,E,194.4,008.5,140224,000.0,W*71
$GPGGA,105057.307,1904.839,N,07250.493,E,1,12,1.0,0.0,M,0.0,M,,*6C
$GPGSA,A,3,01,02,03,04,05,06,07,08,09,10,11,12,1.0,1.0,1.0*30
$GPRMC,105057.307,A,1904.839,N,07250.493,E,194.4,007.5,140224,000.0,W*73
$GPGGA,105058.307,1904.893,N,07250.500,E,1,12,1.0,0.0,M,0.0,M,,*68
$GPGSA,A,3,01,02,03,04,05,06,07,08,09,10,11,12,1.0,1.0,1.0*30
$GPRMC,105058.307,A,1904.893,N,07250.500,E,194.4,007.5,140224,000.0,W*77
$GPGGA,105059.307,1904.946,N,07250.507,E,1,12,1.0,0.0,M,0.0,M,,*67
$GPGSA,A,3,01,02,03,04,05,06,07,08,09,10,11,12,1.0,1.0,1.0*30
$GPRMC,105059.307,A,1904.946,N,07250.507,E,194.4,005.0,140224,000.0,W*7F
$GPGGA,105100.307,1905.000,N,07250.512,E,1,12,1.0,0.0,M,0.0,M,,*64
$GPGSA,A,3,01,02,03,04,05,06,07,08,09,10,11,12,1.0,1.0,1.0*30
$GPRMC,105100.307,A,1905.000,N,07250.512,E,194.4,007.5,140224,000.0,W*7B
$GPGGA,105101.307,1905.053,N,07250.519,E,1,12,1.0,0.0,M,0.0,M,,*68
$GPGSA,A,3,01,02,03,04,05,06,07,08,09,10,11,12,1.0,1.0,1.0*30
$GPRMC,105101.307,A,1905.053,N,07250.519,E,194.4,008.2,140224,000.0,W*7F
$GPGGA,105102.307,1905.107,N,07250.527,E,1,12,1.0,0.0,M,0.0,M,,*66
$GPGSA,A,3,01,02,03,04,05,06,07,08,09,10,11,12,1.0,1.0,1.0*30
$GPRMC,105102.307,A,1905.107,N,07250.527,E,194.4,007.6,140224,000.0,W*7A
$GPGGA,105103.307,1905.160,N,07250.534,E,1,12,1.0,0.0,M,0.0,M,,*64
$GPGSA,A,3,01,02,03,04,05,06,07,08,09,10,11,12,1.0,1.0,1.0*30
$GPRMC,105103.307,A,1905.160,N,07250.534,E,194.4,007.6,140224,000.0,W*78
$GPGGA,105104.307,1905.214,N,07250.541,E,1,12,1.0,0.0,M,0.0,M,,*61
$GPGSA,A,3,01,02,03,04,05,06,07,08,09,10,11,12,1.0,1.0,1.0*30
$GPRMC,105104.307,A,1905.214,N,07250.541,E,194.4,007.0,140224,000.0,W*7B
$GPGGA,105105.307,1905.268,N,07250.548,E,1,12,1.0,0.0,M,0.0,M,,*62
$GPGSA,A,3,01,02,03,04,05,06,07,08,09,10,11,12,1.0,1.0,1.0*30
$GPRMC,105105.307,A,1905.268,N,07250.548,E,194.4,008.0,140224,000.0,W*77
$GPGGA,105106.307,1905.321,N,07250.555,E,1,12,1.0,0.0,M,0.0,M,,*61
$GPGSA,A,3,01,02,03,04,05,06,07,08,09,10,11,12,1.0,1.0,1.0*30
$GPRMC,105106.307,A,1905.321,N,07250.555,E,194.4,008.0,140224,000.0,W*74
$GPGGA,105107.307,1905.375,N,07250.563,E,1,12,1.0,0.0,M,0.0,M,,*64
$GPGSA,A,3,01,02,03,04,05,06,07,08,09,10,11,12,1.0,1.0,1.0*30
$GPRMC,105107.307,A,1905.375,N,07250.563,E,194.4,008.0,140224,000.0,W*71
$GPGGA,105108.307,1905.428,N,07250.570,E,1,12,1.0,0.0,M,0.0,M,,*66
$GPGSA,A,3,01,02,03,04,05,06,07,08,09,10,11,12,1.0,1.0,1.0*30
$GPRMC,105108.307,A,1905.428,N,07250.570,E,194.4,006.9,140224,000.0,W*74
$GPGGA,105109.307,1905.482,N,07250.577,E,1,12,1.0,0.0,M,0.0,M,,*60
$GPGSA,A,3,01,02,03,04,05,06,07,08,09,10,11,12,1.0,1.0,1.0*30
$GPRMC,105109.307,A,1905.482,N,07250.577,E,194.4,008.0,140224,000.0,W*75
$GPGGA,105110.307,1905.535,N,07250.584,E,1,12,1.0,0.0,M,0.0,M,,*69
$GPGSA,A,3,01,02,03,04,05,06,07,08,09,10,11,12,1.0,1.0,1.0*30
$GPRMC,105110.307,A,1905.535,N,07250.584,E,194.4,007.3,140224,000.0,W*70
$GPGGA,105111.307,1905.589,N,07250.591,E,1,12,1.0,0.0,M,0.0,M,,*6B
$GPGSA,A,3,01,02,03,04,05,06,07,08,09,10,11,12,1.0,1.0,1.0*30
$GPRMC,105111.307,A,1905.589,N,07250.591,E,194.4,007.3,140224,000.0,W*72
$GPGGA,105112.307,1905.642,N,07250.598,E,1,12,1.0,0.0,M,0.0,M,,*65
$GPGSA,A,3,01,02,03,04,05,06,07,08,09,10,11,12,1.0,1.0,1.0*30
$GPRMC,105112.307,A,1905.642,N,07250.598,E,194.4,007.5,140224,000.0,W*7A
$GPGGA,105113.307,1905.696,N,07250.605,E,1,12,1.0,0.0,M,0.0,M,,*6A
$GPGSA,A,3,01,02,03,04,05,06,07,08,09,10,11,12,1.0,1.0,1.0*30
$GPRMC,105113.307,A,1905.696,N,07250.605,E,194.4,007.3,140224,000.0,W*73
$GPGGA,105114.307,1905.749,N,07250.612,E,1,12,1.0,0.0,M,0.0,M,,*68
$GPGSA,A,3,01,02,03,04,05,06,07,08,09,10,11,12,1.0,1.0,1.0*30
$GPRMC,105114.307,A,1905.749,N,07250.612,E,194.4,007.3,140224,000.0,W*71
$GPGGA,105115.307,1905.803,N,07250.619,E,1,12,1.0,0.0,M,0.0,M,,*63
$GPGSA,A,3,01,02,03,04,05,06,07,08,09,10,11,12,1.0,1.0,1.0*30
$GPRMC,105115.307,A,1905.803,N,07250.619,E,194.4,008.2,140224,000.0,W*74
$GPGGA,105116.307,1905.856,N,07250.626,E,1,12,1.0,0.0,M,0.0,M,,*6C
$GPGSA,A,3,01,02,03,04,05,06,07,08,09,10,11,12,1.0,1.0,1.0*30
$GPRMC,105116.307,A,1905.856,N,07250.626,E,194.4,007.3,140224,000.0,W*75
$GPGGA,105117.307,1905.910,N,07250.633,E,1,12,1.0,0.0,M,0.0,M,,*6A
$GPGSA,A,3,01,02,03,04,05,06,07,08,09,10,11,12,1.0,1.0,1.0*30
$GPRMC,105117.307,A,1905.910,N,07250.633,E,194.4,007.8,140224,000.0,W*78
$GPGGA,105118.307,1905.963,N,07250.641,E,1,12,1.0,0.0,M,0.0,M,,*64
$GPGSA,A,3,01,02,03,04,05,06,07,08,09,10,11,12,1.0,1.0,1.0*30
$GPRMC,105118.307,A,1905.963,N,07250.641,E,194.4,007.8,140224,000.0,W*76
$GPGGA,105119.307,1906.017,N,07250.648,E,1,12,1.0,0.0,M,0.0,M,,*65
$GPGSA,A,3,01,02,03,04,05,06,07,08,09,10,11,12,1.0,1.0,1.0*30
$GPRMC,105119.307,A,1906.017,N,07250.648,E,194.4,007.8,140224,000.0,W*77
$GPGGA,105120.307,1906.070,N,07250.655,E,1,12,1.0,0.0,M,0.0,M,,*62
$GPGSA,A,3,01,02,03,04,05,06,07,08,09,10,11,12,1.0,1.0,1.0*30
$GPRMC,105120.307,A,1906.070,N,07250.655,E,194.4,007.2,140224,000.0,W*7A
$GPGGA,105121.307,1906.124,N,07250.662,E,1,12,1.0,0.0,M,0.0,M,,*67
$GPGSA,A,3,01,02,03,04,05,06,07,08,09,10,11,12,1.0,1.0,1.0*30
$GPRMC,105121.307,A,1906.124,N,07250.662,E,194.4,008.2,140224,000.0,W*70
$GPGGA,105122.307,1906.178,N,07250.670,E,1,12,1.0,0.0,M,0.0,M,,*6E
$GPGSA,A,3,01,02,03,04,05,06,07,08,09,10,11,12,1.0,1.0,1.0*30
$GPRMC,105122.307,A,1906.178,N,07250.670,E,194.4,008.2,140224,000.0,W*79
$GPGGA,105123.307,1906.231,N,07250.677,E,1,12,1.0,0.0,M,0.0,M,,*66
$GPGSA,A,3,01,02,03,04,05,06,07,08,09,10,11,12,1.0,1.0,1.0*30
$GPRMC,105123.307,A,1906.231,N,07250.677,E,194.4,006.6,140224,000.0,W*7B
$GPGGA,105124.307,1906.285,N,07250.684,E,1,12,1.0,0.0,M,0.0,M,,*62
$GPGSA,A,3,01,02,03,04,05,06,07,08,09,10,11,12,1.0,1.0,1.0*30
$GPRMC,105124.307,A,1906.285,N,07250.684,E,194.4,006.3,140224,000.0,W*7A
$GPGGA,105125.307,1906.338,N,07250.690,E,1,12,1.0,0.0,M,0.0,M,,*61
$GPGSA,A,3,01,02,03,04,05,06,07,08,09,10,11,12,1.0,1.0,1.0*30
$GPRMC,105125.307,A,1906.338,N,07250.690,E,194.4,006.8,140224,000.0,W*72
$GPGGA,105126.307,1906.392,N,07250.696,E,1,12,1.0,0.0,M,0.0,M,,*64
$GPGSA,A,3,01,02,03,04,05,06,07,08,09,10,11,12,1.0,1.0,1.0*30
$GPRMC,105126.307,A,1906.392,N,07250.696,E,194.4,008.1,140224,000.0,W*70
$GPGGA,105127.307,1906.445,N,07250.703,E,1,12,1.0,0.0,M,0.0,M,,*65
$GPGSA,A,3,01,02,03,04,05,06,07,08,09,10,11,12,1.0,1.0,1.0*30
$GPRMC,105127.307,A,1906.445,N,07250.703,E,194.4,008.1,140224,000.0,W*71
$GPGGA,105128.307,1906.499,N,07250.711,E,1,12,1.0,0.0,M,0.0,M,,*68
$GPGSA,A,3,01,02,03,04,05,06,07,08,09,10,11,12,1.0,1.0,1.0*30
$GPRMC,105128.307,A,1906.499,N,07250.711,E,194.4,008.7,140224,000.0,W*7A
$GPGGA,105129.307,1906.552,N,07250.719,E,1,12,1.0,0.0,M,0.0,M,,*67
$GPGSA,A,3,01,02,03,04,05,06,07,08,09,10,11,12,1.0,1.0,1.0*30
$GPRMC,105129.307,A,1906.552,N,07250.719,E,194.4,008.8,140224,000.0,W*7A
$GPGGA,105130.307,1906.606,N,07250.728,E,1,12,1.0,0.0,M,0.0,M,,*6F
$GPGSA,A,3,01,02,03,04,05,06,07,08,09,10,11,12,1.0,1.0,1.0*30
$GPRMC,105130.307,A,1906.606,N,07250.728,E,194.4,011.5,140224,000.0,W*77
$GPGGA,105131.307,1906.659,N,07250.738,E,1,12,1.0,0.0,M,0.0,M,,*65
$GPGSA,A,3,01,02,03,04,05,06,07,08,09,10,11,12,1.0,1.0,1.0*30
$GPRMC,105131.307,A,1906.659,N,07250.738,E,194.4,010.5,140224,000.0,W*7C
$GPGGA,105132.307,1906.712,N,07250.748,E,1,12,1.0,0.0,M,0.0,M,,*6F
$GPGSA,A,3,01,02,03,04,05,06,07,08,09,10,11,12,1.0,1.0,1.0*30
$GPRMC,105132.307,A,1906.712,N,07250.748,E,194.4,008.1,140224,000.0,W*7B
$GPGGA,105133.307,1906.765,N,07250.756,E,1,12,1.0,0.0,M,0.0,M,,*61
$GPGSA,A,3,01,02,03,04,05,06,07,08,09,10,11,12,1.0,1.0,1.0*30
$GPRMC,105133.307,A,1906.765,N,07250.756,E,194.4,007.7,140224,000.0,W*7C
$GPGGA,105134.307,1906.819,N,07250.763,E,1,12,1.0,0.0,M,0.0,M,,*64
$GPGSA,A,3,01,02,03,04,05,06,07,08,09,10,11,12,1.0,1.0,1.0*30
$GPRMC,105134.307,A,1906.819,N,07250.763,E,194.4,007.4,140224,000.0,W*7A
$GPGGA,105135.307,1906.872,N,07250.770,E,1,12,1.0,0.0,M,0.0,M,,*6A
$GPGSA,A,3,01,02,03,04,05,06,07,08,09,10,11,12,1.0,1.0,1.0*30
$GPRMC,105135.307,A,1906.872,N,07250.770,E,194.4,007.6,140224,000.0,W*76
$GPGGA,105136.307,1906.926,N,07250.777,E,1,12,1.0,0.0,M,0.0,M,,*6E
$GPGSA,A,3,01,02,03,04,05,06,07,08,09,10,11,12,1.0,1.0,1.0*30
$GPRMC,105136.307,A,1906.926,N,07250.777,E,194.4,007.1,140224,000.0,W*75
$GPGGA,105137.307,1906.980,N,07250.784,E,1,12,1.0,0.0,M,0.0,M,,*6F
$GPGSA,A,3,01,02,03,04,05,06,07,08,09,10,11,12,1.0,1.0,1.0*30
$GPRMC,105137.307,A,1906.980,N,07250.784,E,194.4,007.2,140224,000.0,W*77
$GPGGA,105138.307,1907.033,N,07250.791,E,1,12,1.0,0.0,M,0.0,M,,*64
$GPGSA,A,3,01,02,03,04,05,06,07,08,09,10,11,12,1.0,1.0,1.0*30
$GPRMC,105138.307,A,1907.033,N,07250.791,E,194.4,008.1,140224,000.0,W*70
$GPGGA,105139.307,1907.087,N,07250.798,E,1,12,1.0,0.0,M,0.0,M,,*63
$GPGSA,A,3,01,02,03,04,05,06,07,08,09,10,11,12,1.0,1.0,1.0*30
$GPRMC,105139.307,A,1907.087,N,07250.798,E,194.4,007.8,140224,000.0,W*71
$GPGGA,105140.307,1907.140,N,07250.805,E,1,12,1.0,0.0,M,0.0,M,,*6C
$GPGSA,A,3,01,02,03,04,05,06,07,08,09,10,11,12,1.0,1.0,1.0*30
$GPRMC,105140.307,A,1907.140,N,07250.805,E,194.4,007.2,140224,000.0,W*74
$GPGGA,105141.307,1907.194,N,07250.812,E,1,12,1.0,0.0,M,0.0,M,,*62
$GPGSA,A,3,01,02,03,04,05,06,07,08,09,10,11,12,1.0,1.0,1.0*30
$GPRMC,105141.307,A,1907.194,N,07250.812,E,194.4,007.2,140224,000.0,W*7A
$GPGGA,105142.307,1907.247,N,07250.819,E,1,12,1.0,0.0,M,0.0,M,,*67
$GPGSA,A,3,01,02,03,04,05,06,07,08,09,10,11,12,1.0,1.0,1.0*30
$GPRMC,105142.307,A,1907.247,N,07250.819,E,194.4,007.4,140224,000.0,W*79
$GPGGA,105143.307,1907.301,N,07250.826,E,1,12,1.0,0.0,M,0.0,M,,*69
$GPGSA,A,3,01,02,03,04,05,06,07,08,09,10,11,12,1.0,1.0,1.0*30
$GPRMC,105143.307,A,1907.301,N,07250.826,E,194.4,004.0,140224,000.0,W*70
$GPGGA,105144.307,1907.355,N,07250.830,E,1,12,1.0,0.0,M,0.0,M,,*68
$GPGSA,A,3,01,02,03,04,05,06,07,08,09,10,11,12,1.0,1.0,1.0*30
$GPRMC,105144.307,A,1907.355,N,07250.830,E,194.4,003.8,140224,000.0,W*7E
$GPGGA,105145.307,1907.409,N,07250.833,E,1,12,1.0,0.0,M,0.0,M,,*64
$GPGSA,A,3,01,02,03,04,05,06,07,08,09,10,11,12,1.0,1.0,1.0*30
$GPRMC,105145.307,A,1907.409,N,07250.833,E,194.4,006.8,140224,000.0,W*77
$GPGGA,105146.307,1907.462,N,07250.840,E,1,12,1.0,0.0,M,0.0,M,,*6E
$GPGSA,A,3,01,02,03,04,05,06,07,08,09,10,11,12,1.0,1.0,1.0*30
$GPRMC,105146.307,A,1907.462,N,07250.840,E,194.4,007.6,140224,000.0,W*72
$GPGGA,105147.307,1907.516,N,07250.847,E,1,12,1.0,0.0,M,0.0,M,,*6A
$GPGSA,A,3,01,02,03,04,05,06,07,08,09,10,11,12,1.0,1.0,1.0*30
$GPRMC,105147.307,A,1907.516,N,07250.847,E,194.4,007.6,140224,000.0,W*76
$GPGGA,105148.307,1907.569,N,07250.854,E,1,12,1.0,0.0,M,0.0,M,,*6F
$GPGSA,A,3,01,02,03,04,05,06,07,08,09,10,11,12,1.0,1.0,1.0*30
$GPRMC,105148.307,A,1907.569,N,07250.854,E,194.4,007.1,140224,000.0,W*74
$GPGGA,105149.307,1907.623,N,07250.861,E,1,12,1.0,0.0,M,0.0,M,,*65
$GPGSA,A,3,01,02,03,04,05,06,07,08,09,10,11,12,1.0,1.0,1.0*30
$GPRMC,105149.307,A,1907.623,N,07250.861,E,194.4,007.1,140224,000.0,W*7E
$GPGGA,105150.307,1907.676,N,07250.867,E,1,12,1.0,0.0,M,0.0,M,,*6B
$GPGSA,A,3,01,02,03,04,05,06,07,08,09,10,11,12,1.0,1.0,1.0*30
$GPRMC,105150.307,A,1907.676,N,07250.867,E,194.4,007.9,140224,000.0,W*78
$GPGGA,105151.307,1907.730,N,07250.875,E,1,12,1.0,0.0,M,0.0,M,,*6A
$GPGSA,A,3,01,02,03,04,05,06,07,08,09,10,11,12,1.0,1.0,1.0*30
$GPRMC,105151.307,A,1907.730,N,07250.875,E,194.4,007.9,140224,000.0,W*79
$GPGGA,105152.307,1907.783,N,07250.882,E,1,12,1.0,0.0,M,0.0,M,,*69
$GPGSA,A,3,01,02,03,04,05,06,07,08,09,10,11,12,1.0,1.0,1.0*30
$GPRMC,105152.307,A,1907.783,N,07250.882,E,194.4,008.0,140224,000.0,W*7C
$GPGGA,105153.307,1907.837,N,07250.890,E,1,12,1.0,0.0,M,0.0,M,,*6B
$GPGSA,A,3,01,02,03,04,05,06,07,08,09,10,11,12,1.0,1.0,1.0*30
$GPRMC,105153.307,A,1907.837,N,07250.890,E,194.4,008.0,140224,000.0,W*7E
$GPGGA,105154.307,1907.890,N,07250.897,E,1,12,1.0,0.0,M,0.0,M,,*66
$GPGSA,A,3,01,02,03,04,05,06,07,08,09,10,11,12,1.0,1.0,1.0*30
$GPRMC,105154.307,A,1907.890,N,07250.897,E,194.4,007.6,140224,000.0,W*7A
$GPGGA,105155.307,1907.944,N,07250.904,E,1,12,1.0,0.0,M,0.0,M,,*64
$GPGSA,A,3,01,02,03,04,05,06,07,08,09,10,11,12,1.0,1.0,1.0*30
$GPRMC,105155.307,A,1907.944,N,07250.904,E,194.4,007.6,140224,000.0,W*78
$GPGGA,105156.307,1907.997,N,07250.912,E,1,12,1.0,0.0,M,0.0,M,,*6E
$GPGSA,A,3,01,02,03,04,05,06,07,08,09,10,11,12,1.0,1.0,1.0*30
$GPRMC,105156.307,A,1907.997,N,07250.912,E,194.4,008.2,140224,000.0,W*79
$GPGGA,105157.307,1908.051,N,07250.919,E,1,12,1.0,0.0,M,0.0,M,,*68
$GPGSA,A,3,01,02,03,04,05,06,07,08,09,10,11,12,1.0,1.0,1.0*30
$GPRMC,105157.307,A,1908.051,N,07250.919,E,194.4,008.2,140224,000.0,W*7F
$GPGGA,105158.307,1908.104,N,07250.927,E,1,12,1.0,0.0,M,0.0,M,,*6B
$GPGSA,A,3,01,02,03,04,05,06,07,08,09,10,11,12,1.0,1.0,1.0*30
$GPRMC,105158.307,A,1908.104,N,07250.927,E,194.4,008.2,140224,000.0,W*7C
$GPGGA,105159.307,1908.158,N,07250.935,E,1,12,1.0,0.0,M,0.0,M,,*60
$GPGSA,A,3,01,02,03,04,05,06,07,08,09,10,11,12,1.0,1.0,1.0*30
$GPRMC,105159.307,A,1908.158,N,07250.935,E,194.4,006.7,140224,000.0,W*7C
$GPGGA,105200.307,1908.211,N,07250.941,E,1,12,1.0,0.0,M,0.0,M,,*62
$GPGSA,A,3,01,02,03,04,05,06,07,08,09,10,11,12,1.0,1.0,1.0*30
$GPRMC,105200.307,A,1908.211,N,07250.941,E,194.4,006.7,140224,000.0,W*7E
$GPGGA,105201.307,1908.265,N,07250.947,E,1,12,1.0,0.0,M,0.0,M,,*66
$GPGSA,A,3,01,02,03,04,05,06,07,08,09,10,11,12,1.0,1.0,1.0*30
$GPRMC,105201.307,A,1908.265,N,07250.947,E,194.4,010.3,140224,000.0,W*79
$GPGGA,105202.307,1908.318,N,07250.957,E,1,12,1.0,0.0,M,0.0,M,,*6F
$GPGSA,A,3,01,02,03,04,05,06,07,08,09,10,11,12,1.0,1.0,1.0*30
$GPRMC,105202.307,A,1908.318,N,07250.957,E,194.4,007.7,140224,000.0,W*72
$GPGGA,105203.307,1908.372,N,07250.964,E,1,12,1.0,0.0,M,0.0,M,,*62
$GPGSA,A,3,01,02,03,04,05,06,07,08,09,10,11,12,1.0,1.0,1.0*30
$GPRMC,105203.307,A,1908.372,N,07250.964,E,194.4,006.5,140224,000.0,W*7C
$GPGGA,105204.307,1908.425,N,07250.970,E,1,12,1.0,0.0,M,0.0,M,,*65
$GPGSA,A,3,01,02,03,04,05,06,07,08,09,10,11,12,1.0,1.0,1.0*30
$GPRMC,105204.307,A,1908.425,N,07250.970,E,194.4,007.6,140224,000.0,W*79
$GPGGA,105205.307,1908.479,N,07250.977,E,1,12,1.0,0.0,M,0.0,M,,*6A
$GPGSA,A,3,01,02,03,04,05,06,07,08,09,10,11,12,1.0,1.0,1.0*30
$GPRMC,105205.307,A,1908.479,N,07250.977,E,194.4,007.6,140224,000.0,W*76
$GPGGA,105206.307,1908.533,N,07250.984,E,1,12,1.0,0.0,M,0.0,M,,*6A
$GPGSA,A,3,01,02,03,04,05,06,07,08,09,10,11,12,1.0,1.0,1.0*30
$GPRMC,105206.307,A,1908.533,N,07250.984,E,194.4,007.3,140224,000.0,W*73
$GPGGA,105207.307,1908.586,N,07250.991,E,1,12,1.0,0.0,M,0.0,M,,*61
$GPGSA,A,3,01,02,03,04,05,06,07,08,09,10,11,12,1.0,1.0,1.0*30
$GPRMC,105207.307,A,1908.586,N,07250.991,E,194.4,007.3,140224,000.0,W*78
$GPGGA,105208.307,1908.640,N,07250.998,E,1,12,1.0,0.0,M,0.0,M,,*6E
$GPGSA,A,3,01,02,03,04,05,06,07,08,09,10,11,12,1.0,1.0,1.0*30
$GPRMC,105208.307,A,1908.640,N,07250.998,E,194.4,005.6,140224,000.0,W*70
$GPGGA,105209.307,1908.693,N,07251.004,E,1,12,1.0,0.0,M,0.0,M,,*6C
$GPGSA,A,3,01,02,03,04,05,06,07,08,09,10,11,12,1.0,1.0,1.0*30
$GPRMC,105209.307,A,1908.693,N,07251.004,E,194.4,005.6,140224,000.0,W*72
$GPGGA,105210.307,1908.747,N,07251.009,E,1,12,1.0,0.0,M,0.0,M,,*61
$GPGSA,A,3,01,02,03,04,05,06,07,08,09,10,11,12,1.0,1.0,1.0*30
$GPRMC,105210.307,A,1908.747,N,07251.009,E,194.4,005.6,140224,000.0,W*7F
$GPGGA,105211.307,1908.801,N,07251.014,E,1,12,1.0,0.0,M,0.0,M,,*61
$GPGSA,A,3,01,02,03,04,05,06,07,08,09,10,11,12,1.0,1.0,1.0*30
$GPRMC,105211.307,A,1908.801,N,07251.014,E,194.4,001.0,140224,000.0,W*7D
$GPGGA,105212.307,1908.855,N,07251.015,E,1,12,1.0,0.0,M,0.0,M,,*62
$GPGSA,A,3,01,02,03,04,05,06,07,08,09,10,11,12,1.0,1.0,1.0*30
$GPRMC,105212.307,A,1908.855,N,07251.015,E,194.4,001.0,140224,000.0,W*7E
$GPGGA,105213.307,1908.909,N,07251.016,E,1,12,1.0,0.0,M,0.0,M,,*68
$GPGSA,A,3,01,02,03,04,05,06,07,08,09,10,11,12,1.0,1.0,1.0*30
$GPRMC,105213.307,A,1908.909,N,07251.016,E,194.4,001.2,140224,000.0,W*76
$GPGGA,105214.307,1908.963,N,07251.017,E,1,12,1.0,0.0,M,0.0,M,,*62
$GPGSA,A,3,01,02,03,04,05,06,07,08,09,10,11,12,1.0,1.0,1.0*30
$GPRMC,105214.307,A,1908.963,N,07251.017,E,194.4,001.2,140224,000.0,W*7C
$GPGGA,105215.307,1909.017,N,07251.018,E,1,12,1.0,0.0,M,0.0,M,,*67
$GPGSA,A,3,01,02,03,04,05,06,07,08,09,10,11,12,1.0,1.0,1.0*30
$GPRMC,105215.307,A,1909.017,N,07251.018,E,194.4,358.5,140224,000.0,W*71
$GPGGA,105216.307,1909.071,N,07251.017,E,1,12,1.0,0.0,M,0.0,M,,*6B
$GPGSA,A,3,01,02,03,04,05,06,07,08,09,10,11,12,1.0,1.0,1.0*30
$GPRMC,105216.307,A,1909.071,N,07251.017,E,194.4,358.5,140224,000.0,W*7D
$GPGGA,105217.307,1909.125,N,07251.016,E,1,12,1.0,0.0,M,0.0,M,,*6B
$GPGSA,A,3,01,02,03,04,05,06,07,08,09,10,11,12,1.0,1.0,1.0*30
$GPRMC,105217.307,A,1909.125,N,07251.016,E,194.4,355.6,140224,000.0,W*73
$GPGGA,105218.307,1909.178,N,07251.012,E,1,12,1.0,0.0,M,0.0,M,,*68
$GPGSA,A,3,01,02,03,04,05,06,07,08,09,10,11,12,1.0,1.0,1.0*30
$GPRMC,105218.307,A,1909.178,N,07251.012,E,194.4,355.6,140224,000.0,W*70
$GPGGA,105219.307,1909.232,N,07251.007,E,1,12,1.0,0.0,M,0.0,M,,*60
$GPGSA,A,3,01,02,03,04,05,06,07,08,09,10,11,12,1.0,1.0,1.0*30
$GPRMC,105219.307,A,1909.232,N,07251.007,E,194.4,356.5,140224,000.0,W*78
$GPGGA,105220.307,1909.286,N,07251.004,E,1,12,1.0,0.0,M,0.0,M,,*66
$GPGSA,A,3,01,02,03,04,05,06,07,08,09,10,11,12,1.0,1.0,1.0*30
$GPRMC,105220.307,A,1909.286,N,07251.004,E,194.4,356.5,140224,000.0,W*7E
$GPGGA,105221.307,1909.340,N,07251.001,E,1,12,1.0,0.0,M,0.0,M,,*69
$GPGSA,A,3,01,02,03,04,05,06,07,08,09,10,11,12,1.0,1.0,1.0*30
$GPRMC,105221.307,A,1909.340,N,07251.001,E,194.4,356.5,140224,000.0,W*71
$GPGGA,105222.307,1909.394,N,07250.998,E,1,12,1.0,0.0,M,0.0,M,,*6B
$GPGSA,A,3,01,02,03,04,05,06,07,08,09,10,11,12,1.0,1.0,1.0*30
$GPRMC,105222.307,A,1909.394,N,07250.998,E,194.4,356.8,140224,000.0,W*7E
$GPGGA,105223.307,1909.448,N,07250.995,E,1,12,1.0,0.0,M,0.0,M,,*61
$GPGSA,A,3,01,02,03,04,05,06,07,08,09,10,11,12,1.0,1.0,1.0*30
$GPRMC,105223.307,A,1909.448,N,07250.995,E,194.4,356.8,140224,000.0,W*74
$GPGGA,105224.307,1909.502,N,07250.992,E,1,12,1.0,0.0,M,0.0,M,,*6E
$GPGSA,A,3,01,02,03,04,05,06,07,08,09,10,11,12,1.0,1.0,1.0*30
$GPRMC,105224.307,A,1909.502,N,07250.992,E,194.4,356.8,140224,000.0,W*7B
$GPGGA,105225.307,1909.555,N,07250.989,E,1,12,1.0,0.0,M,0.0,M,,*67
$GPGSA,A,3,01,02,03,04,05,06,07,08,09,10,11,12,1.0,1.0,1.0*30
$GPRMC,105225.307,A,1909.555,N,07250.989,E,194.4,357.4,140224,000.0,W*7F
$GPGGA,105226.307,1909.609,N,07250.986,E,1,12,1.0,0.0,M,0.0,M,,*61
$GPGSA,A,3,01,02,03,04,05,06,07,08,09,10,11,12,1.0,1.0,1.0*30
$GPRMC,105226.307,A,1909.609,N,07250.986,E,194.4,357.4,140224,000.0,W*79
$GPGGA,105227.307,1909.663,N,07250.984,E,1,12,1.0,0.0,M,0.0,M,,*6E
$GPGSA,A,3,01,02,03,04,05,06,07,08,09,10,11,12,1.0,1.0,1.0*30
$GPRMC,105227.307,A,1909.663,N,07250.984,E,194.4,357.4,140224,000.0,W*76
$GPGGA,105228.307,1909.717,N,07250.981,E,1,12,1.0,0.0,M,0.0,M,,*66
$GPGSA,A,3,01,02,03,04,05,06,07,08,09,10,11,12,1.0,1.0,1.0*30
$GPRMC,105228.307,A,1909.717,N,07250.981,E,194.4,358.9,140224,000.0,W*7C
$GPGGA,105229.307,1909.771,N,07250.980,E,1,12,1.0,0.0,M,0.0,M,,*66
$GPGSA,A,3,01,02,03,04,05,06,07,08,09,10,11,12,1.0,1.0,1.0*30
$GPRMC,105229.307,A,1909.771,N,07250.980,E,194.4,358.9,140224,000.0,W*7C
$GPGGA,105230.307,1909.825,N,07250.979,E,1,12,1.0,0.0,M,0.0,M,,*66
$GPGSA,A,3,01,02,03,04,05,06,07,08,09,10,11,12,1.0,1.0,1.0*30
$GPRMC,105230.307,A,1909.825,N,07250.979,E,194.4,357.4,140224,000.0,W*7E
$GPGGA,105231.307,1909.879,N,07250.977,E,1,12,1.0,0.0,M,0.0,M,,*60
$GPGSA,A,3,01,02,03,04,05,06,07,08,09,10,11,12,1.0,1.0,1.0*30
$GPRMC,105231.307,A,1909.879,N,07250.977,E,194.4,357.4,140224,000.0,W*78
$GPGGA,105232.307,1909.933,N,07250.974,E,1,12,1.0,0.0,M,0.0,M,,*6F
$GPGSA,A,3,01,02,03,04,05,06,07,08,09,10,11,12,1.0,1.0,1.0*30
$GPRMC,105232.307,A,1909.933,N,07250.974,E,194.4,354.3,140224,000.0,W*73
$GPGGA,105233.307,1909.987,N,07250.969,E,1,12,1.0,0.0,M,0.0,M,,*6D
$GPGSA,A,3,01,02,03,04,05,06,07,08,09,10,11,12,1.0,1.0,1.0*30
$GPRMC,105233.307,A,1909.987,N,07250.969,E,194.4,354.3,140224,000.0,W*71
$GPGGA,105234.307,1910.040,N,07250.963,E,1,12,1.0,0.0,M,0.0,M,,*6A
$GPGSA,A,3,01,02,03,04,05,06,07,08,09,10,11,12,1.0,1.0,1.0*30
$GPRMC,105234.307,A,1910.040,N,07250.963,E,194.4,355.6,140224,000.0,W*72
$GPGGA,105235.307,1910.094,N,07250.959,E,1,12,1.0,0.0,M,0.0,M,,*6B
$GPGSA,A,3,01,02,03,04,05,06,07,08,09,10,11,12,1.0,1.0,1.0*30
$GPRMC,105235.307,A,1910.094,N,07250.959,E,194.4,356.5,140224,000.0,W*73
$GPGGA,105236.307,1910.148,N,07250.956,E,1,12,1.0,0.0,M,0.0,M,,*67
$GPGSA,A,3,01,02,03,04,05,06,07,08,09,10,11,12,1.0,1.0,1.0*30
$GPRMC,105236.307,A,1910.148,N,07250.956,E,194.4,356.5,140224,000.0,W*7F
$GPGGA,105237.307,1910.202,N,07250.953,E,1,12,1.0,0.0,M,0.0,M,,*6E
$GPGSA,A,3,01,02,03,04,05,06,07,08,09,10,11,12,1.0,1.0,1.0*30
$GPRMC,105237.307,A,1910.202,N,07250.953,E,194.4,356.5,140224,000.0,W*76
$GPGGA,105238.307,1910.256,N,07250.949,E,1,12,1.0,0.0,M,0.0,M,,*6B
$GPGSA,A,3,01,02,03,04,05,06,07,08,09,10,11,12,1.0,1.0,1.0*30
$GPRMC,105238.307,A,1910.256,N,07250.949,E,194.4,357.0,140224,000.0,W*77
$GPGGA,105239.307,1910.310,N,07250.946,E,1,12,1.0,0.0,M,0.0,M,,*66
$GPGSA,A,3,01,02,03,04,05,06,07,08,09,10,11,12,1.0,1.0,1.0*30
$GPRMC,105239.307,A,1910.310,N,07250.946,E,194.4,357.0,140224,000.0,W*7A
$GPGGA,105240.307,1910.364,N,07250.944,E,1,12,1.0,0.0,M,0.0,M,,*69
$GPGSA,A,3,01,02,03,04,05,06,07,08,09,10,11,12,1.0,1.0,1.0*30
$GPRMC,105240.307,A,1910.364,N,07250.944,E,194.4,356.8,140224,000.0,W*7C
$GPGGA,105241.307,1910.417,N,07250.941,E,1,12,1.0,0.0,M,0.0,M,,*6E
$GPGSA,A,3,01,02,03,04,05,06,07,08,09,10,11,12,1.0,1.0,1.0*30
$GPRMC,105241.307,A,1910.417,N,07250.941,E,194.4,356.8,140224,000.0,W*7B
$GPGGA,105242.307,1910.471,N,07250.938,E,1,12,1.0,0.0,M,0.0,M,,*63
$GPGSA,A,3,01,02,03,04,05,06,07,08,09,10,11,12,1.0,1.0,1.0*30
$GPRMC,105242.307,A,1910.471,N,07250.938,E,194.4,356.8,140224,000.0,W*76
$GPGGA,105243.307,1910.525,N,07250.935,E,1,12,1.0,0.0,M,0.0,M,,*6F
$GPGSA,A,3,01,02,03,04,05,06,07,08,09,10,11,12,1.0,1.0,1.0*30
$GPRMC,105243.307,A,1910.525,N,07250.935,E,194.4,357.2,140224,000.0,W*71
$GPGGA,105244.307,1910.579,N,07250.932,E,1,12,1.0,0.0,M,0.0,M,,*66
$GPGSA,A,3,01,02,03,04,05,06,07,08,09,10,11,12,1.0,1.0,1.0*30
$GPRMC,105244.307,A,1910.579,N,07250.932,E,194.4,357.2,140224,000.0,W*78
$GPGGA,105245.307,1910.633,N,07250.929,E,1,12,1.0,0.0,M,0.0,M,,*60
$GPGSA,A,3,01,02,03,04,05,06,07,08,09,10,11,12,1.0,1.0,1.0*30
$GPRMC,105245.307,A,1910.633,N,07250.929,E,194.4,356.7,140224,000.0,W*7A
$GPGGA,105246.307,1910.687,N,07250.926,E,1,12,1.0,0.0,M,0.0,M,,*63
$GPGSA,A,3,01,02,03,04,05,06,07,08,09,10,11,12,1.0,1.0,1.0*30
$GPRMC,105246.307,A,1910.687,N,07250.926,E,194.4,356.7,140224,000.0,W*79
$GPGGA,105247.307,1910.741,N,07250.923,E,1,12,1.0,0.0,M,0.0,M,,*6C
$GPGSA,A,3,01,02,03,04,05,06,07,08,09,10,11,12,1.0,1.0,1.0*30
$GPRMC,105247.307,A,1910.741,N,07250.923,E,194.4,357.1,140224,000.0,W*71
$GPGGA,105248.307,1910.795,N,07250.920,E,1,12,1.0,0.0,M,0.0,M,,*69
$GPGSA,A,3,01,02,03,04,05,06,07,08,09,10,11,12,1.0,1.0,1.0*30
$GPRMC,105248.307,A,1910.795,N,07250.920,E,194.4,357.1,140224,000.0,W*74
$GPGGA,105249.307,1910.849,N,07250.918,E,1,12,1.0,0.0,M,0.0,M,,*6D
$GPGSA,A,3,01,02,03,04,05,06,07,08,09,10,11,12,1.0,1.0,1.0*30
$GPRMC,105249.307,A,1910.849,N,07250.918,E,194.4,359.7,140224,000.0,W*78
$GPGGA,105250.307,1910.902,N,07250.917,E,1,12,1.0,0.0,M,0.0,M,,*64
$GPGSA,A,3,01,02,03,04,05,06,07,08,09,10,11,12,1.0,1.0,1.0*30
$GPRMC,105250.307,A,1910.902,N,07250.917,E,194.4,359.7,140224,000.0,W*71
$GPGGA,105251.307,1910.956,N,07250.917,E,1,12,1.0,0.0,M,0.0,M,,*64
$GPGSA,A,3,01,02,03,04,05,06,07,08,09,10,11,12,1.0,1.0,1.0*30
$GPRMC,105251.307,A,1910.956,N,07250.917,E,194.4,359.7,140224,000.0,W*71
$GPGGA,105252.307,1911.010,N,07250.917,E,1,12,1.0,0.0,M,0.0,M,,*6D
$GPGSA,A,3,01,02,03,04,05,06,07,08,09,10,11,12,1.0,1.0,1.0*30
$GPRMC,105252.307,A,1911.010,N,07250.917,E,194.4,005.2,140224,000.0,W*77
$GPGGA,105253.307,1911.064,N,07250.922,E,1,12,1.0,0.0,M,0.0,M,,*69
$GPGSA,A,3,01,02,03,04,05,06,07,08,09,10,11,12,1.0,1.0,1.0*30
$GPRMC,105253.307,A,1911.064,N,07250.922,E,194.4,005.2,140224,000.0,W*73
$GPGGA,105254.307,1911.118,N,07250.927,E,1,12,1.0,0.0,M,0.0,M,,*61
$GPGSA,A,3,01,02,03,04,05,06,07,08,09,10,11,12,1.0,1.0,1.0*30
$GPRMC,105254.307,A,1911.118,N,07250.927,E,194.4,005.2,140224,000.0,W*7B
$GPGGA,105255.307,1911.172,N,07250.932,E,1,12,1.0,0.0,M,0.0,M,,*68
$GPGSA,A,3,01,02,03,04,05,06,07,08,09,10,11,12,1.0,1.0,1.0*30
$GPRMC,105255.307,A,1911.172,N,07250.932,E,194.4,006.6,140224,000.0,W*75
$GPGGA,105256.307,1911.225,N,07250.938,E,1,12,1.0,0.0,M,0.0,M,,*60
$GPGSA,A,3,01,02,03,04,05,06,07,08,09,10,11,12,1.0,1.0,1.0*30
$GPRMC,105256.307,A,1911.225,N,07250.938,E,194.4,006.6,140224,000.0,W*7D
$GPGGA,105257.307,1911.279,N,07250.944,E,1,12,1.0,0.0,M,0.0,M,,*63
$GPGSA,A,3,01,02,03,04,05,06,07,08,09,10,11,12,1.0,1.0,1.0*30
$GPRMC,105257.307,A,1911.279,N,07250.944,E,194.4,006.2,140224,000.0,W*7A
$GPGGA,105258.307,1911.333,N,07250.950,E,1,12,1.0,0.0,M,0.0,M,,*66
$GPGSA,A,3,01,02,03,04,05,06,07,08,09,10,11,12,1.0,1.0,1.0*30
$GPRMC,105258.307,A,1911.333,N,07250.950,E,194.4,006.2,140224,000.0,W*7F
$GPGGA,105259.307,1911.386,N,07250.956,E,1,12,1.0,0.0,M,0.0,M,,*6F
$GPGSA,A,3,01,02,03,04,05,06,07,08,09,10,11,12,1.0,1.0,1.0*30
$GPRMC,105259.307,A,1911.386,N,07250.956,E,194.4,010.2,140224,000.0,W*71
$GPGGA,105300.307,1911.440,N,07250.965,E,1,12,1.0,0.0,M,0.0,M,,*6F
$GPGSA,A,3,01,02,03,04,05,06,07,08,09,10,11,12,1.0,1.0,1.0*30
$GPRMC,105300.307,A,1911.440,N,07250.965,E,194.4,010.2,140224,000.0,W*71
$GPGGA,105301.307,1911.493,N,07250.975,E,1,12,1.0,0.0,M,0.0,M,,*61
$GPGSA,A,3,01,02,03,04,05,06,07,08,09,10,11,12,1.0,1.0,1.0*30
$GPRMC,105301.307,A,1911.493,N,07250.975,E,194.4,010.6,140224,000.0,W*7B
$GPGGA,105302.307,1911.546,N,07250.985,E,1,12,1.0,0.0,M,0.0,M,,*64
$GPGSA,A,3,01,02,03,04,05,06,07,08,09,10,11,12,1.0,1.0,1.0*30
$GPRMC,105302.307,A,1911.546,N,07250.985,E,194.4,010.6,140224,000.0,W*7E
$GPGGA,105303.307,1911.599,N,07250.995,E,1,12,1.0,0.0,M,0.0,M,,*66
$GPGSA,A,3,01,02,03,04,05,06,07,08,09,10,11,12,1.0,1.0,1.0*30
$GPRMC,105303.307,A,1911.599,N,07250.995,E,194.4,010.6,140224,000.0,W*7C
$GPGGA,105304.307,1911.652,N,07251.005,E,1,12,1.0,0.0,M,0.0,M,,*64
$GPGSA,A,3,01,02,03,04,05,06,07,08,09,10,11,12,1.0,1.0,1.0*30
$GPRMC,105304.307,A,1911.652,N,07251.005,E,194.4,011.2,140224,000.0,W*7B
$GPGGA,105305.307,1911.705,N,07251.015,E,1,12,1.0,0.0,M,0.0,M,,*67
$GPGSA,A,3,01,02,03,04,05,06,07,08,09,10,11,12,1.0,1.0,1.0*30
$GPRMC,105305.307,A,1911.705,N,07251.015,E,194.4,011.2,140224,000.0,W*78
$GPGGA,105306.307,1911.758,N,07251.026,E,1,12,1.0,0.0,M,0.0,M,,*6C
$GPGSA,A,3,01,02,03,04,05,06,07,08,09,10,11,12,1.0,1.0,1.0*30
$GPRMC,105306.307,A,1911.758,N,07251.026,E,194.4,010.6,140224,000.0,W*76
$GPGGA,105307.307,1911.811,N,07251.036,E,1,12,1.0,0.0,M,0.0,M,,*6E
$GPGSA,A,3,01,02,03,04,05,06,07,08,09,10,11,12,1.0,1.0,1.0*30
$GPRMC,105307.307,A,1911.811,N,07251.036,E,194.4,010.6,140224,000.0,W*74
$GPGGA,105308.307,1911.864,N,07251.046,E,1,12,1.0,0.0,M,0.0,M,,*64
$GPGSA,A,3,01,02,03,04,05,06,07,08,09,10,11,12,1.0,1.0,1.0*30
$GPRMC,105308.307,A,1911.864,N,07251.046,E,194.4,010.6,140224,000.0,W*7E
$GPGGA,105309.307,1911.918,N,07251.056,E,1,12,1.0,0.0,M,0.0,M,,*6E
$GPGSA,A,3,01,02,03,04,05,06,07,08,09,10,11,12,1.0,1.0,1.0*30
$GPRMC,105309.307,A,1911.918,N,07251.056,E,194.4,008.6,140224,000.0,W*7D
$GPGGA,105310.307,1911.971,N,07251.064,E,1,12,1.0,0.0,M,0.0,M,,*68
$GPGSA,A,3,01,02,03,04,05,06,07,08,09,10,11,12,1.0,1.0,1.0*30
$GPRMC,105310.307,A,1911.971,N,07251.064,E,194.4,008.6,140224,000.0,W*7B
$GPGGA,105311.307,1912.024,N,07251.072,E,1,12,1.0,0.0,M,0.0,M,,*64
$GPGSA,A,3,01,02,03,04,05,06,07,08,09,10,11,12,1.0,1.0,1.0*30
$GPRMC,105311.307,A,1912.024,N,07251.072,E,194.4,009.6,140224,000.0,W*76
$GPGGA,105312.307,1912.078,N,07251.081,E,1,12,1.0,0.0,M,0.0,M,,*62
$GPGSA,A,3,01,02,03,04,05,06,07,08,09,10,11,12,1.0,1.0,1.0*30
$GPRMC,105312.307,A,1912.078,N,07251.081,E,194.4,009.6,140224,000.0,W*70
$GPGGA,105313.307,1912.131,N,07251.090,E,1,12,1.0,0.0,M,0.0,M,,*6F
$GPGSA,A,3,01,02,03,04,05,06,07,08,09,10,11,12,1.0,1.0,1.0*30
$GPRMC,105313.307,A,1912.131,N,07251.090,E,194.4,011.0,140224,000.0,W*72
$GPGGA,105314.307,1912.184,N,07251.100,E,1,12,1.0,0.0,M,0.0,M,,*6E
$GPGSA,A,3,01,02,03,04,05,06,07,08,09,10,11,12,1.0,1.0,1.0*30
$GPRMC,105314.307,A,1912.184,N,07251.100,E,194.4,011.0,140224,000.0,W*73
$GPGGA,105315.307,1912.237,N,07251.110,E,1,12,1.0,0.0,M,0.0,M,,*65
$GPGSA,A,3,01,02,03,04,05,06,07,08,09,10,11,12,1.0,1.0,1.0*30
$GPRMC,105315.307,A,1912.237,N,07251.110,E,194.4,010.7,140224,000.0,W*7E
$GPGGA,105316.307,1912.290,N,07251.121,E,1,12,1.0,0.0,M,0.0,M,,*69
$GPGSA,A,3,01,02,03,04,05,06,07,08,09,10,11,12,1.0,1.0,1.0*30
$GPRMC,105316.307,A,1912.290,N,07251.121,E,194.4,010.7,140224,000.0,W*72
$GPGGA,105317.307,1912.343,N,07251.131,E,1,12,1.0,0.0,M,0.0,M,,*66
$GPGSA,A,3,01,02,03,04,05,06,07,08,09,10,11,12,1.0,1.0,1.0*30
$GPRMC,105317.307,A,1912.343,N,07251.131,E,194.4,010.7,140224,000.0,W*7D
$GPGGA,105318.307,1912.396,N,07251.141,E,1,12,1.0,0.0,M,0.0,M,,*66
$GPGSA,A,3,01,02,03,04,05,06,07,08,09,10,11,12,1.0,1.0,1.0*30
$GPRMC,105318.307,A,1912.396,N,07251.141,E,194.4,011.7,140224,000.0,W*7C
$GPGGA,105319.307,1912.449,N,07251.152,E,1,12,1.0,0.0,M,0.0,M,,*60
$GPGSA,A,3,01,02,03,04,05,06,07,08,09,10,11,12,1.0,1.0,1.0*30
$GPRMC,105319.307,A,1912.449,N,07251.152,E,194.4,011.7,140224,000.0,W*7A
$GPGGA,105320.307,1912.502,N,07251.163,E,1,12,1.0,0.0,M,0.0,M,,*66
$GPGSA,A,3,01,02,03,04,05,06,07,08,09,10,11,12,1.0,1.0,1.0*30
$GPRMC,105320.307,A,1912.502,N,07251.163,E,194.4,011.7,140224,000.0,W*7C
$GPGGA,105321.307,1912.555,N,07251.174,E,1,12,1.0,0.0,M,0.0,M,,*63
$GPGSA,A,3,01,02,03,04,05,06,07,08,09,10,11,12,1.0,1.0,1.0*30
$GPRMC,105321.307,A,1912.555,N,07251.174,E,194.4,010.8,140224,000.0,W*77
$GPGGA,105322.307,1912.608,N,07251.184,E,1,12,1.0,0.0,M,0.0,M,,*64
$GPGSA,A,3,01,02,03,04,05,06,07,08,09,10,11,12,1.0,1.0,1.0*30
$GPRMC,105322.307,A,1912.608,N,07251.184,E,194.4,010.8,140224,000.0,W*70
$GPGGA,105323.307,1912.662,N,07251.194,E,1,12,1.0,0.0,M,0.0,M,,*68
$GPGSA,A,3,01,02,03,04,05,06,07,08,09,10,11,12,1.0,1.0,1.0*30
$GPRMC,105323.307,A,1912.662,N,07251.194,E,194.4,011.4,140224,000.0,W*71
