$GPGGA,064430.374,2016.044,N,08550.662,E,1,12,1.0,0.0,M,0.0,M,,*64
$GPGSA,A,3,01,02,03,04,05,06,07,08,09,10,11,12,1.0,1.0,1.0*30
$GPRMC,064430.374,A,2016.044,N,08550.662,E,002.4,152.0,190224,000.0,W*7C
$GPGGA,064431.374,2016.043,N,08550.662,E,1,12,1.0,0.0,M,0.0,M,,*62
$GPGSA,A,3,01,02,03,04,05,06,07,08,09,10,11,12,1.0,1.0,1.0*30
$GPRMC,064431.374,A,2016.043,N,08550.662,E,002.4,000.0,190224,000.0,W*7C
$GPGGA,064432.374,2016.043,N,08550.662,E,1,12,1.0,0.0,M,0.0,M,,*61
$GPGSA,A,3,01,02,03,04,05,06,07,08,09,10,11,12,1.0,1.0,1.0*30
$GPRMC,064432.374,A,2016.043,N,08550.662,E,000.0,000.0,190224,000.0,W*79
$GPGGA,064433.374,2016.043,N,08550.662,E,1,12,1.0,0.0,M,0.0,M,,*60
$GPGSA,A,3,01,02,03,04,05,06,07,08,09,10,11,12,1.0,1.0,1.0*30
$GPRMC,064433.374,A,2016.043,N,08550.662,E,000.0,000.0,190224,000.0,W*78
$GPGGA,064434.374,2016.043,N,08550.662,E,1,12,1.0,0.0,M,0.0,M,,*67
$GPGSA,A,3,01,02,03,04,05,06,07,08,09,10,11,12,1.0,1.0,1.0*30
$GPRMC,064434.374,A,2016.043,N,08550.662,E,000.0,000.0,190224,000.0,W*7F
$GPGGA,064435.374,2016.043,N,08550.662,E,1,12,1.0,0.0,M,0.0,M,,*66
$GPGSA,A,3,01,02,03,04,05,06,07,08,09,10,11,12,1.0,1.0,1.0*30
$GPRMC,064435.374,A,2016.043,N,08550.662,E,000.0,000.0,190224,000.0,W*7E
$GPGGA,064436.374,2016.043,N,08550.662,E,1,12,1.0,0.0,M,0.0,M,,*65
$GPGSA,A,3,01,02,03,04,05,06,07,08,09,10,11,12,1.0,1.0,1.0*30
$GPRMC,064436.374,A,2016.043,N,08550.662,E,000.0,000.0,190224,000.0,W*7D
$GPGGA,064437.374,2016.043,N,08550.662,E,1,12,1.0,0.0,M,0.0,M,,*64
$GPGSA,A,3,01,02,03,04,05,06,07,08,09,10,11,12,1.0,1.0,1.0*30
$GPRMC,064437.374,A,2016.043,N,08550.662,E,000.0,000.0,190224,000.0,W*7C
$GPGGA,064438.374,2016.043,N,08550.662,E,1,12,1.0,0.0,M,0.0,M,,*6B
$GPGSA,A,3,01,02,03,04,05,06,07,08,09,10,11,12,1.0,1.0,1.0*30
$GPRMC,064438.374,A,2016.043,N,08550.662,E,000.0,000.0,190224,000.0,W*73
$GPGGA,064439.374,2016.043,N,08550.662,E,1,12,1.0,0.0,M,0.0,M,,*6A
$GPGSA,A,3,01,02,03,04,05,06,07,08,09,10,11,12,1.0,1.0,1.0*30
$GPRMC,064439.374,A,2016.043,N,08550.662,E,000.0,000.0,190224,000.0,W*72
$GPGGA,064440.374,2016.043,N,08550.662,E,1,12,1.0,0.0,M,0.0,M,,*64
$GPGSA,A,3,01,02,03,04,05,06,07,08,09,10,11,12,1.0,1.0,1.0*30
$GPRMC,064440.374,A,2016.043,N,08550.662,E,000.0,000.0,190224,000.0,W*7C
$GPGGA,064441.374,2016.043,N,08550.662,E,1,12,1.0,0.0,M,0.0,M,,*65
$GPGSA,A,3,01,02,03,04,05,06,07,08,09,10,11,12,1.0,1.0,1.0*30
$GPRMC,064441.374,A,2016.043,N,08550.662,E,000.0,000.0,190224,000.0,W*7D
$GPGGA,064442.374,2016.043,N,08550.662,E,1,12,1.0,0.0,M,0.0,M,,*66
$GPGSA,A,3,01,02,03,04,05,06,07,08,09,10,11,12,1.0,1.0,1.0*30
$GPRMC,064442.374,A,2016.043,N,08550.662,E,000.0,000.0,190224,000.0,W*7E
$GPGGA,064443.374,2016.043,N,08550.662,E,1,12,1.0,0.0,M,0.0,M,,*67
$GPGSA,A,3,01,02,03,04,05,06,07,08,09,10,11,12,1.0,1.0,1.0*30
$GPRMC,064443.374,A,2016.043,N,08550.662,E,000.0,000.0,190224,000.0,W*7F
$GPGGA,064444.374,2016.043,N,08550.662,E,1,12,1.0,0.0,M,0.0,M,,*60
$GPGSA,A,3,01,02,03,04,05,06,07,08,09,10,11,12,1.0,1.0,1.0*30
$GPRMC,064444.374,A,2016.043,N,08550.662,E,000.0,000.0,190224,000.0,W*78
$GPGGA,064445.374,2016.043,N,08550.662,E,1,12,1.0,0.0,M,0.0,M,,*61
$GPGSA,A,3,01,02,03,04,05,06,07,08,09,10,11,12,1.0,1.0,1.0*30
$GPRMC,064445.374,A,2016.043,N,08550.662,E,000.0,000.0,190224,000.0,W*79
$GPGGA,064446.374,2016.043,N,08550.662,E,1,12,1.0,0.0,M,0.0,M,,*62
$GPGSA,A,3,01,02,03,04,05,06,07,08,09,10,11,12,1.0,1.0,1.0*30
$GPRMC,064446.374,A,2016.043,N,08550.662,E,000.0,000.0,190224,000.0,W*7A
$GPGGA,064447.374,2016.043,N,08550.662,E,1,12,1.0,0.0,M,0.0,M,,*63
$GPGSA,A,3,01,02,03,04,05,06,07,08,09,10,11,12,1.0,1.0,1.0*30
$GPRMC,064447.374,A,2016.043,N,08550.662,E,000.0,000.0,190224,000.0,W*7B
$GPGGA,064448.374,2016.043,N,08550.662,E,1,12,1.0,0.0,M,0.0,M,,*6C
$GPGSA,A,3,01,02,03,04,05,06,07,08,09,10,11,12,1.0,1.0,1.0*30
$GPRMC,064448.374,A,2016.043,N,08550.662,E,000.0,000.0,190224,000.0,W*74
$GPGGA,064449.374,2016.043,N,08550.662,E,1,12,1.0,0.0,M,0.0,M,,*6D
$GPGSA,A,3,01,02,03,04,05,06,07,08,09,10,11,12,1.0,1.0,1.0*30
$GPRMC,064449.374,A,2016.043,N,08550.662,E,000.0,000.0,190224,000.0,W*75
$GPGGA,064450.374,2016.043,N,08550.662,E,1,12,1.0,0.0,M,0.0,M,,*65
$GPGSA,A,3,01,02,03,04,05,06,07,08,09,10,11,12,1.0,1.0,1.0*30
$GPRMC,064450.374,A,2016.043,N,08550.662,E,000.0,000.0,190224,000.0,W*7D
$GPGGA,064451.374,2016.043,N,08550.662,E,1,12,1.0,0.0,M,0.0,M,,*64
$GPGSA,A,3,01,02,03,04,05,06,07,08,09,10,11,12,1.0,1.0,1.0*30
$GPRMC,064451.374,A,2016.043,N,08550.662,E,000.0,000.0,190224,000.0,W*7C
$GPGGA,064452.374,2016.043,N,08550.662,E,1,12,1.0,0.0,M,0.0,M,,*67
$GPGSA,A,3,01,02,03,04,05,06,07,08,09,10,11,12,1.0,1.0,1.0*30
$GPRMC,064452.374,A,2016.043,N,08550.662,E,000.0,000.0,190224,000.0,W*7F
$GPGGA,064453.374,2016.043,N,08550.662,E,1,12,1.0,0.0,M,0.0,M,,*66
$GPGSA,A,3,01,02,03,04,05,06,07,08,09,10,11,12,1.0,1.0,1.0*30
$GPRMC,064453.374,A,2016.043,N,08550.662,E,000.0,000.0,190224,000.0,W*7E
$GPGGA,064454.374,2016.043,N,08550.662,E,1,12,1.0,0.0,M,0.0,M,,*61
$GPGSA,A,3,01,02,03,04,05,06,07,08,09,10,11,12,1.0,1.0,1.0*30
$GPRMC,064454.374,A,2016.043,N,08550.662,E,000.0,000.0,190224,000.0,W*79
$GPGGA,064455.374,2016.043,N,08550.662,E,1,12,1.0,0.0,M,0.0,M,,*60
$GPGSA,A,3,01,02,03,04,05,06,07,08,09,10,11,12,1.0,1.0,1.0*30
$GPRMC,064455.374,A,2016.043,N,08550.662,E,000.0,000.0,190224,000.0,W*78
$GPGGA,064456.374,2016.043,N,08550.662,E,1,12,1.0,0.0,M,0.0,M,,*63
$GPGSA,A,3,01,02,03,04,05,06,07,08,09,10,11,12,1.0,1.0,1.0*30
$GPRMC,064456.374,A,2016.043,N,08550.662,E,000.0,000.0,190224,000.0,W*7B
$GPGGA,064457.374,2016.043,N,08550.662,E,1,12,1.0,0.0,M,0.0,M,,*62
$GPGSA,A,3,01,02,03,04,05,06,07,08,09,10,11,12,1.0,1.0,1.0*30
$GPRMC,064457.374,A,2016.043,N,08550.662,E,000.0,000.0,190224,000.0,W*7A
$GPGGA,064458.374,2016.043,N,08550.662,E,1,12,1.0,0.0,M,0.0,M,,*6D
$GPGSA,A,3,01,02,03,04,05,06,07,08,09,10,11,12,1.0,1.0,1.0*30
$GPRMC,064458.374,A,2016.043,N,08550.662,E,000.0,000.0,190224,000.0,W*75
$GPGGA,064459.374,2016.043,N,08550.662,E,1,12,1.0,0.0,M,0.0,M,,*6C
$GPGSA,A,3,01,02,03,04,05,06,07,08,09,10,11,12,1.0,1.0,1.0*30
$GPRMC,064459.374,A,2016.043,N,08550.662,E,000.0,000.0,190224,000.0,W*74
$GPGGA,064500.374,2016.043,N,08550.662,E,1,12,1.0,0.0,M,0.0,M,,*61
$GPGSA,A,3,01,02,03,04,05,06,07,08,09,10,11,12,1.0,1.0,1.0*30
$GPRMC,064500.374,A,2016.043,N,08550.662,E,000.0,000.0,190224,000.0,W*79
$GPGGA,064501.374,2016.043,N,08550.662,E,1,12,1.0,0.0,M,0.0,M,,*60
$GPGSA,A,3,01,02,03,04,05,06,07,08,09,10,11,12,1.0,1.0,1.0*30
$GPRMC,064501.374,A,2016.043,N,08550.662,E,000.0,000.0,190224,000.0,W*78
$GPGGA,064502.374,2016.043,N,08550.662,E,1,12,1.0,0.0,M,0.0,M,,*63
$GPGSA,A,3,01,02,03,04,05,06,07,08,09,10,11,12,1.0,1.0,1.0*30
$GPRMC,064502.374,A,2016.043,N,08550.662,E,000.0,000.0,190224,000.0,W*7B
$GPGGA,064503.374,2016.043,N,08550.662,E,1,12,1.0,0.0,M,0.0,M,,*62
$GPGSA,A,3,01,02,03,04,05,06,07,08,09,10,11,12,1.0,1.0,1.0*30
$GPRMC,064503.374,A,2016.043,N,08550.662,E,000.0,000.0,190224,000.0,W*7A
$GPGGA,064504.374,2016.043,N,08550.662,E,1,12,1.0,0.0,M,0.0,M,,*65
$GPGSA,A,3,01,02,03,04,05,06,07,08,09,10,11,12,1.0,1.0,1.0*30
$GPRMC,064504.374,A,2016.043,N,08550.662,E,000.0,000.0,190224,000.0,W*7D
$GPGGA,064505.374,2016.043,N,08550.662,E,1,12,1.0,0.0,M,0.0,M,,*64
$GPGSA,A,3,01,02,03,04,05,06,07,08,09,10,11,12,1.0,1.0,1.0*30
$GPRMC,064505.374,A,2016.043,N,08550.662,E,000.0,000.0,190224,000.0,W*7C
$GPGGA,064506.374,2016.043,N,08550.662,E,1,12,1.0,0.0,M,0.0,M,,*67
$GPGSA,A,3,01,02,03,04,05,06,07,08,09,10,11,12,1.0,1.0,1.0*30
$GPRMC,064506.374,A,2016.043,N,08550.662,E,000.0,000.0,190224,000.0,W*7F
$GPGGA,064507.374,2016.043,N,08550.662,E,1,12,1.0,0.0,M,0.0,M,,*66
$GPGSA,A,3,01,02,03,04,05,06,07,08,09,10,11,12,1.0,1.0,1.0*30
$GPRMC,064507.374,A,2016.043,N,08550.662,E,000.0,000.0,190224,000.0,W*7E
$GPGGA,064508.374,2016.043,N,08550.662,E,1,12,1.0,0.0,M,0.0,M,,*69
$GPGSA,A,3,01,02,03,04,05,06,07,08,09,10,11,12,1.0,1.0,1.0*30
$GPRMC,064508.374,A,2016.043,N,08550.662,E,000.0,000.0,190224,000.0,W*71
$GPGGA,064509.374,2016.043,N,08550.662,E,1,12,1.0,0.0,M,0.0,M,,*68
$GPGSA,A,3,01,02,03,04,05,06,07,08,09,10,11,12,1.0,1.0,1.0*30
$GPRMC,064509.374,A,2016.043,N,08550.662,E,000.0,000.0,190224,000.0,W*70
$GPGGA,064510.374,2016.043,N,08550.662,E,1,12,1.0,0.0,M,0.0,M,,*60
$GPGSA,A,3,01,02,03,04,05,06,07,08,09,10,11,12,1.0,1.0,1.0*30
$GPRMC,064510.374,A,2016.043,N,08550.662,E,000.0,000.0,190224,000.0,W*78
$GPGGA,064511.374,2016.043,N,08550.662,E,1,12,1.0,0.0,M,0.0,M,,*61
$GPGSA,A,3,01,02,03,04,05,06,07,08,09,10,11,12,1.0,1.0,1.0*30
$GPRMC,064511.374,A,2016.043,N,08550.662,E,000.0,000.0,190224,000.0,W*79
$GPGGA,064512.374,2016.043,N,08550.662,E,1,12,1.0,0.0,M,0.0,M,,*62
$GPGSA,A,3,01,02,03,04,05,06,07,08,09,10,11,12,1.0,1.0,1.0*30
$GPRMC,064512.374,A,2016.043,N,08550.662,E,000.0,000.0,190224,000.0,W*7A
$GPGGA,064513.374,2016.043,N,08550.662,E,1,12,1.0,0.0,M,0.0,M,,*63
$GPGSA,A,3,01,02,03,04,05,06,07,08,09,10,11,12,1.0,1.0,1.0*30
$GPRMC,064513.374,A,2016.043,N,08550.662,E,000.0,000.0,190224,000.0,W*7B
$GPGGA,064514.374,2016.043,N,08550.662,E,1,12,1.0,0.0,M,0.0,M,,*64
$GPGSA,A,3,01,02,03,04,05,06,07,08,09,10,11,12,1.0,1.0,1.0*30
$GPRMC,064514.374,A,2016.043,N,08550.662,E,000.0,000.0,190224,000.0,W*7C
$GPGGA,064515.374,2016.043,N,08550.662,E,1,12,1.0,0.0,M,0.0,M,,*65
$GPGSA,A,3,01,02,03,04,05,06,07,08,09,10,11,12,1.0,1.0,1.0*30
$GPRMC,064515.374,A,2016.043,N,08550.662,E,000.0,000.0,190224,000.0,W*7D
$GPGGA,064516.374,2016.043,N,08550.662,E,1,12,1.0,0.0,M,0.0,M,,*66
$GPGSA,A,3,01,02,03,04,05,06,07,08,09,10,11,12,1.0,1.0,1.0*30
$GPRMC,064516.374,A,2016.043,N,08550.662,E,000.0,000.0,190224,000.0,W*7E
$GPGGA,064517.374,2016.043,N,08550.662,E,1,12,1.0,0.0,M,0.0,M,,*67
$GPGSA,A,3,01,02,03,04,05,06,07,08,09,10,11,12,1.0,1.0,1.0*30
$GPRMC,064517.374,A,2016.043,N,08550.662,E,001.5,313.2,190224,000.0,W*78
$GPGGA,064518.374,2016.044,N,08550.662,E,1,12,1.0,0.0,M,0.0,M,,*6F
$GPGSA,A,3,01,02,03,04,05,06,07,08,09,10,11,12,1.0,1.0,1.0*30
$GPRMC,064518.374,A,2016.044,N,08550.662,E,001.5,000.0,190224,000.0,W*73
$GPGGA,064519.374,2016.044,N,08550.662,E,1,12,1.0,0.0,M,0.0,M,,*6E
$GPGSA,A,3,01,02,03,04,05,06,07,08,09,10,11,12,1.0,1.0,1.0*30
$GPRMC,064519.374,A,2016.044,N,08550.662,E,000.0,000.0,190224,000.0,W*76
$GPGGA,064520.374,2016.044,N,08550.662,E,1,12,1.0,0.0,M,0.0,M,,*64
$GPGSA,A,3,01,02,03,04,05,06,07,08,09,10,11,12,1.0,1.0,1.0*30
$GPRMC,064520.374,A,2016.044,N,08550.662,E,000.0,000.0,190224,000.0,W*7C
$GPGGA,064521.374,2016.044,N,08550.662,E,1,12,1.0,0.0,M,0.0,M,,*65
$GPGSA,A,3,01,02,03,04,05,06,07,08,09,10,11,12,1.0,1.0,1.0*30
$GPRMC,064521.374,A,2016.044,N,08550.662,E,000.0,000.0,190224,000.0,W*7D
$GPGGA,064522.374,2016.044,N,08550.662,E,1,12,1.0,0.0,M,0.0,M,,*66
$GPGSA,A,3,01,02,03,04,05,06,07,08,09,10,11,12,1.0,1.0,1.0*30
$GPRMC,064522.374,A,2016.044,N,08550.662,E,001.1,270.0,190224,000.0,W*7B
$GPGGA,064523.374,2016.044,N,08550.662,E,1,12,1.0,0.0,M,0.0,M,,*67
$GPGSA,A,3,01,02,03,04,05,06,07,08,09,10,11,12,1.0,1.0,1.0*30
$GPRMC,064523.374,A,2016.044,N,08550.662,E,001.1,000.0,190224,000.0,W*7F
$GPGGA,064524.374,2016.044,N,08550.662,E,1,12,1.0,0.0,M,0.0,M,,*60
$GPGSA,A,3,01,02,03,04,05,06,07,08,09,10,11,12,1.0,1.0,1.0*30
$GPRMC,064524.374,A,2016.044,N,08550.662,E,000.0,000.0,190224,000.0,W*78
$GPGGA,064525.374,2016.044,N,08550.662,E,1,12,1.0,0.0,M,0.0,M,,*61
$GPGSA,A,3,01,02,03,04,05,06,07,08,09,10,11,12,1.0,1.0,1.0*30
$GPRMC,064525.374,A,2016.044,N,08550.662,E,000.0,000.0,190224,000.0,W*79
$GPGGA,064526.374,2016.044,N,08550.662,E,1,12,1.0,0.0,M,0.0,M,,*62
$GPGSA,A,3,01,02,03,04,05,06,07,08,09,10,11,12,1.0,1.0,1.0*30
$GPRMC,064526.374,A,2016.044,N,08550.662,E,000.0,000.0,190224,000.0,W*7A
$GPGGA,064527.374,2016.044,N,08550.662,E,1,12,1.0,0.0,M,0.0,M,,*63
$GPGSA,A,3,01,02,03,04,05,06,07,08,09,10,11,12,1.0,1.0,1.0*30
$GPRMC,064527.374,A,2016.044,N,08550.662,E,000.0,000.0,190224,000.0,W*7B
$GPGGA,064528.374,2016.044,N,08550.662,E,1,12,1.0,0.0,M,0.0,M,,*6C
$GPGSA,A,3,01,02,03,04,05,06,07,08,09,10,11,12,1.0,1.0,1.0*30
$GPRMC,064528.374,A,2016.044,N,08550.662,E,000.0,000.0,190224,000.0,W*74
$GPGGA,064529.374,2016.044,N,08550.662,E,1,12,1.0,0.0,M,0.0,M,,*6D
$GPGSA,A,3,01,02,03,04,05,06,07,08,09,10,11,12,1.0,1.0,1.0*30
$GPRMC,064529.374,A,2016.044,N,08550.662,E,000.0,000.0,190224,000.0,W*75
$GPGGA,064530.374,2016.044,N,08550.662,E,1,12,1.0,0.0,M,0.0,M,,*65
$GPGSA,A,3,01,02,03,04,05,06,07,08,09,10,11,12,1.0,1.0,1.0*30
$GPRMC,064530.374,A,2016.044,N,08550.662,E,000.0,000.0,190224,000.0,W*7D
$GPGGA,064531.374,2016.044,N,08550.662,E,1,12,1.0,0.0,M,0.0,M,,*64
$GPGSA,A,3,01,02,03,04,05,06,07,08,09,10,11,12,1.0,1.0,1.0*30
$GPRMC,064531.374,A,2016.044,N,08550.662,E,000.0,000.0,190224,000.0,W*7C
$GPGGA,064532.374,2016.044,N,08550.662,E,1,12,1.0,0.0,M,0.0,M,,*67
$GPGSA,A,3,01,02,03,04,05,06,07,08,09,10,11,12,1.0,1.0,1.0*30
$GPRMC,064532.374,A,2016.044,N,08550.662,E,000.0,000.0,190224,000.0,W*7F
$GPGGA,064533.374,2016.044,N,08550.662,E,1,12,1.0,0.0,M,0.0,M,,*66
$GPGSA,A,3,01,02,03,04,05,06,07,08,09,10,11,12,1.0,1.0,1.0*30
$GPRMC,064533.374,A,2016.044,N,08550.662,E,000.0,000.0,190224,000.0,W*7E
$GPGGA,064534.374,2016.044,N,08550.662,E,1,12,1.0,0.0,M,0.0,M,,*61
$GPGSA,A,3,01,02,03,04,05,06,07,08,09,10,11,12,1.0,1.0,1.0*30
$GPRMC,064534.374,A,2016.044,N,08550.662,E,000.0,000.0,190224,000.0,W*79
$GPGGA,064535.374,2016.044,N,08550.662,E,1,12,1.0,0.0,M,0.0,M,,*60
$GPGSA,A,3,01,02,03,04,05,06,07,08,09,10,11,12,1.0,1.0,1.0*30
$GPRMC,064535.374,A,2016.044,N,08550.662,E,000.0,000.0,190224,000.0,W*78
$GPGGA,064536.374,2016.044,N,08550.662,E,1,12,1.0,0.0,M,0.0,M,,*63
$GPGSA,A,3,01,02,03,04,05,06,07,08,09,10,11,12,1.0,1.0,1.0*30
$GPRMC,064536.374,A,2016.044,N,08550.662,E,000.0,000.0,190224,000.0,W*7B
$GPGGA,064537.374,2016.044,N,08550.662,E,1,12,1.0,0.0,M,0.0,M,,*62
$GPGSA,A,3,01,02,03,04,05,06,07,08,09,10,11,12,1.0,1.0,1.0*30
$GPRMC,064537.374,A,2016.044,N,08550.662,E,000.0,000.0,190224,000.0,W*7A
$GPGGA,064538.374,2016.044,N,08550.662,E,1,12,1.0,0.0,M,0.0,M,,*6D
$GPGSA,A,3,01,02,03,04,05,06,07,08,09,10,11,12,1.0,1.0,1.0*30
$GPRMC,064538.374,A,2016.044,N,08550.662,E,000.0,000.0,190224,000.0,W*75
$GPGGA,064539.374,2016.044,N,08550.662,E,1,12,1.0,0.0,M,0.0,M,,*6C
$GPGSA,A,3,01,02,03,04,05,06,07,08,09,10,11,12,1.0,1.0,1.0*30
$GPRMC,064539.374,A,2016.044,N,08550.662,E,000.0,000.0,190224,000.0,W*74
$GPGGA,064540.374,2016.044,N,08550.662,E,1,12,1.0,0.0,M,0.0,M,,*62
$GPGSA,A,3,01,02,03,04,05,06,07,08,09,10,11,12,1.0,1.0,1.0*30
$GPRMC,064540.374,A,2016.044,N,08550.662,E,000.0,000.0,190224,000.0,W*7A
$GPGGA,064541.374,2016.044,N,08550.662,E,1,12,1.0,0.0,M,0.0,M,,*63
$GPGSA,A,3,01,02,03,04,05,06,07,08,09,10,11,12,1.0,1.0,1.0*30
$GPRMC,064541.374,A,2016.044,N,08550.662,E,000.0,000.0,190224,000.0,W*7B
$GPGGA,064542.374,2016.044,N,08550.662,E,1,12,1.0,0.0,M,0.0,M,,*60
$GPGSA,A,3,01,02,03,04,05,06,07,08,09,10,11,12,1.0,1.0,1.0*30
$GPRMC,064542.374,A,2016.044,N,08550.662,E,000.0,000.0,190224,000.0,W*78
$GPGGA,064543.374,2016.044,N,08550.662,E,1,12,1.0,0.0,M,0.0,M,,*61
$GPGSA,A,3,01,02,03,04,05,06,07,08,09,10,11,12,1.0,1.0,1.0*30
$GPRMC,064543.374,A,2016.044,N,08550.662,E,000.0,000.0,190224,000.0,W*79
$GPGGA,064544.374,2016.044,N,08550.662,E,1,12,1.0,0.0,M,0.0,M,,*66
$GPGSA,A,3,01,02,03,04,05,06,07,08,09,10,11,12,1.0,1.0,1.0*30
$GPRMC,064544.374,A,2016.044,N,08550.662,E,000.0,000.0,190224,000.0,W*7E
$GPGGA,064545.374,2016.044,N,08550.662,E,1,12,1.0,0.0,M,0.0,M,,*67
$GPGSA,A,3,01,02,03,04,05,06,07,08,09,10,11,12,1.0,1.0,1.0*30
$GPRMC,064545.374,A,2016.044,N,08550.662,E,000.0,000.0,190224,000.0,W*7F
$GPGGA,064546.374,2016.044,N,08550.662,E,1,12,1.0,0.0,M,0.0,M,,*64
$GPGSA,A,3,01,02,03,04,05,06,07,08,09,10,11,12,1.0,1.0,1.0*30
$GPRMC,064546.374,A,2016.044,N,08550.662,E,000.0,000.0,190224,000.0,W*7C
$GPGGA,064547.374,2016.044,N,08550.662,E,1,12,1.0,0.0,M,0.0,M,,*65
$GPGSA,A,3,01,02,03,04,05,06,07,08,09,10,11,12,1.0,1.0,1.0*30
$GPRMC,064547.374,A,2016.044,N,08550.662,E,000.0,000.0,190224,000.0,W*7D
$GPGGA,064548.374,2016.044,N,08550.662,E,1,12,1.0,0.0,M,0.0,M,,*6A
$GPGSA,A,3,01,02,03,04,05,06,07,08,09,10,11,12,1.0,1.0,1.0*30
$GPRMC,064548.374,A,2016.044,N,08550.662,E,000.0,000.0,190224,000.0,W*72
$GPGGA,064549.374,2016.044,N,08550.662,E,1,12,1.0,0.0,M,0.0,M,,*6B
$GPGSA,A,3,01,02,03,04,05,06,07,08,09,10,11,12,1.0,1.0,1.0*30
$GPRMC,064549.374,A,2016.044,N,08550.662,E,000.0,000.0,190224,000.0,W*73
$GPGGA,064550.374,2016.044,N,08550.662,E,1,12,1.0,0.0,M,0.0,M,,*63
$GPGSA,A,3,01,02,03,04,05,06,07,08,09,10,11,12,1.0,1.0,1.0*30
$GPRMC,064550.374,A,2016.044,N,08550.662,E,000.0,000.0,190224,000.0,W*7B
$GPGGA,064551.374,2016.044,N,08550.662,E,1,12,1.0,0.0,M,0.0,M,,*62
$GPGSA,A,3,01,02,03,04,05,06,07,08,09,10,11,12,1.0,1.0,1.0*30
$GPRMC,064551.374,A,2016.044,N,08550.662,E,000.0,000.0,190224,000.0,W*7A
$GPGGA,064552.374,2016.044,N,08550.662,E,1,12,1.0,0.0,M,0.0,M,,*61
$GPGSA,A,3,01,02,03,04,05,06,07,08,09,10,11,12,1.0,1.0,1.0*30
$GPRMC,064552.374,A,2016.044,N,08550.662,E,000.0,000.0,190224,000.0,W*79
$GPGGA,064553.374,2016.044,N,08550.662,E,1,12,1.0,0.0,M,0.0,M,,*60
$GPGSA,A,3,01,02,03,04,05,06,07,08,09,10,11,12,1.0,1.0,1.0*30
$GPRMC,064553.374,A,2016.044,N,08550.662,E,000.0,000.0,190224,000.0,W*78
$GPGGA,064554.374,2016.044,N,08550.662,E,1,12,1.0,0.0,M,0.0,M,,*67
$GPGSA,A,3,01,02,03,04,05,06,07,08,09,10,11,12,1.0,1.0,1.0*30
$GPRMC,064554.374,A,2016.044,N,08550.662,E,000.0,000.0,190224,000.0,W*7F
$GPGGA,064555.374,2016.044,N,08550.662,E,1,12,1.0,0.0,M,0.0,M,,*66
$GPGSA,A,3,01,02,03,04,05,06,07,08,09,10,11,12,1.0,1.0,1.0*30
$GPRMC,064555.374,A,2016.044,N,08550.662,E,000.0,000.0,190224,000.0,W*7E
$GPGGA,064556.374,2016.044,N,08550.662,E,1,12,1.0,0.0,M,0.0,M,,*65
$GPGSA,A,3,01,02,03,04,05,06,07,08,09,10,11,12,1.0,1.0,1.0*30
$GPRMC,064556.374,A,2016.044,N,08550.662,E,000.0,000.0,190224,000.0,W*7D
$GPGGA,064557.374,2016.044,N,08550.662,E,1,12,1.0,0.0,M,0.0,M,,*64
$GPGSA,A,3,01,02,03,04,05,06,07,08,09,10,11,12,1.0,1.0,1.0*30
$GPRMC,064557.374,A,2016.044,N,08550.662,E,000.0,000.0,190224,000.0,W*7C
$GPGGA,064558.374,2016.044,N,08550.662,E,1,12,1.0,0.0,M,0.0,M,,*6B
$GPGSA,A,3,01,02,03,04,05,06,07,08,09,10,11,12,1.0,1.0,1.0*30
$GPRMC,064558.374,A,2016.044,N,08550.662,E,000.0,000.0,190224,000.0,W*73
$GPGGA,064559.374,2016.044,N,08550.662,E,1,12,1.0,0.0,M,0.0,M,,*6A
$GPGSA,A,3,01,02,03,04,05,06,07,08,09,10,11,12,1.0,1.0,1.0*30
$GPRMC,064559.374,A,2016.044,N,08550.662,E,000.0,000.0,190224,000.0,W*72
$GPGGA,064600.374,2016.044,N,08550.662,E,1,12,1.0,0.0,M,0.0,M,,*65
$GPGSA,A,3,01,02,03,04,05,06,07,08,09,10,11,12,1.0,1.0,1.0*30
$GPRMC,064600.374,A,2016.044,N,08550.662,E,000.0,000.0,190224,000.0,W*7D
$GPGGA,064601.374,2016.044,N,08550.662,E,1,12,1.0,0.0,M,0.0,M,,*64
$GPGSA,A,3,01,02,03,04,05,06,07,08,09,10,11,12,1.0,1.0,1.0*30
$GPRMC,064601.374,A,2016.044,N,08550.662,E,000.0,000.0,190224,000.0,W*7C
$GPGGA,064602.374,2016.044,N,08550.662,E,1,12,1.0,0.0,M,0.0,M,,*67
$GPGSA,A,3,01,02,03,04,05,06,07,08,09,10,11,12,1.0,1.0,1.0*30
$GPRMC,064602.374,A,2016.044,N,08550.662,E,000.0,000.0,190224,000.0,W*7F
$GPGGA,064603.374,2016.044,N,08550.662,E,1,12,1.0,0.0,M,0.0,M,,*66
$GPGSA,A,3,01,02,03,04,05,06,07,08,09,10,11,12,1.0,1.0,1.0*30
$GPRMC,064603.374,A,2016.044,N,08550.662,E,000.0,000.0,190224,000.0,W*7E
$GPGGA,064604.374,2016.044,N,08550.662,E,1,12,1.0,0.0,M,0.0,M,,*61
$GPGSA,A,3,01,02,03,04,05,06,07,08,09,10,11,12,1.0,1.0,1.0*30
$GPRMC,064604.374,A,2016.044,N,08550.662,E,002.2,270.0,190224,000.0,W*7C
$GPGGA,064605.374,2016.044,N,08550.661,E,1,12,1.0,0.0,M,0.0,M,,*63
$GPGSA,A,3,01,02,03,04,05,06,07,08,09,10,11,12,1.0,1.0,1.0*30
$GPRMC,064605.374,A,2016.044,N,08550.661,E,002.2,000.0,190224,000.0,W*7B
$GPGGA,064606.374,2016.044,N,08550.661,E,1,12,1.0,0.0,M,0.0,M,,*60
$GPGSA,A,3,01,02,03,04,05,06,07,08,09,10,11,12,1.0,1.0,1.0*30
$GPRMC,064606.374,A,2016.044,N,08550.661,E,000.0,000.0,190224,000.0,W*78
$GPGGA,064607.374,2016.044,N,08550.661,E,1,12,1.0,0.0,M,0.0,M,,*61
$GPGSA,A,3,01,02,03,04,05,06,07,08,09,10,11,12,1.0,1.0,1.0*30
$GPRMC,064607.374,A,2016.044,N,08550.661,E,000.0,000.0,190224,000.0,W*79
$GPGGA,064608.374,2016.044,N,08550.661,E,1,12,1.0,0.0,M,0.0,M,,*6E
$GPGSA,A,3,01,02,03,04,05,06,07,08,09,10,11,12,1.0,1.0,1.0*30
$GPRMC,064608.374,A,2016.044,N,08550.661,E,000.0,000.0,190224,000.0,W*76
$GPGGA,064609.374,2016.044,N,08550.661,E,1,12,1.0,0.0,M,0.0,M,,*6F
$GPGSA,A,3,01,02,03,04,05,06,07,08,09,10,11,12,1.0,1.0,1.0*30
$GPRMC,064609.374,A,2016.044,N,08550.661,E,000.0,000.0,190224,000.0,W*77
$GPGGA,064610.374,2016.044,N,08550.661,E,1,12,1.0,0.0,M,0.0,M,,*67
$GPGSA,A,3,01,02,03,04,05,06,07,08,09,10,11,12,1.0,1.0,1.0*30
$GPRMC,064610.374,A,2016.044,N,08550.661,E,038.9,040.9,190224,000.0,W*70
$GPGGA,064611.374,2016.052,N,08550.668,E,1,12,1.0,0.0,M,0.0,M,,*68
$GPGSA,A,3,01,02,03,04,05,06,07,08,09,10,11,12,1.0,1.0,1.0*30
$GPRMC,064611.374,A,2016.052,N,08550.668,E,038.9,040.9,190224,000.0,W*7F
$GPGGA,064612.374,2016.060,N,08550.676,E,1,12,1.0,0.0,M,0.0,M,,*65
$GPGSA,A,3,01,02,03,04,05,06,07,08,09,10,11,12,1.0,1.0,1.0*30
$GPRMC,064612.374,A,2016.060,N,08550.676,E,038.9,040.9,190224,000.0,W*72
$GPGGA,064613.374,2016.069,N,08550.683,E,1,12,1.0,0.0,M,0.0,M,,*67
$GPGSA,A,3,01,02,03,04,05,06,07,08,09,10,11,12,1.0,1.0,1.0*30
$GPRMC,064613.374,A,2016.069,N,08550.683,E,038.9,040.9,190224,000.0,W*70
$GPGGA,064614.374,2016.077,N,08550.690,E,1,12,1.0,0.0,M,0.0,M,,*6D
$GPGSA,A,3,01,02,03,04,05,06,07,08,09,10,11,12,1.0,1.0,1.0*30
$GPRMC,064614.374,A,2016.077,N,08550.690,E,038.9,040.9,190224,000.0,W*7A
$GPGGA,064615.374,2016.086,N,08550.697,E,1,12,1.0,0.0,M,0.0,M,,*65
$GPGSA,A,3,01,02,03,04,05,06,07,08,09,10,11,12,1.0,1.0,1.0*30
$GPRMC,064615.374,A,2016.086,N,08550.697,E,038.9,040.9,190224,000.0,W*72
$GPGGA,064616.374,2016.094,N,08550.705,E,1,12,1.0,0.0,M,0.0,M,,*6F
$GPGSA,A,3,01,02,03,04,05,06,07,08,09,10,11,12,1.0,1.0,1.0*30
$GPRMC,064616.374,A,2016.094,N,08550.705,E,038.9,040.9,190224,000.0,W*78
$GPGGA,064617.374,2016.102,N,08550.712,E,1,12,1.0,0.0,M,0.0,M,,*66
$GPGSA,A,3,01,02,03,04,05,06,07,08,09,10,11,12,1.0,1.0,1.0*30
$GPRMC,064617.374,A,2016.102,N,08550.712,E,038.9,040.9,190224,000.0,W*71
$GPGGA,064618.374,2016.111,N,08550.719,E,1,12,1.0,0.0,M,0.0,M,,*60
$GPGSA,A,3,01,02,03,04,05,06,07,08,09,10,11,12,1.0,1.0,1.0*30
$GPRMC,064618.374,A,2016.111,N,08550.719,E,038.9,040.9,190224,000.0,W*77
$GPGGA,064619.374,2016.119,N,08550.726,E,1,12,1.0,0.0,M,0.0,M,,*65
$GPGSA,A,3,01,02,03,04,05,06,07,08,09,10,11,12,1.0,1.0,1.0*30
$GPRMC,064619.374,A,2016.119,N,08550.726,E,038.9,040.9,190224,000.0,W*72
$GPGGA,064620.374,2016.127,N,08550.734,E,1,12,1.0,0.0,M,0.0,M,,*61
$GPGSA,A,3,01,02,03,04,05,06,07,08,09,10,11,12,1.0,1.0,1.0*30
$GPRMC,064620.374,A,2016.127,N,08550.734,E,038.9,040.9,190224,000.0,W*76
$GPGGA,064621.374,2016.136,N,08550.741,E,1,12,1.0,0.0,M,0.0,M,,*62
$GPGSA,A,3,01,02,03,04,05,06,07,08,09,10,11,12,1.0,1.0,1.0*30
$GPRMC,064621.374,A,2016.136,N,08550.741,E,038.9,040.9,190224,000.0,W*75
$GPGGA,064622.374,2016.144,N,08550.748,E,1,12,1.0,0.0,M,0.0,M,,*6D
$GPGSA,A,3,01,02,03,04,05,06,07,08,09,10,11,12,1.0,1.0,1.0*30
$GPRMC,064622.374,A,2016.144,N,08550.748,E,038.9,039.9,190224,000.0,W*74
$GPGGA,064623.374,2016.153,N,08550.755,E,1,12,1.0,0.0,M,0.0,M,,*66
$GPGSA,A,3,01,02,03,04,05,06,07,08,09,10,11,12,1.0,1.0,1.0*30
$GPRMC,064623.374,A,2016.153,N,08550.755,E,038.9,039.9,190224,000.0,W*7F
$GPGGA,064624.374,2016.161,N,08550.762,E,1,12,1.0,0.0,M,0.0,M,,*64
$GPGSA,A,3,01,02,03,04,05,06,07,08,09,10,11,12,1.0,1.0,1.0*30
$GPRMC,064624.374,A,2016.161,N,08550.762,E,038.9,039.9,190224,000.0,W*7D
$GPGGA,064625.374,2016.170,N,08550.770,E,1,12,1.0,0.0,M,0.0,M,,*66
$GPGSA,A,3,01,02,03,04,05,06,07,08,09,10,11,12,1.0,1.0,1.0*30
$GPRMC,064625.374,A,2016.170,N,08550.770,E,038.9,039.9,190224,000.0,W*7F
$GPGGA,064626.374,2016.178,N,08550.777,E,1,12,1.0,0.0,M,0.0,M,,*6A
$GPGSA,A,3,01,02,03,04,05,06,07,08,09,10,11,12,1.0,1.0,1.0*30
$GPRMC,064626.374,A,2016.178,N,08550.777,E,038.9,039.9,190224,000.0,W*73
$GPGGA,064627.374,2016.187,N,08550.784,E,1,12,1.0,0.0,M,0.0,M,,*67
$GPGSA,A,3,01,02,03,04,05,06,07,08,09,10,11,12,1.0,1.0,1.0*30
$GPRMC,064627.374,A,2016.187,N,08550.784,E,038.9,039.9,190224,000.0,W*7E
$GPGGA,064628.374,2016.195,N,08550.791,E,1,12,1.0,0.0,M,0.0,M,,*6F
$GPGSA,A,3,01,02,03,04,05,06,07,08,09,10,11,12,1.0,1.0,1.0*30
$GPRMC,064628.374,A,2016.195,N,08550.791,E,038.9,039.9,190224,000.0,W*76
$GPGGA,064629.374,2016.204,N,08550.798,E,1,12,1.0,0.0,M,0.0,M,,*6C
$GPGSA,A,3,01,02,03,04,05,06,07,08,09,10,11,12,1.0,1.0,1.0*30
$GPRMC,064629.374,A,2016.204,N,08550.798,E,038.9,039.9,190224,000.0,W*75
$GPGGA,064630.374,2016.212,N,08550.805,E,1,12,1.0,0.0,M,0.0,M,,*68
$GPGSA,A,3,01,02,03,04,05,06,07,08,09,10,11,12,1.0,1.0,1.0*30
$GPRMC,064630.374,A,2016.212,N,08550.805,E,038.9,039.9,190224,000.0,W*71
$GPGGA,064631.374,2016.221,N,08550.812,E,1,12,1.0,0.0,M,0.0,M,,*6F
$GPGSA,A,3,01,02,03,04,05,06,07,08,09,10,11,12,1.0,1.0,1.0*30
$GPRMC,064631.374,A,2016.221,N,08550.812,E,038.9,039.9,190224,000.0,W*76
$GPGGA,064632.374,2016.229,N,08550.819,E,1,12,1.0,0.0,M,0.0,M,,*6F
$GPGSA,A,3,01,02,03,04,05,06,07,08,09,10,11,12,1.0,1.0,1.0*30
$GPRMC,064632.374,A,2016.229,N,08550.819,E,038.9,039.9,190224,000.0,W*76
$GPGGA,064633.374,2016.238,N,08550.826,E,1,12,1.0,0.0,M,0.0,M,,*62
$GPGSA,A,3,01,02,03,04,05,06,07,08,09,10,11,12,1.0,1.0,1.0*30
$GPRMC,064633.374,A,2016.238,N,08550.826,E,038.9,039.9,190224,000.0,W*7B
$GPGGA,064634.374,2016.246,N,08550.833,E,1,12,1.0,0.0,M,0.0,M,,*68
$GPGSA,A,3,01,02,03,04,05,06,07,08,09,10,11,12,1.0,1.0,1.0*30
$GPRMC,064634.374,A,2016.246,N,08550.833,E,038.9,039.9,190224,000.0,W*71
$GPGGA,064635.374,2016.255,N,08550.841,E,1,12,1.0,0.0,M,0.0,M,,*6E
$GPGSA,A,3,01,02,03,04,05,06,07,08,09,10,11,12,1.0,1.0,1.0*30
$GPRMC,064635.374,A,2016.255,N,08550.841,E,038.9,039.9,190224,000.0,W*77
$GPGGA,064636.374,2016.263,N,08550.848,E,1,12,1.0,0.0,M,0.0,M,,*61
$GPGSA,A,3,01,02,03,04,05,06,07,08,09,10,11,12,1.0,1.0,1.0*30
$GPRMC,064636.374,A,2016.263,N,08550.848,E,038.9,039.9,190224,000.0,W*78
$GPGGA,064637.374,2016.272,N,08550.855,E,1,12,1.0,0.0,M,0.0,M,,*6C
$GPGSA,A,3,01,02,03,04,05,06,07,08,09,10,11,12,1.0,1.0,1.0*30
$GPRMC,064637.374,A,2016.272,N,08550.855,E,038.9,039.9,190224,000.0,W*75
$GPGGA,064638.374,2016.280,N,08550.862,E,1,12,1.0,0.0,M,0.0,M,,*6A
$GPGSA,A,3,01,02,03,04,05,06,07,08,09,10,11,12,1.0,1.0,1.0*30
$GPRMC,064638.374,A,2016.280,N,08550.862,E,038.9,038.3,190224,000.0,W*78
$GPGGA,064639.374,2016.289,N,08550.869,E,1,12,1.0,0.0,M,0.0,M,,*69
$GPGSA,A,3,01,02,03,04,05,06,07,08,09,10,11,12,1.0,1.0,1.0*30
$GPRMC,064639.374,A,2016.289,N,08550.869,E,038.9,038.3,190224,000.0,W*7B
$GPGGA,064640.374,2016.297,N,08550.876,E,1,12,1.0,0.0,M,0.0,M,,*66
$GPGSA,A,3,01,02,03,04,05,06,07,08,09,10,11,12,1.0,1.0,1.0*30
$GPRMC,064640.374,A,2016.297,N,08550.876,E,038.9,038.3,190224,000.0,W*74
$GPGGA,064641.374,2016.306,N,08550.882,E,1,12,1.0,0.0,M,0.0,M,,*65
$GPGSA,A,3,01,02,03,04,05,06,07,08,09,10,11,12,1.0,1.0,1.0*30
$GPRMC,064641.374,A,2016.306,N,08550.882,E,038.9,038.3,190224,000.0,W*77
$GPGGA,064642.374,2016.315,N,08550.889,E,1,12,1.0,0.0,M,0.0,M,,*6F
$GPGSA,A,3,01,02,03,04,05,06,07,08,09,10,11,12,1.0,1.0,1.0*30
$GPRMC,064642.374,A,2016.315,N,08550.889,E,038.9,038.3,190224,000.0,W*7D
$GPGGA,064643.374,2016.323,N,08550.896,E,1,12,1.0,0.0,M,0.0,M,,*65
$GPGSA,A,3,01,02,03,04,05,06,07,08,09,10,11,12,1.0,1.0,1.0*30
$GPRMC,064643.374,A,2016.323,N,08550.896,E,038.9,038.3,190224,000.0,W*77
$GPGGA,064644.374,2016.332,N,08550.903,E,1,12,1.0,0.0,M,0.0,M,,*6F
$GPGSA,A,3,01,02,03,04,05,06,07,08,09,10,11,12,1.0,1.0,1.0*30
$GPRMC,064644.374,A,2016.332,N,08550.903,E,038.9,038.3,190224,000.0,W*7D
$GPGGA,064645.374,2016.341,N,08550.910,E,1,12,1.0,0.0,M,0.0,M,,*68
$GPGSA,A,3,01,02,03,04,05,06,07,08,09,10,11,12,1.0,1.0,1.0*30
$GPRMC,064645.374,A,2016.341,N,08550.910,E,038.9,038.3,190224,000.0,W*7A
$GPGGA,064646.374,2016.349,N,08550.917,E,1,12,1.0,0.0,M,0.0,M,,*64
$GPGSA,A,3,01,02,03,04,05,06,07,08,09,10,11,12,1.0,1.0,1.0*30
$GPRMC,064646.374,A,2016.349,N,08550.917,E,038.9,038.3,190224,000.0,W*76
$GPGGA,064647.374,2016.358,N,08550.924,E,1,12,1.0,0.0,M,0.0,M,,*65
$GPGSA,A,3,01,02,03,04,05,06,07,08,09,10,11,12,1.0,1.0,1.0*30
$GPRMC,064647.374,A,2016.358,N,08550.924,E,038.9,038.3,190224,000.0,W*77
$GPGGA,064648.374,2016.367,N,08550.930,E,1,12,1.0,0.0,M,0.0,M,,*63
$GPGSA,A,3,01,02,03,04,05,06,07,08,09,10,11,12,1.0,1.0,1.0*30
$GPRMC,064648.374,A,2016.367,N,08550.930,E,038.9,038.3,190224,000.0,W*71
$GPGGA,064649.374,2016.375,N,08550.937,E,1,12,1.0,0.0,M,0.0,M,,*66
$GPGSA,A,3,01,02,03,04,05,06,07,08,09,10,11,12,1.0,1.0,1.0*30
$GPRMC,064649.374,A,2016.375,N,08550.937,E,038.9,038.3,190224,000.0,W*74
$GPGGA,064650.374,2016.384,N,08550.944,E,1,12,1.0,0.0,M,0.0,M,,*64
$GPGSA,A,3,01,02,03,04,05,06,07,08,09,10,11,12,1.0,1.0,1.0*30
$GPRMC,064650.374,A,2016.384,N,08550.944,E,038.9,038.3,190224,000.0,W*76
$GPGGA,064651.374,2016.393,N,08550.951,E,1,12,1.0,0.0,M,0.0,M,,*67
$GPGSA,A,3,01,02,03,04,05,06,07,08,09,10,11,12,1.0,1.0,1.0*30
$GPRMC,064651.374,A,2016.393,N,08550.951,E,038.9,038.3,190224,000.0,W*75
$GPGGA,064652.374,2016.401,N,08550.958,E,1,12,1.0,0.0,M,0.0,M,,*61
$GPGSA,A,3,01,02,03,04,05,06,07,08,09,10,11,12,1.0,1.0,1.0*30
$GPRMC,064652.374,A,2016.401,N,08550.958,E,038.9,038.3,190224,000.0,W*73
$GPGGA,064653.374,2016.410,N,08550.965,E,1,12,1.0,0.0,M,0.0,M,,*6E
$GPGSA,A,3,01,02,03,04,05,06,07,08,09,10,11,12,1.0,1.0,1.0*30
$GPRMC,064653.374,A,2016.410,N,08550.965,E,038.9,038.3,190224,000.0,W*7C
$GPGGA,064654.374,2016.419,N,08550.971,E,1,12,1.0,0.0,M,0.0,M,,*65
$GPGSA,A,3,01,02,03,04,05,06,07,08,09,10,11,12,1.0,1.0,1.0*30
$GPRMC,064654.374,A,2016.419,N,08550.971,E,038.9,038.3,190224,000.0,W*77
$GPGGA,064655.374,2016.427,N,08550.978,E,1,12,1.0,0.0,M,0.0,M,,*60
$GPGSA,A,3,01,02,03,04,05,06,07,08,09,10,11,12,1.0,1.0,1.0*30
$GPRMC,064655.374,A,2016.427,N,08550.978,E,038.9,038.3,190224,000.0,W*72
$GPGGA,064656.374,2016.436,N,08550.985,E,1,12,1.0,0.0,M,0.0,M,,*61
$GPGSA,A,3,01,02,03,04,05,06,07,08,09,10,11,12,1.0,1.0,1.0*30
$GPRMC,064656.374,A,2016.436,N,08550.985,E,038.9,038.3,190224,000.0,W*73
$GPGGA,064657.374,2016.445,N,08550.992,E,1,12,1.0,0.0,M,0.0,M,,*62
$GPGSA,A,3,01,02,03,04,05,06,07,08,09,10,11,12,1.0,1.0,1.0*30
$GPRMC,064657.374,A,2016.445,N,08550.992,E,038.9,038.0,190224,000.0,W*73
$GPGGA,064658.374,2016.453,N,08550.999,E,1,12,1.0,0.0,M,0.0,M,,*61
$GPGSA,A,3,01,02,03,04,05,06,07,08,09,10,11,12,1.0,1.0,1.0*30
$GPRMC,064658.374,A,2016.453,N,08550.999,E,038.9,038.0,190224,000.0,W*70
$GPGGA,064659.374,2016.462,N,08551.006,E,1,12,1.0,0.0,M,0.0,M,,*6C
$GPGSA,A,3,01,02,03,04,05,06,07,08,09,10,11,12,1.0,1.0,1.0*30
$GPRMC,064659.374,A,2016.462,N,08551.006,E,038.9,038.0,190224,000.0,W*7D
$GPGGA,064700.374,2016.471,N,08551.012,E,1,12,1.0,0.0,M,0.0,M,,*66
$GPGSA,A,3,01,02,03,04,05,06,07,08,09,10,11,12,1.0,1.0,1.0*30
$GPRMC,064700.374,A,2016.471,N,08551.012,E,038.9,038.0,190224,000.0,W*77
$GPGGA,064701.374,2016.480,N,08551.019,E,1,12,1.0,0.0,M,0.0,M,,*62
$GPGSA,A,3,01,02,03,04,05,06,07,08,09,10,11,12,1.0,1.0,1.0*30
$GPRMC,064701.374,A,2016.480,N,08551.019,E,038.9,038.0,190224,000.0,W*73
$GPGGA,064702.374,2016.488,N,08551.026,E,1,12,1.0,0.0,M,0.0,M,,*65
$GPGSA,A,3,01,02,03,04,05,06,07,08,09,10,11,12,1.0,1.0,1.0*30
$GPRMC,064702.374,A,2016.488,N,08551.026,E,038.9,038.0,190224,000.0,W*74
$GPGGA,064703.374,2016.497,N,08551.033,E,1,12,1.0,0.0,M,0.0,M,,*6E
$GPGSA,A,3,01,02,03,04,05,06,07,08,09,10,11,12,1.0,1.0,1.0*30
$GPRMC,064703.374,A,2016.497,N,08551.033,E,038.9,038.0,190224,000.0,W*7F
$GPGGA,064704.374,2016.506,N,08551.040,E,1,12,1.0,0.0,M,0.0,M,,*64
$GPGSA,A,3,01,02,03,04,05,06,07,08,09,10,11,12,1.0,1.0,1.0*30
$GPRMC,064704.374,A,2016.506,N,08551.040,E,038.9,038.0,190224,000.0,W*75
$GPGGA,064705.374,2016.514,N,08551.046,E,1,12,1.0,0.0,M,0.0,M,,*60
$GPGSA,A,3,01,02,03,04,05,06,07,08,09,10,11,12,1.0,1.0,1.0*30
$GPRMC,064705.374,A,2016.514,N,08551.046,E,038.9,038.0,190224,000.0,W*71
$GPGGA,064706.374,2016.523,N,08551.053,E,1,12,1.0,0.0,M,0.0,M,,*63
$GPGSA,A,3,01,02,03,04,05,06,07,08,09,10,11,12,1.0,1.0,1.0*30
$GPRMC,064706.374,A,2016.523,N,08551.053,E,038.9,038.0,190224,000.0,W*72
$GPGGA,064707.374,2016.532,N,08551.060,E,1,12,1.0,0.0,M,0.0,M,,*62
$GPGSA,A,3,01,02,03,04,05,06,07,08,09,10,11,12,1.0,1.0,1.0*30
$GPRMC,064707.374,A,2016.532,N,08551.060,E,038.9,036.1,190224,000.0,W*7C
$GPGGA,064708.374,2016.541,N,08551.067,E,1,12,1.0,0.0,M,0.0,M,,*6E
$GPGSA,A,3,01,02,03,04,05,06,07,08,09,10,11,12,1.0,1.0,1.0*30
$GPRMC,064708.374,A,2016.541,N,08551.067,E,038.9,036.1,190224,000.0,W*70
$GPGGA,064709.374,2016.550,N,08551.073,E,1,12,1.0,0.0,M,0.0,M,,*6A
$GPGSA,A,3,01,02,03,04,05,06,07,08,09,10,11,12,1.0,1.0,1.0*30
$GPRMC,064709.374,A,2016.550,N,08551.073,E,038.9,036.1,190224,000.0,W*74
$GPGGA,064710.374,2016.559,N,08551.080,E,1,12,1.0,0.0,M,0.0,M,,*67
$GPGSA,A,3,01,02,03,04,05,06,07,08,09,10,11,12,1.0,1.0,1.0*30
$GPRMC,064710.374,A,2016.559,N,08551.080,E,038.9,036.1,190224,000.0,W*79
$GPGGA,064711.374,2016.567,N,08551.086,E,1,12,1.0,0.0,M,0.0,M,,*6D
$GPGSA,A,3,01,02,03,04,05,06,07,08,09,10,11,12,1.0,1.0,1.0*30
$GPRMC,064711.374,A,2016.567,N,08551.086,E,038.9,036.1,190224,000.0,W*73
$GPGGA,064712.374,2016.576,N,08551.092,E,1,12,1.0,0.0,M,0.0,M,,*6B
$GPGSA,A,3,01,02,03,04,05,06,07,08,09,10,11,12,1.0,1.0,1.0*30
$GPRMC,064712.374,A,2016.576,N,08551.092,E,038.9,036.1,190224,000.0,W*75
$GPGGA,064713.374,2016.585,N,08551.099,E,1,12,1.0,0.0,M,0.0,M,,*6D
$GPGSA,A,3,01,02,03,04,05,06,07,08,09,10,11,12,1.0,1.0,1.0*30
$GPRMC,064713.374,A,2016.585,N,08551.099,E,038.9,036.1,190224,000.0,W*73
$GPGGA,064714.374,2016.594,N,08551.105,E,1,12,1.0,0.0,M,0.0,M,,*6E
$GPGSA,A,3,01,02,03,04,05,06,07,08,09,10,11,12,1.0,1.0,1.0*30
$GPRMC,064714.374,A,2016.594,N,08551.105,E,038.9,036.1,190224,000.0,W*70
$GPGGA,064715.374,2016.603,N,08551.112,E,1,12,1.0,0.0,M,0.0,M,,*64
$GPGSA,A,3,01,02,03,04,05,06,07,08,09,10,11,12,1.0,1.0,1.0*30
$GPRMC,064715.374,A,2016.603,N,08551.112,E,038.9,036.1,190224,000.0,W*7A
$GPGGA,064716.374,2016.612,N,08551.118,E,1,12,1.0,0.0,M,0.0,M,,*6D
$GPGSA,A,3,01,02,03,04,05,06,07,08,09,10,11,12,1.0,1.0,1.0*30
$GPRMC,064716.374,A,2016.612,N,08551.118,E,038.9,036.8,190224,000.0,W*7A
$GPGGA,064717.374,2016.621,N,08551.125,E,1,12,1.0,0.0,M,0.0,M,,*62
$GPGSA,A,3,01,02,03,04,05,06,07,08,09,10,11,12,1.0,1.0,1.0*30
$GPRMC,064717.374,A,2016.621,N,08551.125,E,038.9,036.8,190224,000.0,W*75
$GPGGA,064718.374,2016.630,N,08551.132,E,1,12,1.0,0.0,M,0.0,M,,*6B
$GPGSA,A,3,01,02,03,04,05,06,07,08,09,10,11,12,1.0,1.0,1.0*30
$GPRMC,064718.374,A,2016.630,N,08551.132,E,038.9,036.8,190224,000.0,W*7C
$GPGGA,064719.374,2016.638,N,08551.138,E,1,12,1.0,0.0,M,0.0,M,,*68
$GPGSA,A,3,01,02,03,04,05,06,07,08,09,10,11,12,1.0,1.0,1.0*30
$GPRMC,064719.374,A,2016.638,N,08551.138,E,038.9,036.8,190224,000.0,W*7F
$GPGGA,064720.374,2016.647,N,08551.145,E,1,12,1.0,0.0,M,0.0,M,,*60
$GPGSA,A,3,01,02,03,04,05,06,07,08,09,10,11,12,1.0,1.0,1.0*30
$GPRMC,064720.374,A,2016.647,N,08551.145,E,038.9,036.8,190224,000.0,W*77
$GPGGA,064721.374,2016.656,N,08551.152,E,1,12,1.0,0.0,M,0.0,M,,*67
$GPGSA,A,3,01,02,03,04,05,06,07,08,09,10,11,12,1.0,1.0,1.0*30
$GPRMC,064721.374,A,2016.656,N,08551.152,E,038.9,030.2,190224,000.0,W*7C
$GPGGA,064722.374,2016.666,N,08551.157,E,1,12,1.0,0.0,M,0.0,M,,*62
$GPGSA,A,3,01,02,03,04,05,06,07,08,09,10,11,12,1.0,1.0,1.0*30
$GPRMC,064722.374,A,2016.666,N,08551.157,E,038.9,030.2,190224,000.0,W*79
$GPGGA,064723.374,2016.675,N,08551.163,E,1,12,1.0,0.0,M,0.0,M,,*66
$GPGSA,A,3,01,02,03,04,05,06,07,08,09,10,11,12,1.0,1.0,1.0*30
$GPRMC,064723.374,A,2016.675,N,08551.163,E,038.9,030.2,190224,000.0,W*7D
$GPGGA,064724.374,2016.685,N,08551.168,E,1,12,1.0,0.0,M,0.0,M,,*65
$GPGSA,A,3,01,02,03,04,05,06,07,08,09,10,11,12,1.0,1.0,1.0*30
$GPRMC,064724.374,A,2016.685,N,08551.168,E,038.9,030.2,190224,000.0,W*7E
$GPGGA,064725.374,2016.694,N,08551.174,E,1,12,1.0,0.0,M,0.0,M,,*69
$GPGSA,A,3,01,02,03,04,05,06,07,08,09,10,11,12,1.0,1.0,1.0*30
$GPRMC,064725.374,A,2016.694,N,08551.174,E,038.9,030.2,190224,000.0,W*72
$GPGGA,064726.374,2016.703,N,08551.179,E,1,12,1.0,0.0,M,0.0,M,,*68
$GPGSA,A,3,01,02,03,04,05,06,07,08,09,10,11,12,1.0,1.0,1.0*30
$GPRMC,064726.374,A,2016.703,N,08551.179,E,038.9,030.2,190224,000.0,W*73
$GPGGA,064727.374,2016.713,N,08551.185,E,1,12,1.0,0.0,M,0.0,M,,*6B
$GPGSA,A,3,01,02,03,04,05,06,07,08,09,10,11,12,1.0,1.0,1.0*30
$GPRMC,064727.374,A,2016.713,N,08551.185,E,038.9,030.2,190224,000.0,W*70
$GPGGA,064728.374,2016.722,N,08551.190,E,1,12,1.0,0.0,M,0.0,M,,*62
$GPGSA,A,3,01,02,03,04,05,06,07,08,09,10,11,12,1.0,1.0,1.0*30
$GPRMC,064728.374,A,2016.722,N,08551.190,E,038.9,030.2,190224,000.0,W*79
$GPGGA,064729.374,2016.732,N,08551.196,E,1,12,1.0,0.0,M,0.0,M,,*64
$GPGSA,A,3,01,02,03,04,05,06,07,08,09,10,11,12,1.0,1.0,1.0*30
$GPRMC,064729.374,A,2016.732,N,08551.196,E,038.9,030.2,190224,000.0,W*7F
$GPGGA,064730.374,2016.741,N,08551.201,E,1,12,1.0,0.0,M,0.0,M,,*65
$GPGSA,A,3,01,02,03,04,05,06,07,08,09,10,11,12,1.0,1.0,1.0*30
$GPRMC,064730.374,A,2016.741,N,08551.201,E,038.9,024.7,190224,000.0,W*7E
$GPGGA,064731.374,2016.751,N,08551.206,E,1,12,1.0,0.0,M,0.0,M,,*62
$GPGSA,A,3,01,02,03,04,05,06,07,08,09,10,11,12,1.0,1.0,1.0*30
$GPRMC,064731.374,A,2016.751,N,08551.206,E,038.9,024.7,190224,000.0,W*79
$GPGGA,064732.374,2016.761,N,08551.210,E,1,12,1.0,0.0,M,0.0,M,,*65
$GPGSA,A,3,01,02,03,04,05,06,07,08,09,10,11,12,1.0,1.0,1.0*30
$GPRMC,064732.374,A,2016.761,N,08551.210,E,038.9,024.7,190224,000.0,W*7E
$GPGGA,064733.374,2016.771,N,08551.215,E,1,12,1.0,0.0,M,0.0,M,,*60
$GPGSA,A,3,01,02,03,04,05,06,07,08,09,10,11,12,1.0,1.0,1.0*30
$GPRMC,064733.374,A,2016.771,N,08551.215,E,038.9,024.7,190224,000.0,W*7B
$GPGGA,064734.374,2016.781,N,08551.219,E,1,12,1.0,0.0,M,0.0,M,,*64
$GPGSA,A,3,01,02,03,04,05,06,07,08,09,10,11,12,1.0,1.0,1.0*30
$GPRMC,064734.374,A,2016.781,N,08551.219,E,038.9,024.7,190224,000.0,W*7F
$GPGGA,064735.374,2016.791,N,08551.224,E,1,12,1.0,0.0,M,0.0,M,,*6A
$GPGSA,A,3,01,02,03,04,05,06,07,08,09,10,11,12,1.0,1.0,1.0*30
$GPRMC,064735.374,A,2016.791,N,08551.224,E,097.2,021.2,190224,000.0,W*7F
$GPGGA,064736.374,2016.816,N,08551.234,E,1,12,1.0,0.0,M,0.0,M,,*68
$GPGSA,A,3,01,02,03,04,05,06,07,08,09,10,11,12,1.0,1.0,1.0*30
$GPRMC,064736.374,A,2016.816,N,08551.234,E,097.2,021.2,190224,000.0,W*7D
$GPGGA,064737.374,2016.842,N,08551.244,E,1,12,1.0,0.0,M,0.0,M,,*6F
$GPGSA,A,3,01,02,03,04,05,06,07,08,09,10,11,12,1.0,1.0,1.0*30
$GPRMC,064737.374,A,2016.842,N,08551.244,E,097.2,016.6,190224,000.0,W*7A
$GPGGA,064738.374,2016.868,N,08551.251,E,1,12,1.0,0.0,M,0.0,M,,*6C
$GPGSA,A,3,01,02,03,04,05,06,07,08,09,10,11,12,1.0,1.0,1.0*30
$GPRMC,064738.374,A,2016.868,N,08551.251,E,097.2,016.6,190224,000.0,W*79
$GPGGA,064739.374,2016.894,N,08551.259,E,1,12,1.0,0.0,M,0.0,M,,*66
$GPGSA,A,3,01,02,03,04,05,06,07,08,09,10,11,12,1.0,1.0,1.0*30
$GPRMC,064739.374,A,2016.894,N,08551.259,E,097.2,016.6,190224,000.0,W*73
$GPGGA,064740.374,2016.920,N,08551.267,E,1,12,1.0,0.0,M,0.0,M,,*6B
$GPGSA,A,3,01,02,03,04,05,06,07,08,09,10,11,12,1.0,1.0,1.0*30
$GPRMC,064740.374,A,2016.920,N,08551.267,E,097.2,011.1,190224,000.0,W*7E
$GPGGA,064741.374,2016.946,N,08551.272,E,1,12,1.0,0.0,M,0.0,M,,*6E
$GPGSA,A,3,01,02,03,04,05,06,07,08,09,10,11,12,1.0,1.0,1.0*30
$GPRMC,064741.374,A,2016.946,N,08551.272,E,097.2,011.1,190224,000.0,W*7B
$GPGGA,064742.374,2016.973,N,08551.277,E,1,12,1.0,0.0,M,0.0,M,,*6E
$GPGSA,A,3,01,02,03,04,05,06,07,08,09,10,11,12,1.0,1.0,1.0*30
$GPRMC,064742.374,A,2016.973,N,08551.277,E,097.2,011.1,190224,000.0,W*7B
$GPGGA,064743.374,2016.999,N,08551.282,E,1,12,1.0,0.0,M,0.0,M,,*61
$GPGSA,A,3,01,02,03,04,05,06,07,08,09,10,11,12,1.0,1.0,1.0*30
$GPRMC,064743.374,A,2016.999,N,08551.282,E,097.2,007.3,190224,000.0,W*71
$GPGGA,064744.374,2017.026,N,08551.286,E,1,12,1.0,0.0,M,0.0,M,,*6E
$GPGSA,A,3,01,02,03,04,05,06,07,08,09,10,11,12,1.0,1.0,1.0*30
$GPRMC,064744.374,A,2017.026,N,08551.286,E,097.2,007.3,190224,000.0,W*7E
$GPGGA,064745.374,2017.053,N,08551.289,E,1,12,1.0,0.0,M,0.0,M,,*62
$GPGSA,A,3,01,02,03,04,05,06,07,08,09,10,11,12,1.0,1.0,1.0*30
$GPRMC,064745.374,A,2017.053,N,08551.289,E,097.2,007.3,190224,000.0,W*72
$GPGGA,064746.374,2017.080,N,08551.293,E,1,12,1.0,0.0,M,0.0,M,,*64
$GPGSA,A,3,01,02,03,04,05,06,07,08,09,10,11,12,1.0,1.0,1.0*30
$GPRMC,064746.374,A,2017.080,N,08551.293,E,097.2,000.2,190224,000.0,W*72
$GPGGA,064747.374,2017.107,N,08551.293,E,1,12,1.0,0.0,M,0.0,M,,*6B
$GPGSA,A,3,01,02,03,04,05,06,07,08,09,10,11,12,1.0,1.0,1.0*30
$GPRMC,064747.374,A,2017.107,N,08551.293,E,097.2,000.2,190224,000.0,W*7D
$GPGGA,064748.374,2017.133,N,08551.293,E,1,12,1.0,0.0,M,0.0,M,,*63
$GPGSA,A,3,01,02,03,04,05,06,07,08,09,10,11,12,1.0,1.0,1.0*30
$GPRMC,064748.374,A,2017.133,N,08551.293,E,097.2,000.2,190224,000.0,W*75
$GPGGA,064749.374,2017.160,N,08551.293,E,1,12,1.0,0.0,M,0.0,M,,*64
$GPGSA,A,3,01,02,03,04,05,06,07,08,09,10,11,12,1.0,1.0,1.0*30
$GPRMC,064749.374,A,2017.160,N,08551.293,E,097.2,000.2,190224,000.0,W*72
$GPGGA,064750.374,2017.187,N,08551.293,E,1,12,1.0,0.0,M,0.0,M,,*65
$GPGSA,A,3,01,02,03,04,05,06,07,08,09,10,11,12,1.0,1.0,1.0*30
$GPRMC,064750.374,A,2017.187,N,08551.293,E,097.2,353.4,190224,000.0,W*70
$GPGGA,064751.374,2017.214,N,08551.290,E,1,12,1.0,0.0,M,0.0,M,,*6E
$GPGSA,A,3,01,02,03,04,05,06,07,08,09,10,11,12,1.0,1.0,1.0*30
$GPRMC,064751.374,A,2017.214,N,08551.290,E,097.2,353.4,190224,000.0,W*7B
$GPGGA,064752.374,2017.241,N,08551.287,E,1,12,1.0,0.0,M,0.0,M,,*6B
$GPGSA,A,3,01,02,03,04,05,06,07,08,09,10,11,12,1.0,1.0,1.0*30
$GPRMC,064752.374,A,2017.241,N,08551.287,E,097.2,353.4,190224,000.0,W*7E
$GPGGA,064753.374,2017.268,N,08551.284,E,1,12,1.0,0.0,M,0.0,M,,*62
$GPGSA,A,3,01,02,03,04,05,06,07,08,09,10,11,12,1.0,1.0,1.0*30
$GPRMC,064753.374,A,2017.268,N,08551.284,E,097.2,351.8,190224,000.0,W*79
$GPGGA,064754.374,2017.295,N,08551.280,E,1,12,1.0,0.0,M,0.0,M,,*63
$GPGSA,A,3,01,02,03,04,05,06,07,08,09,10,11,12,1.0,1.0,1.0*30
$GPRMC,064754.374,A,2017.295,N,08551.280,E,097.2,351.8,190224,000.0,W*78
$GPGGA,064755.374,2017.321,N,08551.276,E,1,12,1.0,0.0,M,0.0,M,,*65
$GPGSA,A,3,01,02,03,04,05,06,07,08,09,10,11,12,1.0,1.0,1.0*30
$GPRMC,064755.374,A,2017.321,N,08551.276,E,097.2,351.8,190224,000.0,W*7E
$GPGGA,064756.374,2017.348,N,08551.272,E,1,12,1.0,0.0,M,0.0,M,,*6D
$GPGSA,A,3,01,02,03,04,05,06,07,08,09,10,11,12,1.0,1.0,1.0*30
$GPRMC,064756.374,A,2017.348,N,08551.272,E,097.2,342.0,190224,000.0,W*7C
$GPGGA,064757.374,2017.374,N,08551.264,E,1,12,1.0,0.0,M,0.0,M,,*64
$GPGSA,A,3,01,02,03,04,05,06,07,08,09,10,11,12,1.0,1.0,1.0*30
$GPRMC,064757.374,A,2017.374,N,08551.264,E,097.2,342.0,190224,000.0,W*75
$GPGGA,064758.374,2017.400,N,08551.255,E,1,12,1.0,0.0,M,0.0,M,,*6D
$GPGSA,A,3,01,02,03,04,05,06,07,08,09,10,11,12,1.0,1.0,1.0*30
$GPRMC,064758.374,A,2017.400,N,08551.255,E,097.2,342.0,190224,000.0,W*7C
$GPGGA,064759.374,2017.426,N,08551.247,E,1,12,1.0,0.0,M,0.0,M,,*6B
$GPGSA,A,3,01,02,03,04,05,06,07,08,09,10,11,12,1.0,1.0,1.0*30
$GPRMC,064759.374,A,2017.426,N,08551.247,E,097.2,342.0,190224,000.0,W*7A
$GPGGA,064800.374,2017.451,N,08551.239,E,1,12,1.0,0.0,M,0.0,M,,*61
$GPGSA,A,3,01,02,03,04,05,06,07,08,09,10,11,12,1.0,1.0,1.0*30
$GPRMC,064800.374,A,2017.451,N,08551.239,E,097.2,342.0,190224,000.0,W*70
$GPGGA,064801.374,2017.477,N,08551.230,E,1,12,1.0,0.0,M,0.0,M,,*6D
$GPGSA,A,3,01,02,03,04,05,06,07,08,09,10,11,12,1.0,1.0,1.0*30
$GPRMC,064801.374,A,2017.477,N,08551.230,E,097.2,340.6,190224,000.0,W*78
$GPGGA,064802.374,2017.503,N,08551.221,E,1,12,1.0,0.0,M,0.0,M,,*6C
$GPGSA,A,3,01,02,03,04,05,06,07,08,09,10,11,12,1.0,1.0,1.0*30
$GPRMC,064802.374,A,2017.503,N,08551.221,E,097.2,340.6,190224,000.0,W*79
$GPGGA,064803.374,2017.528,N,08551.212,E,1,12,1.0,0.0,M,0.0,M,,*64
$GPGSA,A,3,01,02,03,04,05,06,07,08,09,10,11,12,1.0,1.0,1.0*30
$GPRMC,064803.374,A,2017.528,N,08551.212,E,097.2,340.6,190224,000.0,W*71
$GPGGA,064804.374,2017.554,N,08551.203,E,1,12,1.0,0.0,M,0.0,M,,*68
$GPGSA,A,3,01,02,03,04,05,06,07,08,09,10,11,12,1.0,1.0,1.0*30
$GPRMC,064804.374,A,2017.554,N,08551.203,E,097.2,340.6,190224,000.0,W*7D
$GPGGA,064805.374,2017.580,N,08551.194,E,1,12,1.0,0.0,M,0.0,M,,*6D
$GPGSA,A,3,01,02,03,04,05,06,07,08,09,10,11,12,1.0,1.0,1.0*30
$GPRMC,064805.374,A,2017.580,N,08551.194,E,097.2,340.6,190224,000.0,W*78
$GPGGA,064806.374,2017.605,N,08551.185,E,1,12,1.0,0.0,M,0.0,M,,*60
$GPGSA,A,3,01,02,03,04,05,06,07,08,09,10,11,12,1.0,1.0,1.0*30
$GPRMC,064806.374,A,2017.605,N,08551.185,E,097.2,340.6,190224,000.0,W*75
$GPGGA,064807.374,2017.631,N,08551.176,E,1,12,1.0,0.0,M,0.0,M,,*6A
$GPGSA,A,3,01,02,03,04,05,06,07,08,09,10,11,12,1.0,1.0,1.0*30
$GPRMC,064807.374,A,2017.631,N,08551.176,E,097.2,340.4,190224,000.0,W*7D
$GPGGA,064808.374,2017.656,N,08551.167,E,1,12,1.0,0.0,M,0.0,M,,*64
$GPGSA,A,3,01,02,03,04,05,06,07,08,09,10,11,12,1.0,1.0,1.0*30
$GPRMC,064808.374,A,2017.656,N,08551.167,E,097.2,340.4,190224,000.0,W*73
$GPGGA,064809.374,2017.682,N,08551.158,E,1,12,1.0,0.0,M,0.0,M,,*60
$GPGSA,A,3,01,02,03,04,05,06,07,08,09,10,11,12,1.0,1.0,1.0*30
$GPRMC,064809.374,A,2017.682,N,08551.158,E,097.2,340.4,190224,000.0,W*77
$GPGGA,064810.374,2017.708,N,08551.149,E,1,12,1.0,0.0,M,0.0,M,,*6B
$GPGSA,A,3,01,02,03,04,05,06,07,08,09,10,11,12,1.0,1.0,1.0*30
$GPRMC,064810.374,A,2017.708,N,08551.149,E,097.2,340.4,190224,000.0,W*7C
$GPGGA,064811.374,2017.733,N,08551.140,E,1,12,1.0,0.0,M,0.0,M,,*6B
$GPGSA,A,3,01,02,03,04,05,06,07,08,09,10,11,12,1.0,1.0,1.0*30
$GPRMC,064811.374,A,2017.733,N,08551.140,E,097.2,340.4,190224,000.0,W*7C
$GPGGA,064812.374,2017.759,N,08551.131,E,1,12,1.0,0.0,M,0.0,M,,*62
$GPGSA,A,3,01,02,03,04,05,06,07,08,09,10,11,12,1.0,1.0,1.0*30
$GPRMC,064812.374,A,2017.759,N,08551.131,E,097.2,340.4,190224,000.0,W*75
$GPGGA,064813.374,2017.784,N,08551.122,E,1,12,1.0,0.0,M,0.0,M,,*61
$GPGSA,A,3,01,02,03,04,05,06,07,08,09,10,11,12,1.0,1.0,1.0*30
$GPRMC,064813.374,A,2017.784,N,08551.122,E,194.4,340.4,190224,000.0,W*72
$GPGGA,064814.374,2017.836,N,08551.103,E,1,12,1.0,0.0,M,0.0,M,,*63
$GPGSA,A,3,01,02,03,04,05,06,07,08,09,10,11,12,1.0,1.0,1.0*30
$GPRMC,064814.374,A,2017.836,N,08551.103,E,194.4,340.4,190224,000.0,W*70
$GPGGA,064815.374,2017.887,N,08551.085,E,1,12,1.0,0.0,M,0.0,M,,*67
$GPGSA,A,3,01,02,03,04,05,06,07,08,09,10,11,12,1.0,1.0,1.0*30
$GPRMC,064815.374,A,2017.887,N,08551.085,E,194.4,340.4,190224,000.0,W*74
$GPGGA,064816.374,2017.938,N,08551.067,E,1,12,1.0,0.0,M,0.0,M,,*6D
$GPGSA,A,3,01,02,03,04,05,06,07,08,09,10,11,12,1.0,1.0,1.0*30
$GPRMC,064816.374,A,2017.938,N,08551.067,E,194.4,340.4,190224,000.0,W*7E
$GPGGA,064817.374,2017.989,N,08551.049,E,1,12,1.0,0.0,M,0.0,M,,*6A
$GPGSA,A,3,01,02,03,04,05,06,07,08,09,10,11,12,1.0,1.0,1.0*30
$GPRMC,064817.374,A,2017.989,N,08551.049,E,194.4,340.4,190224,000.0,W*79
$GPGGA,064818.374,2018.040,N,08551.030,E,1,12,1.0,0.0,M,0.0,M,,*68
$GPGSA,A,3,01,02,03,04,05,06,07,08,09,10,11,12,1.0,1.0,1.0*30
$GPRMC,064818.374,A,2018.040,N,08551.030,E,194.4,340.4,190224,000.0,W*7B
$GPGGA,064819.374,2018.092,N,08551.012,E,1,12,1.0,0.0,M,0.0,M,,*66
$GPGSA,A,3,01,02,03,04,05,06,07,08,09,10,11,12,1.0,1.0,1.0*30
$GPRMC,064819.374,A,2018.092,N,08551.012,E,194.4,341.7,190224,000.0,W*77
$GPGGA,064820.374,2018.143,N,08550.995,E,1,12,1.0,0.0,M,0.0,M,,*66
$GPGSA,A,3,01,02,03,04,05,06,07,08,09,10,11,12,1.0,1.0,1.0*30
$GPRMC,064820.374,A,2018.143,N,08550.995,E,194.4,341.7,190224,000.0,W*77
$GPGGA,064821.374,2018.195,N,08550.978,E,1,12,1.0,0.0,M,0.0,M,,*6F
$GPGSA,A,3,01,02,03,04,05,06,07,08,09,10,11,12,1.0,1.0,1.0*30
$GPRMC,064821.374,A,2018.195,N,08550.978,E,194.4,341.7,190224,000.0,W*7E
$GPGGA,064822.374,2018.246,N,08550.961,E,1,12,1.0,0.0,M,0.0,M,,*69
$GPGSA,A,3,01,02,03,04,05,06,07,08,09,10,11,12,1.0,1.0,1.0*30
$GPRMC,064822.374,A,2018.246,N,08550.961,E,194.4,341.7,190224,000.0,W*78
$GPGGA,064823.374,2018.298,N,08550.944,E,1,12,1.0,0.0,M,0.0,M,,*6C
$GPGSA,A,3,01,02,03,04,05,06,07,08,09,10,11,12,1.0,1.0,1.0*30
$GPRMC,064823.374,A,2018.298,N,08550.944,E,194.4,341.7,190224,000.0,W*7D
$GPGGA,064824.374,2018.349,N,08550.927,E,1,12,1.0,0.0,M,0.0,M,,*63
$GPGSA,A,3,01,02,03,04,05,06,07,08,09,10,11,12,1.0,1.0,1.0*30
$GPRMC,064824.374,A,2018.349,N,08550.927,E,194.4,341.7,190224,000.0,W*72
$GPGGA,064825.374,2018.401,N,08550.910,E,1,12,1.0,0.0,M,0.0,M,,*6D
$GPGSA,A,3,01,02,03,04,05,06,07,08,09,10,11,12,1.0,1.0,1.0*30
$GPRMC,064825.374,A,2018.401,N,08550.910,E,194.4,341.7,190224,000.0,W*7C
$GPGGA,064826.374,2018.452,N,08550.893,E,1,12,1.0,0.0,M,0.0,M,,*62
$GPGSA,A,3,01,02,03,04,05,06,07,08,09,10,11,12,1.0,1.0,1.0*30
$GPRMC,064826.374,A,2018.452,N,08550.893,E,194.4,341.7,190224,000.0,W*73
$GPGGA,064827.374,2018.504,N,08550.876,E,1,12,1.0,0.0,M,0.0,M,,*6A
$GPGSA,A,3,01,02,03,04,05,06,07,08,09,10,11,12,1.0,1.0,1.0*30
$GPRMC,064827.374,A,2018.504,N,08550.876,E,194.4,341.7,190224,000.0,W*7B
$GPGGA,064828.374,2018.555,N,08550.859,E,1,12,1.0,0.0,M,0.0,M,,*6C
$GPGSA,A,3,01,02,03,04,05,06,07,08,09,10,11,12,1.0,1.0,1.0*30
$GPRMC,064828.374,A,2018.555,N,08550.859,E,194.4,347.4,190224,000.0,W*78
$GPGGA,064829.374,2018.608,N,08550.847,E,1,12,1.0,0.0,M,0.0,M,,*69
$GPGSA,A,3,01,02,03,04,05,06,07,08,09,10,11,12,1.0,1.0,1.0*30
$GPRMC,064829.374,A,2018.608,N,08550.847,E,194.4,347.4,190224,000.0,W*7D
$GPGGA,064830.374,2018.661,N,08550.836,E,1,12,1.0,0.0,M,0.0,M,,*68
$GPGSA,A,3,01,02,03,04,05,06,07,08,09,10,11,12,1.0,1.0,1.0*30
$GPRMC,064830.374,A,2018.661,N,08550.836,E,194.4,347.4,190224,000.0,W*7C
$GPGGA,064831.374,2018.714,N,08550.824,E,1,12,1.0,0.0,M,0.0,M,,*69
$GPGSA,A,3,01,02,03,04,05,06,07,08,09,10,11,12,1.0,1.0,1.0*30
$GPRMC,064831.374,A,2018.714,N,08550.824,E,194.4,351.6,190224,000.0,W*78
$GPGGA,064832.374,2018.767,N,08550.816,E,1,12,1.0,0.0,M,0.0,M,,*6F
$GPGSA,A,3,01,02,03,04,05,06,07,08,09,10,11,12,1.0,1.0,1.0*30
$GPRMC,064832.374,A,2018.767,N,08550.816,E,194.4,351.6,190224,000.0,W*7E
$GPGGA,064833.374,2018.821,N,08550.808,E,1,12,1.0,0.0,M,0.0,M,,*6C
$GPGSA,A,3,01,02,03,04,05,06,07,08,09,10,11,12,1.0,1.0,1.0*30
$GPRMC,064833.374,A,2018.821,N,08550.808,E,194.4,351.6,190224,000.0,W*7D
$GPGGA,064834.374,2018.874,N,08550.800,E,1,12,1.0,0.0,M,0.0,M,,*63
$GPGSA,A,3,01,02,03,04,05,06,07,08,09,10,11,12,1.0,1.0,1.0*30
$GPRMC,064834.374,A,2018.874,N,08550.800,E,194.4,351.6,190224,000.0,W*72
$GPGGA,064835.374,2018.928,N,08550.792,E,1,12,1.0,0.0,M,0.0,M,,*6E
$GPGSA,A,3,01,02,03,04,05,06,07,08,09,10,11,12,1.0,1.0,1.0*30
$GPRMC,064835.374,A,2018.928,N,08550.792,E,194.4,351.6,190224,000.0,W*7F
$GPGGA,064836.374,2018.981,N,08550.784,E,1,12,1.0,0.0,M,0.0,M,,*69
$GPGSA,A,3,01,02,03,04,05,06,07,08,09,10,11,12,1.0,1.0,1.0*30
$GPRMC,064836.374,A,2018.981,N,08550.784,E,194.4,351.6,190224,000.0,W*78
$GPGGA,064837.374,2019.035,N,08550.776,E,1,12,1.0,0.0,M,0.0,M,,*62
$GPGSA,A,3,01,02,03,04,05,06,07,08,09,10,11,12,1.0,1.0,1.0*30
$GPRMC,064837.374,A,2019.035,N,08550.776,E,194.4,350.9,190224,000.0,W*7D
$GPGGA,064838.374,2019.088,N,08550.768,E,1,12,1.0,0.0,M,0.0,M,,*64
$GPGSA,A,3,01,02,03,04,05,06,07,08,09,10,11,12,1.0,1.0,1.0*30
$GPRMC,064838.374,A,2019.088,N,08550.768,E,194.4,350.9,190224,000.0,W*7B
$GPGGA,064839.374,2019.141,N,08550.759,E,1,12,1.0,0.0,M,0.0,M,,*63
$GPGSA,A,3,01,02,03,04,05,06,07,08,09,10,11,12,1.0,1.0,1.0*30
$GPRMC,064839.374,A,2019.141,N,08550.759,E,194.4,350.9,190224,000.0,W*7C
$GPGGA,064840.374,2019.195,N,08550.750,E,1,12,1.0,0.0,M,0.0,M,,*6D
$GPGSA,A,3,01,02,03,04,05,06,07,08,09,10,11,12,1.0,1.0,1.0*30
$GPRMC,064840.374,A,2019.195,N,08550.750,E,194.4,350.9,190224,000.0,W*72
$GPGGA,064841.374,2019.248,N,08550.742,E,1,12,1.0,0.0,M,0.0,M,,*6C
$GPGSA,A,3,01,02,03,04,05,06,07,08,09,10,11,12,1.0,1.0,1.0*30
$GPRMC,064841.374,A,2019.248,N,08550.742,E,194.4,350.9,190224,000.0,W*73
$GPGGA,064842.374,2019.301,N,08550.733,E,1,12,1.0,0.0,M,0.0,M,,*65
$GPGSA,A,3,01,02,03,04,05,06,07,08,09,10,11,12,1.0,1.0,1.0*30
$GPRMC,064842.374,A,2019.301,N,08550.733,E,194.4,350.9,190224,000.0,W*7A
$GPGGA,064843.374,2019.355,N,08550.725,E,1,12,1.0,0.0,M,0.0,M,,*62
$GPGSA,A,3,01,02,03,04,05,06,07,08,09,10,11,12,1.0,1.0,1.0*30
$GPRMC,064843.374,A,2019.355,N,08550.725,E,194.4,350.9,190224,000.0,W*7D
$GPGGA,064844.374,2019.408,N,08550.716,E,1,12,1.0,0.0,M,0.0,M,,*6A
$GPGSA,A,3,01,02,03,04,05,06,07,08,09,10,11,12,1.0,1.0,1.0*30
$GPRMC,064844.374,A,2019.408,N,08550.716,E,194.4,350.3,190224,000.0,W*7F
$GPGGA,064845.374,2019.461,N,08550.707,E,1,12,1.0,0.0,M,0.0,M,,*64
$GPGSA,A,3,01,02,03,04,05,06,07,08,09,10,11,12,1.0,1.0,1.0*30
$GPRMC,064845.374,A,2019.461,N,08550.707,E,194.4,350.3,190224,000.0,W*71
$GPGGA,064846.374,2019.515,N,08550.698,E,1,12,1.0,0.0,M,0.0,M,,*62
$GPGSA,A,3,01,02,03,04,05,06,07,08,09,10,11,12,1.0,1.0,1.0*30
$GPRMC,064846.374,A,2019.515,N,08550.698,E,194.4,350.3,190224,000.0,W*77
$GPGGA,064847.374,2019.568,N,08550.689,E,1,12,1.0,0.0,M,0.0,M,,*69
$GPGSA,A,3,01,02,03,04,05,06,07,08,09,10,11,12,1.0,1.0,1.0*30
$GPRMC,064847.374,A,2019.568,N,08550.689,E,194.4,350.3,190224,000.0,W*7C
$GPGGA,064848.374,2019.621,N,08550.680,E,1,12,1.0,0.0,M,0.0,M,,*61
$GPGSA,A,3,01,02,03,04,05,06,07,08,09,10,11,12,1.0,1.0,1.0*30
$GPRMC,064848.374,A,2019.621,N,08550.680,E,194.4,350.3,190224,000.0,W*74
$GPGGA,064849.374,2019.674,N,08550.671,E,1,12,1.0,0.0,M,0.0,M,,*6E
$GPGSA,A,3,01,02,03,04,05,06,07,08,09,10,11,12,1.0,1.0,1.0*30
$GPRMC,064849.374,A,2019.674,N,08550.671,E,194.4,350.3,190224,000.0,W*7B
$GPGGA,064850.374,2019.728,N,08550.662,E,1,12,1.0,0.0,M,0.0,M,,*6C
$GPGSA,A,3,01,02,03,04,05,06,07,08,09,10,11,12,1.0,1.0,1.0*30
$GPRMC,064850.374,A,2019.728,N,08550.662,E,194.4,350.3,190224,000.0,W*79
$GPGGA,064851.374,2019.781,N,08550.652,E,1,12,1.0,0.0,M,0.0,M,,*6D
$GPGSA,A,3,01,02,03,04,05,06,07,08,09,10,11,12,1.0,1.0,1.0*30
$GPRMC,064851.374,A,2019.781,N,08550.652,E,194.4,350.3,190224,000.0,W*78
$GPGGA,064852.374,2019.834,N,08550.643,E,1,12,1.0,0.0,M,0.0,M,,*6F
$GPGSA,A,3,01,02,03,04,05,06,07,08,09,10,11,12,1.0,1.0,1.0*30
$GPRMC,064852.374,A,2019.834,N,08550.643,E,194.4,350.3,190224,000.0,W*7A
$GPGGA,064853.374,2019.888,N,08550.634,E,1,12,1.0,0.0,M,0.0,M,,*69
$GPGSA,A,3,01,02,03,04,05,06,07,08,09,10,11,12,1.0,1.0,1.0*30
$GPRMC,064853.374,A,2019.888,N,08550.634,E,194.4,350.3,190224,000.0,W*7C
$GPGGA,064854.374,2019.941,N,08550.625,E,1,12,1.0,0.0,M,0.0,M,,*6A
$GPGSA,A,3,01,02,03,04,05,06,07,08,09,10,11,12,1.0,1.0,1.0*30
$GPRMC,064854.374,A,2019.941,N,08550.625,E,194.4,351.6,190224,000.0,W*7B
$GPGGA,064855.374,2019.994,N,08550.617,E,1,12,1.0,0.0,M,0.0,M,,*62
$GPGSA,A,3,01,02,03,04,05,06,07,08,09,10,11,12,1.0,1.0,1.0*30
$GPRMC,064855.374,A,2019.994,N,08550.617,E,194.4,351.6,190224,000.0,W*73
$GPGGA,064856.374,2020.048,N,08550.609,E,1,12,1.0,0.0,M,0.0,M,,*6C
$GPGSA,A,3,01,02,03,04,05,06,07,08,09,10,11,12,1.0,1.0,1.0*30
$GPRMC,064856.374,A,2020.048,N,08550.609,E,194.4,351.6,190224,000.0,W*7D
$GPGGA,064857.374,2020.101,N,08550.601,E,1,12,1.0,0.0,M,0.0,M,,*69
$GPGSA,A,3,01,02,03,04,05,06,07,08,09,10,11,12,1.0,1.0,1.0*30
$GPRMC,064857.374,A,2020.101,N,08550.601,E,194.4,351.6,190224,000.0,W*78
$GPGGA,064858.374,2020.155,N,08550.593,E,1,12,1.0,0.0,M,0.0,M,,*6F
$GPGSA,A,3,01,02,03,04,05,06,07,08,09,10,11,12,1.0,1.0,1.0*30
$GPRMC,064858.374,A,2020.155,N,08550.593,E,194.4,351.6,190224,000.0,W*7E
$GPGGA,064859.374,2020.208,N,08550.585,E,1,12,1.0,0.0,M,0.0,M,,*62
$GPGSA,A,3,01,02,03,04,05,06,07,08,09,10,11,12,1.0,1.0,1.0*30
$GPRMC,064859.374,A,2020.208,N,08550.585,E,194.4,351.6,190224,000.0,W*73
$GPGGA,064900.374,2020.262,N,08550.578,E,1,12,1.0,0.0,M,0.0,M,,*61
$GPGSA,A,3,01,02,03,04,05,06,07,08,09,10,11,12,1.0,1.0,1.0*30
$GPRMC,064900.374,A,2020.262,N,08550.578,E,194.4,351.6,190224,000.0,W*70
$GPGGA,064901.374,2020.315,N,08550.570,E,1,12,1.0,0.0,M,0.0,M,,*69
$GPGSA,A,3,01,02,03,04,05,06,07,08,09,10,11,12,1.0,1.0,1.0*30
$GPRMC,064901.374,A,2020.315,N,08550.570,E,194.4,351.6,190224,000.0,W*78
$GPGGA,064902.374,2020.368,N,08550.562,E,1,12,1.0,0.0,M,0.0,M,,*63
$GPGSA,A,3,01,02,03,04,05,06,07,08,09,10,11,12,1.0,1.0,1.0*30
$GPRMC,064902.374,A,2020.368,N,08550.562,E,194.4,350.7,190224,000.0,W*72
$GPGGA,064903.374,2020.422,N,08550.553,E,1,12,1.0,0.0,M,0.0,M,,*69
$GPGSA,A,3,01,02,03,04,05,06,07,08,09,10,11,12,1.0,1.0,1.0*30
$GPRMC,064903.374,A,2020.422,N,08550.553,E,194.4,350.7,190224,000.0,W*78
$GPGGA,064904.374,2020.475,N,08550.544,E,1,12,1.0,0.0,M,0.0,M,,*6A
$GPGSA,A,3,01,02,03,04,05,06,07,08,09,10,11,12,1.0,1.0,1.0*30
$GPRMC,064904.374,A,2020.475,N,08550.544,E,194.4,350.7,190224,000.0,W*7B
$GPGGA,064905.374,2020.528,N,08550.536,E,1,12,1.0,0.0,M,0.0,M,,*67
$GPGSA,A,3,01,02,03,04,05,06,07,08,09,10,11,12,1.0,1.0,1.0*30
$GPRMC,064905.374,A,2020.528,N,08550.536,E,194.4,350.7,190224,000.0,W*76
$GPGGA,064906.374,2020.582,N,08550.527,E,1,12,1.0,0.0,M,0.0,M,,*64
$GPGSA,A,3,01,02,03,04,05,06,07,08,09,10,11,12,1.0,1.0,1.0*30
$GPRMC,064906.374,A,2020.582,N,08550.527,E,194.4,350.7,190224,000.0,W*75
$GPGGA,064907.374,2020.635,N,08550.518,E,1,12,1.0,0.0,M,0.0,M,,*66
$GPGSA,A,3,01,02,03,04,05,06,07,08,09,10,11,12,1.0,1.0,1.0*30
$GPRMC,064907.374,A,2020.635,N,08550.518,E,194.4,350.7,190224,000.0,W*77
$GPGGA,064908.374,2020.688,N,08550.509,E,1,12,1.0,0.0,M,0.0,M,,*6F
$GPGSA,A,3,01,02,03,04,05,06,07,08,09,10,11,12,1.0,1.0,1.0*30
$GPRMC,064908.374,A,2020.688,N,08550.509,E,194.4,350.7,190224,000.0,W*7E
$GPGGA,064909.374,2020.742,N,08550.501,E,1,12,1.0,0.0,M,0.0,M,,*61
$GPGSA,A,3,01,02,03,04,05,06,07,08,09,10,11,12,1.0,1.0,1.0*30
$GPRMC,064909.374,A,2020.742,N,08550.501,E,194.4,350.7,190224,000.0,W*70
$GPGGA,064910.374,2020.795,N,08550.492,E,1,12,1.0,0.0,M,0.0,M,,*68
$GPGSA,A,3,01,02,03,04,05,06,07,08,09,10,11,12,1.0,1.0,1.0*30
$GPRMC,064910.374,A,2020.795,N,08550.492,E,194.4,350.7,190224,000.0,W*79
$GPGGA,064911.374,2020.848,N,08550.483,E,1,12,1.0,0.0,M,0.0,M,,*66
$GPGSA,A,3,01,02,03,04,05,06,07,08,09,10,11,12,1.0,1.0,1.0*30
$GPRMC,064911.374,A,2020.848,N,08550.483,E,194.4,351.0,190224,000.0,W*71
$GPGGA,064912.374,2020.902,N,08550.475,E,1,12,1.0,0.0,M,0.0,M,,*63
$GPGSA,A,3,01,02,03,04,05,06,07,08,09,10,11,12,1.0,1.0,1.0*30
$GPRMC,064912.374,A,2020.902,N,08550.475,E,194.4,351.0,190224,000.0,W*74
$GPGGA,064913.374,2020.955,N,08550.467,E,1,12,1.0,0.0,M,0.0,M,,*63
$GPGSA,A,3,01,02,03,04,05,06,07,08,09,10,11,12,1.0,1.0,1.0*30
$GPRMC,064913.374,A,2020.955,N,08550.467,E,194.4,351.0,190224,000.0,W*74
$GPGGA,064914.374,2021.009,N,08550.458,E,1,12,1.0,0.0,M,0.0,M,,*69
$GPGSA,A,3,01,02,03,04,05,06,07,08,09,10,11,12,1.0,1.0,1.0*30
$GPRMC,064914.374,A,2021.009,N,08550.458,E,194.4,351.0,190224,000.0,W*7E
$GPGGA,064915.374,2021.062,N,08550.450,E,1,12,1.0,0.0,M,0.0,M,,*6D
$GPGSA,A,3,01,02,03,04,05,06,07,08,09,10,11,12,1.0,1.0,1.0*30
$GPRMC,064915.374,A,2021.062,N,08550.450,E,194.4,351.0,190224,000.0,W*7A
$GPGGA,064916.374,2021.115,N,08550.441,E,1,12,1.0,0.0,M,0.0,M,,*6F
$GPGSA,A,3,01,02,03,04,05,06,07,08,09,10,11,12,1.0,1.0,1.0*30
$GPRMC,064916.374,A,2021.115,N,08550.441,E,194.4,351.0,190224,000.0,W*78
$GPGGA,064917.374,2021.169,N,08550.433,E,1,12,1.0,0.0,M,0.0,M,,*60
$GPGSA,A,3,01,02,03,04,05,06,07,08,09,10,11,12,1.0,1.0,1.0*30
$GPRMC,064917.374,A,2021.169,N,08550.433,E,194.4,351.0,190224,000.0,W*77
$GPGGA,064918.374,2021.222,N,08550.424,E,1,12,1.0,0.0,M,0.0,M,,*65
$GPGSA,A,3,01,02,03,04,05,06,07,08,09,10,11,12,1.0,1.0,1.0*30
$GPRMC,064918.374,A,2021.222,N,08550.424,E,194.4,351.0,190224,000.0,W*72
$GPGGA,064919.374,2021.275,N,08550.416,E,1,12,1.0,0.0,M,0.0,M,,*67
$GPGSA,A,3,01,02,03,04,05,06,07,08,09,10,11,12,1.0,1.0,1.0*30
$GPRMC,064919.374,A,2021.275,N,08550.416,E,194.4,350.5,190224,000.0,W*74
$GPGGA,064920.374,2021.329,N,08550.407,E,1,12,1.0,0.0,M,0.0,M,,*65
$GPGSA,A,3,01,02,03,04,05,06,07,08,09,10,11,12,1.0,1.0,1.0*30
$GPRMC,064920.374,A,2021.329,N,08550.407,E,194.4,350.5,190224,000.0,W*76
$GPGGA,064921.374,2021.382,N,08550.398,E,1,12,1.0,0.0,M,0.0,M,,*64
$GPGSA,A,3,01,02,03,04,05,06,07,08,09,10,11,12,1.0,1.0,1.0*30
$GPRMC,064921.374,A,2021.382,N,08550.398,E,194.4,350.5,190224,000.0,W*77
$GPGGA,064922.374,2021.435,N,08550.389,E,1,12,1.0,0.0,M,0.0,M,,*6C
$GPGSA,A,3,01,02,03,04,05,06,07,08,09,10,11,12,1.0,1.0,1.0*30
$GPRMC,064922.374,A,2021.435,N,08550.389,E,194.4,350.5,190224,000.0,W*7F
$GPGGA,064923.374,2021.489,N,08550.380,E,1,12,1.0,0.0,M,0.0,M,,*63
$GPGSA,A,3,01,02,03,04,05,06,07,08,09,10,11,12,1.0,1.0,1.0*30
$GPRMC,064923.374,A,2021.489,N,08550.380,E,194.4,350.5,190224,000.0,W*70
$GPGGA,064924.374,2021.542,N,08550.372,E,1,12,1.0,0.0,M,0.0,M,,*6F
$GPGSA,A,3,01,02,03,04,05,06,07,08,09,10,11,12,1.0,1.0,1.0*30
$GPRMC,064924.374,A,2021.542,N,08550.372,E,194.4,350.5,190224,000.0,W*7C
$GPGGA,064925.374,2021.595,N,08550.363,E,1,12,1.0,0.0,M,0.0,M,,*64
$GPGSA,A,3,01,02,03,04,05,06,07,08,09,10,11,12,1.0,1.0,1.0*30
$GPRMC,064925.374,A,2021.595,N,08550.363,E,194.4,350.5,190224,000.0,W*77
$GPGGA,064926.374,2021.649,N,08550.354,E,1,12,1.0,0.0,M,0.0,M,,*61
$GPGSA,A,3,01,02,03,04,05,06,07,08,09,10,11,12,1.0,1.0,1.0*30
$GPRMC,064926.374,A,2021.649,N,08550.354,E,194.4,351.0,190224,000.0,W*76
