$GPGGA,035358.151,0829.208,N,07657.158,E,1,12,1.0,0.0,M,0.0,M,,*65
$GPGSA,A,3,01,02,03,04,05,06,07,08,09,10,11,12,1.0,1.0,1.0*30
$GPRMC,035358.151,A,0829.208,N,07657.158,E,000.0,000.0,300824,000.0,W*7C
$GPGGA,035359.151,0829.208,N,07657.158,E,1,12,1.0,0.0,M,0.0,M,,*64
$GPGSA,A,3,01,02,03,04,05,06,07,08,09,10,11,12,1.0,1.0,1.0*30
$GPRMC,035359.151,A,0829.208,N,07657.158,E,000.0,000.0,300824,000.0,W*7D
$GPGGA,035400.151,0829.208,N,07657.158,E,1,12,1.0,0.0,M,0.0,M,,*6F
$GPGSA,A,3,01,02,03,04,05,06,07,08,09,10,11,12,1.0,1.0,1.0*30
$GPRMC,035400.151,A,0829.208,N,07657.158,E,000.0,000.0,300824,000.0,W*76
$GPGGA,035401.151,0829.208,N,07657.158,E,1,12,1.0,0.0,M,0.0,M,,*6E
$GPGSA,A,3,01,02,03,04,05,06,07,08,09,10,11,12,1.0,1.0,1.0*30
$GPRMC,035401.151,A,0829.208,N,07657.158,E,000.0,000.0,300824,000.0,W*77
$GPGGA,035402.151,0829.208,N,07657.158,E,1,12,1.0,0.0,M,0.0,M,,*6D
$GPGSA,A,3,01,02,03,04,05,06,07,08,09,10,11,12,1.0,1.0,1.0*30
$GPRMC,035402.151,A,0829.208,N,07657.158,E,000.0,000.0,300824,000.0,W*74
$GPGGA,035403.151,0829.208,N,07657.158,E,1,12,1.0,0.0,M,0.0,M,,*6C
$GPGSA,A,3,01,02,03,04,05,06,07,08,09,10,11,12,1.0,1.0,1.0*30
$GPRMC,035403.151,A,0829.208,N,07657.158,E,000.0,000.0,300824,000.0,W*75
$GPGGA,035404.151,0829.208,N,07657.158,E,1,12,1.0,0.0,M,0.0,M,,*6B
$GPGSA,A,3,01,02,03,04,05,06,07,08,09,10,11,12,1.0,1.0,1.0*30
$GPRMC,035404.151,A,0829.208,N,07657.158,E,000.0,000.0,300824,000.0,W*72
$GPGGA,035405.151,0829.208,N,07657.158,E,1,12,1.0,0.0,M,0.0,M,,*6A
$GPGSA,A,3,01,02,03,04,05,06,07,08,09,10,11,12,1.0,1.0,1.0*30
$GPRMC,035405.151,A,0829.208,N,07657.158,E,000.0,000.0,300824,000.0,W*73
$GPGGA,035406.151,0829.208,N,07657.158,E,1,12,1.0,0.0,M,0.0,M,,*69
$GPGSA,A,3,01,02,03,04,05,06,07,08,09,10,11,12,1.0,1.0,1.0*30
$GPRMC,035406.151,A,0829.208,N,07657.158,E,000.0,000.0,300824,000.0,W*70
$GPGGA,035407.151,0829.208,N,07657.158,E,1,12,1.0,0.0,M,0.0,M,,*68
$GPGSA,A,3,01,02,03,04,05,06,07,08,09,10,11,12,1.0,1.0,1.0*30
$GPRMC,035407.151,A,0829.208,N,07657.158,E,000.0,000.0,300824,000.0,W*71
$GPGGA,035408.151,0829.208,N,07657.158,E,1,12,1.0,0.0,M,0.0,M,,*67
$GPGSA,A,3,01,02,03,04,05,06,07,08,09,10,11,12,1.0,1.0,1.0*30
$GPRMC,035408.151,A,0829.208,N,07657.158,E,000.0,000.0,300824,000.0,W*7E
$GPGGA,035409.151,0829.208,N,07657.158,E,1,12,1.0,0.0,M,0.0,M,,*66
$GPGSA,A,3,01,02,03,04,05,06,07,08,09,10,11,12,1.0,1.0,1.0*30
$GPRMC,035409.151,A,0829.208,N,07657.158,E,000.0,000.0,300824,000.0,W*7F
$GPGGA,035410.151,0829.208,N,07657.158,E,1,12,1.0,0.0,M,0.0,M,,*6E
$GPGSA,A,3,01,02,03,04,05,06,07,08,09,10,11,12,1.0,1.0,1.0*30
$GPRMC,035410.151,A,0829.208,N,07657.158,E,000.0,000.0,300824,000.0,W*77
$GPGGA,035411.151,0829.208,N,07657.158,E,1,12,1.0,0.0,M,0.0,M,,*6F
$GPGSA,A,3,01,02,03,04,05,06,07,08,09,10,11,12,1.0,1.0,1.0*30
$GPRMC,035411.151,A,0829.208,N,07657.158,E,000.0,000.0,300824,000.0,W*76
$GPGGA,035412.151,0829.208,N,07657.158,E,1,12,1.0,0.0,M,0.0,M,,*6C
$GPGSA,A,3,01,02,03,04,05,06,07,08,09,10,11,12,1.0,1.0,1.0*30
$GPRMC,035412.151,A,0829.208,N,07657.158,E,000.0,000.0,300824,000.0,W*75
$GPGGA,035413.151,0829.208,N,07657.158,E,1,12,1.0,0.0,M,0.0,M,,*6D
$GPGSA,A,3,01,02,03,04,05,06,07,08,09,10,11,12,1.0,1.0,1.0*30
$GPRMC,035413.151,A,0829.208,N,07657.158,E,000.0,000.0,300824,000.0,W*74
$GPGGA,035414.151,0829.208,N,07657.158,E,1,12,1.0,0.0,M,0.0,M,,*6A
$GPGSA,A,3,01,02,03,04,05,06,07,08,09,10,11,12,1.0,1.0,1.0*30
$GPRMC,035414.151,A,0829.208,N,07657.158,E,000.0,000.0,300824,000.0,W*73
$GPGGA,035415.151,0829.208,N,07657.158,E,1,12,1.0,0.0,M,0.0,M,,*6B
$GPGSA,A,3,01,02,03,04,05,06,07,08,09,10,11,12,1.0,1.0,1.0*30
$GPRMC,035415.151,A,0829.208,N,07657.158,E,000.0,000.0,300824,000.0,W*72
$GPGGA,035416.151,0829.208,N,07657.158,E,1,12,1.0,0.0,M,0.0,M,,*68
$GPGSA,A,3,01,02,03,04,05,06,07,08,09,10,11,12,1.0,1.0,1.0*30
$GPRMC,035416.151,A,0829.208,N,07657.158,E,000.0,000.0,300824,000.0,W*71
$GPGGA,035417.151,0829.208,N,07657.158,E,1,12,1.0,0.0,M,0.0,M,,*69
$GPGSA,A,3,01,02,03,04,05,06,07,08,09,10,11,12,1.0,1.0,1.0*30
$GPRMC,035417.151,A,0829.208,N,07657.158,E,000.0,000.0,300824,000.0,W*70
$GPGGA,035418.151,0829.208,N,07657.158,E,1,12,1.0,0.0,M,0.0,M,,*66
$GPGSA,A,3,01,02,03,04,05,06,07,08,09,10,11,12,1.0,1.0,1.0*30
$GPRMC,035418.151,A,0829.208,N,07657.158,E,000.0,000.0,300824,000.0,W*7F
$GPGGA,035419.151,0829.208,N,07657.158,E,1,12,1.0,0.0,M,0.0,M,,*67
$GPGSA,A,3,01,02,03,04,05,06,07,08,09,10,11,12,1.0,1.0,1.0*30
$GPRMC,035419.151,A,0829.208,N,07657.158,E,000.0,000.0,300824,000.0,W*7E
$GPGGA,035420.151,0829.208,N,07657.158,E,1,12,1.0,0.0,M,0.0,M,,*6D
$GPGSA,A,3,01,02,03,04,05,06,07,08,09,10,11,12,1.0,1.0,1.0*30
$GPRMC,035420.151,A,0829.208,N,07657.158,E,000.0,000.0,300824,000.0,W*74
$GPGGA,035421.151,0829.208,N,07657.158,E,1,12,1.0,0.0,M,0.0,M,,*6C
$GPGSA,A,3,01,02,03,04,05,06,07,08,09,10,11,12,1.0,1.0,1.0*30
$GPRMC,035421.151,A,0829.208,N,07657.158,E,000.0,000.0,300824,000.0,W*75
$GPGGA,035422.151,0829.208,N,07657.158,E,1,12,1.0,0.0,M,0.0,M,,*6F
$GPGSA,A,3,01,02,03,04,05,06,07,08,09,10,11,12,1.0,1.0,1.0*30
$GPRMC,035422.151,A,0829.208,N,07657.158,E,000.0,000.0,300824,000.0,W*76
$GPGGA,035423.151,0829.208,N,07657.158,E,1,12,1.0,0.0,M,0.0,M,,*6E
$GPGSA,A,3,01,02,03,04,05,06,07,08,09,10,11,12,1.0,1.0,1.0*30
$GPRMC,035423.151,A,0829.208,N,07657.158,E,000.0,000.0,300824,000.0,W*77
$GPGGA,035424.151,0829.208,N,07657.158,E,1,12,1.0,0.0,M,0.0,M,,*69
$GPGSA,A,3,01,02,03,04,05,06,07,08,09,10,11,12,1.0,1.0,1.0*30
$GPRMC,035424.151,A,0829.208,N,07657.158,E,000.0,000.0,300824,000.0,W*70
$GPGGA,035425.151,0829.208,N,07657.158,E,1,12,1.0,0.0,M,0.0,M,,*68
$GPGSA,A,3,01,02,03,04,05,06,07,08,09,10,11,12,1.0,1.0,1.0*30
$GPRMC,035425.151,A,0829.208,N,07657.158,E,000.0,000.0,300824,000.0,W*71
$GPGGA,035426.151,0829.208,N,07657.158,E,1,12,1.0,0.0,M,0.0,M,,*6B
$GPGSA,A,3,01,02,03,04,05,06,07,08,09,10,11,12,1.0,1.0,1.0*30
$GPRMC,035426.151,A,0829.208,N,07657.158,E,000.0,000.0,300824,000.0,W*72
$GPGGA,035427.151,0829.208,N,07657.158,E,1,12,1.0,0.0,M,0.0,M,,*6A
$GPGSA,A,3,01,02,03,04,05,06,07,08,09,10,11,12,1.0,1.0,1.0*30
$GPRMC,035427.151,A,0829.208,N,07657.158,E,000.0,000.0,300824,000.0,W*73
$GPGGA,035428.151,0829.208,N,07657.158,E,1,12,1.0,0.0,M,0.0,M,,*65
$GPGSA,A,3,01,02,03,04,05,06,07,08,09,10,11,12,1.0,1.0,1.0*30
$GPRMC,035428.151,A,0829.208,N,07657.158,E,000.0,000.0,300824,000.0,W*7C
$GPGGA,035429.151,0829.208,N,07657.158,E,1,12,1.0,0.0,M,0.0,M,,*64
$GPGSA,A,3,01,02,03,04,05,06,07,08,09,10,11,12,1.0,1.0,1.0*30
$GPRMC,035429.151,A,0829.208,N,07657.158,E,000.0,000.0,300824,000.0,W*7D
$GPGGA,035430.151,0829.208,N,07657.158,E,1,12,1.0,0.0,M,0.0,M,,*6C
$GPGSA,A,3,01,02,03,04,05,06,07,08,09,10,11,12,1.0,1.0,1.0*30
$GPRMC,035430.151,A,0829.208,N,07657.158,E,000.0,000.0,300824,000.0,W*75
$GPGGA,035431.151,0829.208,N,07657.158,E,1,12,1.0,0.0,M,0.0,M,,*6D
$GPGSA,A,3,01,02,03,04,05,06,07,08,09,10,11,12,1.0,1.0,1.0*30
$GPRMC,035431.151,A,0829.208,N,07657.158,E,000.0,000.0,300824,000.0,W*74
$GPGGA,035432.151,0829.208,N,07657.158,E,1,12,1.0,0.0,M,0.0,M,,*6E
$GPGSA,A,3,01,02,03,04,05,06,07,08,09,10,11,12,1.0,1.0,1.0*30
$GPRMC,035432.151,A,0829.208,N,07657.158,E,000.0,000.0,300824,000.0,W*77
$GPGGA,035433.151,0829.208,N,07657.158,E,1,12,1.0,0.0,M,0.0,M,,*6F
$GPGSA,A,3,01,02,03,04,05,06,07,08,09,10,11,12,1.0,1.0,1.0*30
$GPRMC,035433.151,A,0829.208,N,07657.158,E,000.0,000.0,300824,000.0,W*76
$GPGGA,035434.151,0829.208,N,07657.158,E,1,12,1.0,0.0,M,0.0,M,,*68
$GPGSA,A,3,01,02,03,04,05,06,07,08,09,10,11,12,1.0,1.0,1.0*30
$GPRMC,035434.151,A,0829.208,N,07657.158,E,000.0,000.0,300824,000.0,W*71
$GPGGA,035435.151,0829.208,N,07657.158,E,1,12,1.0,0.0,M,0.0,M,,*69
$GPGSA,A,3,01,02,03,04,05,06,07,08,09,10,11,12,1.0,1.0,1.0*30
$GPRMC,035435.151,A,0829.208,N,07657.158,E,000.0,000.0,300824,000.0,W*70
$GPGGA,035436.151,0829.208,N,07657.158,E,1,12,1.0,0.0,M,0.0,M,,*6A
$GPGSA,A,3,01,02,03,04,05,06,07,08,09,10,11,12,1.0,1.0,1.0*30
$GPRMC,035436.151,A,0829.208,N,07657.158,E,000.0,000.0,300824,000.0,W*73
$GPGGA,035437.151,0829.208,N,07657.158,E,1,12,1.0,0.0,M,0.0,M,,*6B
$GPGSA,A,3,01,02,03,04,05,06,07,08,09,10,11,12,1.0,1.0,1.0*30
$GPRMC,035437.151,A,0829.208,N,07657.158,E,000.0,000.0,300824,000.0,W*72
$GPGGA,035438.151,0829.208,N,07657.158,E,1,12,1.0,0.0,M,0.0,M,,*64
$GPGSA,A,3,01,02,03,04,05,06,07,08,09,10,11,12,1.0,1.0,1.0*30
$GPRMC,035438.151,A,0829.208,N,07657.158,E,000.0,000.0,300824,000.0,W*7D
$GPGGA,035439.151,0829.208,N,07657.158,E,1,12,1.0,0.0,M,0.0,M,,*65
$GPGSA,A,3,01,02,03,04,05,06,07,08,09,10,11,12,1.0,1.0,1.0*30
$GPRMC,035439.151,A,0829.208,N,07657.158,E,000.0,000.0,300824,000.0,W*7C
$GPGGA,035440.151,0829.208,N,07657.158,E,1,12,1.0,0.0,M,0.0,M,,*6B
$GPGSA,A,3,01,02,03,04,05,06,07,08,09,10,11,12,1.0,1.0,1.0*30
$GPRMC,035440.151,A,0829.208,N,07657.158,E,000.0,000.0,300824,000.0,W*72
$GPGGA,035441.151,0829.208,N,07657.158,E,1,12,1.0,0.0,M,0.0,M,,*6A
$GPGSA,A,3,01,02,03,04,05,06,07,08,09,10,11,12,1.0,1.0,1.0*30
$GPRMC,035441.151,A,0829.208,N,07657.158,E,000.0,000.0,300824,000.0,W*73
$GPGGA,035442.151,0829.208,N,07657.158,E,1,12,1.0,0.0,M,0.0,M,,*69
$GPGSA,A,3,01,02,03,04,05,06,07,08,09,10,11,12,1.0,1.0,1.0*30
$GPRMC,035442.151,A,0829.208,N,07657.158,E,000.0,000.0,300824,000.0,W*70
$GPGGA,035443.151,0829.208,N,07657.158,E,1,12,1.0,0.0,M,0.0,M,,*68
$GPGSA,A,3,01,02,03,04,05,06,07,08,09,10,11,12,1.0,1.0,1.0*30
$GPRMC,035443.151,A,0829.208,N,07657.158,E,000.0,000.0,300824,000.0,W*71
$GPGGA,035444.151,0829.208,N,07657.158,E,1,12,1.0,0.0,M,0.0,M,,*6F
$GPGSA,A,3,01,02,03,04,05,06,07,08,09,10,11,12,1.0,1.0,1.0*30
$GPRMC,035444.151,A,0829.208,N,07657.158,E,000.0,000.0,300824,000.0,W*76
$GPGGA,035445.151,0829.208,N,07657.158,E,1,12,1.0,0.0,M,0.0,M,,*6E
$GPGSA,A,3,01,02,03,04,05,06,07,08,09,10,11,12,1.0,1.0,1.0*30
$GPRMC,035445.151,A,0829.208,N,07657.158,E,000.0,000.0,300824,000.0,W*77
$GPGGA,035446.151,0829.208,N,07657.158,E,1,12,1.0,0.0,M,0.0,M,,*6D
$GPGSA,A,3,01,02,03,04,05,06,07,08,09,10,11,12,1.0,1.0,1.0*30
$GPRMC,035446.151,A,0829.208,N,07657.158,E,000.0,000.0,300824,000.0,W*74
$GPGGA,035447.151,0829.208,N,07657.158,E,1,12,1.0,0.0,M,0.0,M,,*6C
$GPGSA,A,3,01,02,03,04,05,06,07,08,09,10,11,12,1.0,1.0,1.0*30
$GPRMC,035447.151,A,0829.208,N,07657.158,E,000.0,000.0,300824,000.0,W*75
$GPGGA,035448.151,0829.208,N,07657.158,E,1,12,1.0,0.0,M,0.0,M,,*63
$GPGSA,A,3,01,02,03,04,05,06,07,08,09,10,11,12,1.0,1.0,1.0*30
$GPRMC,035448.151,A,0829.208,N,07657.158,E,000.0,000.0,300824,000.0,W*7A
$GPGGA,035449.151,0829.208,N,07657.158,E,1,12,1.0,0.0,M,0.0,M,,*62
$GPGSA,A,3,01,02,03,04,05,06,07,08,09,10,11,12,1.0,1.0,1.0*30
$GPRMC,035449.151,A,0829.208,N,07657.158,E,000.0,000.0,300824,000.0,W*7B
$GPGGA,035450.151,0829.208,N,07657.158,E,1,12,1.0,0.0,M,0.0,M,,*6A
$GPGSA,A,3,01,02,03,04,05,06,07,08,09,10,11,12,1.0,1.0,1.0*30
$GPRMC,035450.151,A,0829.208,N,07657.158,E,000.0,000.0,300824,000.0,W*73
$GPGGA,035451.151,0829.208,N,07657.158,E,1,12,1.0,0.0,M,0.0,M,,*6B
$GPGSA,A,3,01,02,03,04,05,06,07,08,09,10,11,12,1.0,1.0,1.0*30
$GPRMC,035451.151,A,0829.208,N,07657.158,E,000.0,000.0,300824,000.0,W*72
$GPGGA,035452.151,0829.208,N,07657.158,E,1,12,1.0,0.0,M,0.0,M,,*68
$GPGSA,A,3,01,02,03,04,05,06,07,08,09,10,11,12,1.0,1.0,1.0*30
$GPRMC,035452.151,A,0829.208,N,07657.158,E,000.0,000.0,300824,000.0,W*71
$GPGGA,035453.151,0829.208,N,07657.158,E,1,12,1.0,0.0,M,0.0,M,,*69
$GPGSA,A,3,01,02,03,04,05,06,07,08,09,10,11,12,1.0,1.0,1.0*30
$GPRMC,035453.151,A,0829.208,N,07657.158,E,000.0,000.0,300824,000.0,W*70
$GPGGA,035454.151,0829.208,N,07657.158,E,1,12,1.0,0.0,M,0.0,M,,*6E
$GPGSA,A,3,01,02,03,04,05,06,07,08,09,10,11,12,1.0,1.0,1.0*30
$GPRMC,035454.151,A,0829.208,N,07657.158,E,000.0,000.0,300824,000.0,W*77
$GPGGA,035455.151,0829.208,N,07657.158,E,1,12,1.0,0.0,M,0.0,M,,*6F
$GPGSA,A,3,01,02,03,04,05,06,07,08,09,10,11,12,1.0,1.0,1.0*30
$GPRMC,035455.151,A,0829.208,N,07657.158,E,000.0,000.0,300824,000.0,W*76
$GPGGA,035456.151,0829.208,N,07657.158,E,1,12,1.0,0.0,M,0.0,M,,*6C
$GPGSA,A,3,01,02,03,04,05,06,07,08,09,10,11,12,1.0,1.0,1.0*30
$GPRMC,035456.151,A,0829.208,N,07657.158,E,000.0,000.0,300824,000.0,W*75
$GPGGA,035457.151,0829.208,N,07657.158,E,1,12,1.0,0.0,M,0.0,M,,*6D
$GPGSA,A,3,01,02,03,04,05,06,07,08,09,10,11,12,1.0,1.0,1.0*30
$GPRMC,035457.151,A,0829.208,N,07657.158,E,000.0,000.0,300824,000.0,W*74
$GPGGA,035458.151,0829.208,N,07657.158,E,1,12,1.0,0.0,M,0.0,M,,*62
$GPGSA,A,3,01,02,03,04,05,06,07,08,09,10,11,12,1.0,1.0,1.0*30
$GPRMC,035458.151,A,0829.208,N,07657.158,E,000.0,000.0,300824,000.0,W*7B
$GPGGA,035459.151,0829.208,N,07657.158,E,1,12,1.0,0.0,M,0.0,M,,*63
$GPGSA,A,3,01,02,03,04,05,06,07,08,09,10,11,12,1.0,1.0,1.0*30
$GPRMC,035459.151,A,0829.208,N,07657.158,E,000.0,000.0,300824,000.0,W*7A
$GPGGA,035500.151,0829.208,N,07657.158,E,1,12,1.0,0.0,M,0.0,M,,*6E
$GPGSA,A,3,01,02,03,04,05,06,07,08,09,10,11,12,1.0,1.0,1.0*30
$GPRMC,035500.151,A,0829.208,N,07657.158,E,000.0,000.0,300824,000.0,W*77
$GPGGA,035501.151,0829.208,N,07657.158,E,1,12,1.0,0.0,M,0.0,M,,*6F
$GPGSA,A,3,01,02,03,04,05,06,07,08,09,10,11,12,1.0,1.0,1.0*30
$GPRMC,035501.151,A,0829.208,N,07657.158,E,000.0,000.0,300824,000.0,W*76
$GPGGA,035502.151,0829.208,N,07657.158,E,1,12,1.0,0.0,M,0.0,M,,*6C
$GPGSA,A,3,01,02,03,04,05,06,07,08,09,10,11,12,1.0,1.0,1.0*30
$GPRMC,035502.151,A,0829.208,N,07657.158,E,000.0,000.0,300824,000.0,W*75
$GPGGA,035503.151,0829.208,N,07657.158,E,1,12,1.0,0.0,M,0.0,M,,*6D
$GPGSA,A,3,01,02,03,04,05,06,07,08,09,10,11,12,1.0,1.0,1.0*30
$GPRMC,035503.151,A,0829.208,N,07657.158,E,000.0,000.0,300824,000.0,W*74
$GPGGA,035504.151,0829.208,N,07657.158,E,1,12,1.0,0.0,M,0.0,M,,*6A
$GPGSA,A,3,01,02,03,04,05,06,07,08,09,10,11,12,1.0,1.0,1.0*30
$GPRMC,035504.151,A,0829.208,N,07657.158,E,000.0,000.0,300824,000.0,W*73
$GPGGA,035505.151,0829.208,N,07657.158,E,1,12,1.0,0.0,M,0.0,M,,*6B
$GPGSA,A,3,01,02,03,04,05,06,07,08,09,10,11,12,1.0,1.0,1.0*30
$GPRMC,035505.151,A,0829.208,N,07657.158,E,000.0,000.0,300824,000.0,W*72
$GPGGA,035506.151,0829.208,N,07657.158,E,1,12,1.0,0.0,M,0.0,M,,*68
$GPGSA,A,3,01,02,03,04,05,06,07,08,09,10,11,12,1.0,1.0,1.0*30
$GPRMC,035506.151,A,0829.208,N,07657.158,E,000.0,000.0,300824,000.0,W*71
$GPGGA,035507.151,0829.208,N,07657.158,E,1,12,1.0,0.0,M,0.0,M,,*69
$GPGSA,A,3,01,02,03,04,05,06,07,08,09,10,11,12,1.0,1.0,1.0*30
$GPRMC,035507.151,A,0829.208,N,07657.158,E,000.0,000.0,300824,000.0,W*70
$GPGGA,035508.151,0829.208,N,07657.158,E,1,12,1.0,0.0,M,0.0,M,,*66
$GPGSA,A,3,01,02,03,04,05,06,07,08,09,10,11,12,1.0,1.0,1.0*30
$GPRMC,035508.151,A,0829.208,N,07657.158,E,000.0,000.0,300824,000.0,W*7F
$GPGGA,035509.151,0829.208,N,07657.158,E,1,12,1.0,0.0,M,0.0,M,,*67
$GPGSA,A,3,01,02,03,04,05,06,07,08,09,10,11,12,1.0,1.0,1.0*30
$GPRMC,035509.151,A,0829.208,N,07657.158,E,000.0,000.0,300824,000.0,W*7E
$GPGGA,035510.151,0829.208,N,07657.158,E,1,12,1.0,0.0,M,0.0,M,,*6F
$GPGSA,A,3,01,02,03,04,05,06,07,08,09,10,11,12,1.0,1.0,1.0*30
$GPRMC,035510.151,A,0829.208,N,07657.158,E,000.0,000.0,300824,000.0,W*76
$GPGGA,035511.151,0829.208,N,07657.158,E,1,12,1.0,0.0,M,0.0,M,,*6E
$GPGSA,A,3,01,02,03,04,05,06,07,08,09,10,11,12,1.0,1.0,1.0*30
$GPRMC,035511.151,A,0829.208,N,07657.158,E,000.0,000.0,300824,000.0,W*77
$GPGGA,035512.151,0829.208,N,07657.158,E,1,12,1.0,0.0,M,0.0,M,,*6D
$GPGSA,A,3,01,02,03,04,05,06,07,08,09,10,11,12,1.0,1.0,1.0*30
$GPRMC,035512.151,A,0829.208,N,07657.158,E,000.0,000.0,300824,000.0,W*74
$GPGGA,035513.151,0829.208,N,07657.158,E,1,12,1.0,0.0,M,0.0,M,,*6C
$GPGSA,A,3,01,02,03,04,05,06,07,08,09,10,11,12,1.0,1.0,1.0*30
$GPRMC,035513.151,A,0829.208,N,07657.158,E,000.0,000.0,300824,000.0,W*75
$GPGGA,035514.151,0829.208,N,07657.158,E,1,12,1.0,0.0,M,0.0,M,,*6B
$GPGSA,A,3,01,02,03,04,05,06,07,08,09,10,11,12,1.0,1.0,1.0*30
$GPRMC,035514.151,A,0829.208,N,07657.158,E,000.0,000.0,300824,000.0,W*72
$GPGGA,035515.151,0829.208,N,07657.158,E,1,12,1.0,0.0,M,0.0,M,,*6A
$GPGSA,A,3,01,02,03,04,05,06,07,08,09,10,11,12,1.0,1.0,1.0*30
$GPRMC,035515.151,A,0829.208,N,07657.158,E,000.0,000.0,300824,000.0,W*73
$GPGGA,035516.151,0829.208,N,07657.158,E,1,12,1.0,0.0,M,0.0,M,,*69
$GPGSA,A,3,01,02,03,04,05,06,07,08,09,10,11,12,1.0,1.0,1.0*30
$GPRMC,035516.151,A,0829.208,N,07657.158,E,000.0,000.0,300824,000.0,W*70
$GPGGA,035517.151,0829.208,N,07657.158,E,1,12,1.0,0.0,M,0.0,M,,*68
$GPGSA,A,3,01,02,03,04,05,06,07,08,09,10,11,12,1.0,1.0,1.0*30
$GPRMC,035517.151,A,0829.208,N,07657.158,E,000.0,000.0,300824,000.0,W*71
$GPGGA,035518.151,0829.208,N,07657.158,E,1,12,1.0,0.0,M,0.0,M,,*67
$GPGSA,A,3,01,02,03,04,05,06,07,08,09,10,11,12,1.0,1.0,1.0*30
$GPRMC,035518.151,A,0829.208,N,07657.158,E,000.0,000.0,300824,000.0,W*7E
$GPGGA,035519.151,0829.208,N,07657.158,E,1,12,1.0,0.0,M,0.0,M,,*66
$GPGSA,A,3,01,02,03,04,05,06,07,08,09,10,11,12,1.0,1.0,1.0*30
$GPRMC,035519.151,A,0829.208,N,07657.158,E,000.0,000.0,300824,000.0,W*7F
$GPGGA,035520.151,0829.208,N,07657.158,E,1,12,1.0,0.0,M,0.0,M,,*6C
$GPGSA,A,3,01,02,03,04,05,06,07,08,09,10,11,12,1.0,1.0,1.0*30
$GPRMC,035520.151,A,0829.208,N,07657.158,E,000.0,000.0,300824,000.0,W*75
$GPGGA,035521.151,0829.208,N,07657.158,E,1,12,1.0,0.0,M,0.0,M,,*6D
$GPGSA,A,3,01,02,03,04,05,06,07,08,09,10,11,12,1.0,1.0,1.0*30
$GPRMC,035521.151,A,0829.208,N,07657.158,E,000.0,000.0,300824,000.0,W*74
$GPGGA,035522.151,0829.208,N,07657.158,E,1,12,1.0,0.0,M,0.0,M,,*6E
$GPGSA,A,3,01,02,03,04,05,06,07,08,09,10,11,12,1.0,1.0,1.0*30
$GPRMC,035522.151,A,0829.208,N,07657.158,E,000.0,000.0,300824,000.0,W*77
$GPGGA,035523.151,0829.208,N,07657.158,E,1,12,1.0,0.0,M,0.0,M,,*6F
$GPGSA,A,3,01,02,03,04,05,06,07,08,09,10,11,12,1.0,1.0,1.0*30
$GPRMC,035523.151,A,0829.208,N,07657.158,E,000.0,000.0,300824,000.0,W*76
$GPGGA,035524.151,0829.208,N,07657.158,E,1,12,1.0,0.0,M,0.0,M,,*68
$GPGSA,A,3,01,02,03,04,05,06,07,08,09,10,11,12,1.0,1.0,1.0*30
$GPRMC,035524.151,A,0829.208,N,07657.158,E,000.0,000.0,300824,000.0,W*71
$GPGGA,035525.151,0829.208,N,07657.158,E,1,12,1.0,0.0,M,0.0,M,,*69
$GPGSA,A,3,01,02,03,04,05,06,07,08,09,10,11,12,1.0,1.0,1.0*30
$GPRMC,035525.151,A,0829.208,N,07657.158,E,000.0,000.0,300824,000.0,W*70
$GPGGA,035526.151,0829.208,N,07657.158,E,1,12,1.0,0.0,M,0.0,M,,*6A
$GPGSA,A,3,01,02,03,04,05,06,07,08,09,10,11,12,1.0,1.0,1.0*30
$GPRMC,035526.151,A,0829.208,N,07657.158,E,000.0,000.0,300824,000.0,W*73
$GPGGA,035527.151,0829.208,N,07657.158,E,1,12,1.0,0.0,M,0.0,M,,*6B
$GPGSA,A,3,01,02,03,04,05,06,07,08,09,10,11,12,1.0,1.0,1.0*30
$GPRMC,035527.151,A,0829.208,N,07657.158,E,000.0,000.0,300824,000.0,W*72
$GPGGA,035528.151,0829.208,N,07657.158,E,1,12,1.0,0.0,M,0.0,M,,*64
$GPGSA,A,3,01,02,03,04,05,06,07,08,09,10,11,12,1.0,1.0,1.0*30
$GPRMC,035528.151,A,0829.208,N,07657.158,E,000.0,000.0,300824,000.0,W*7D
$GPGGA,035529.151,0829.208,N,07657.158,E,1,12,1.0,0.0,M,0.0,M,,*65
$GPGSA,A,3,01,02,03,04,05,06,07,08,09,10,11,12,1.0,1.0,1.0*30
$GPRMC,035529.151,A,0829.208,N,07657.158,E,000.0,000.0,300824,000.0,W*7C
$GPGGA,035530.151,0829.208,N,07657.158,E,1,12,1.0,0.0,M,0.0,M,,*6D
$GPGSA,A,3,01,02,03,04,05,06,07,08,09,10,11,12,1.0,1.0,1.0*30
$GPRMC,035530.151,A,0829.208,N,07657.158,E,000.0,000.0,300824,000.0,W*74
$GPGGA,035531.151,0829.208,N,07657.158,E,1,12,1.0,0.0,M,0.0,M,,*6C
$GPGSA,A,3,01,02,03,04,05,06,07,08,09,10,11,12,1.0,1.0,1.0*30
$GPRMC,035531.151,A,0829.208,N,07657.158,E,000.0,000.0,300824,000.0,W*75
$GPGGA,035532.151,0829.208,N,07657.158,E,1,12,1.0,0.0,M,0.0,M,,*6F
$GPGSA,A,3,01,02,03,04,05,06,07,08,09,10,11,12,1.0,1.0,1.0*30
$GPRMC,035532.151,A,0829.208,N,07657.158,E,000.0,000.0,300824,000.0,W*76
$GPGGA,035533.151,0829.208,N,07657.158,E,1,12,1.0,0.0,M,0.0,M,,*6E
$GPGSA,A,3,01,02,03,04,05,06,07,08,09,10,11,12,1.0,1.0,1.0*30
$GPRMC,035533.151,A,0829.208,N,07657.158,E,000.0,000.0,300824,000.0,W*77
$GPGGA,035534.151,0829.208,N,07657.158,E,1,12,1.0,0.0,M,0.0,M,,*69
$GPGSA,A,3,01,02,03,04,05,06,07,08,09,10,11,12,1.0,1.0,1.0*30
$GPRMC,035534.151,A,0829.208,N,07657.158,E,000.0,000.0,300824,000.0,W*70
$GPGGA,035535.151,0829.208,N,07657.158,E,1,12,1.0,0.0,M,0.0,M,,*68
$GPGSA,A,3,01,02,03,04,05,06,07,08,09,10,11,12,1.0,1.0,1.0*30
$GPRMC,035535.151,A,0829.208,N,07657.158,E,000.0,000.0,300824,000.0,W*71
$GPGGA,035536.151,0829.208,N,07657.158,E,1,12,1.0,0.0,M,0.0,M,,*6B
$GPGSA,A,3,01,02,03,04,05,06,07,08,09,10,11,12,1.0,1.0,1.0*30
$GPRMC,035536.151,A,0829.208,N,07657.158,E,000.0,000.0,300824,000.0,W*72
$GPGGA,035537.151,0829.208,N,07657.158,E,1,12,1.0,0.0,M,0.0,M,,*6A
$GPGSA,A,3,01,02,03,04,05,06,07,08,09,10,11,12,1.0,1.0,1.0*30
$GPRMC,035537.151,A,0829.208,N,07657.158,E,000.0,000.0,300824,000.0,W*73
$GPGGA,035538.151,0829.208,N,07657.158,E,1,12,1.0,0.0,M,0.0,M,,*65
$GPGSA,A,3,01,02,03,04,05,06,07,08,09,10,11,12,1.0,1.0,1.0*30
$GPRMC,035538.151,A,0829.208,N,07657.158,E,000.0,000.0,300824,000.0,W*7C
$GPGGA,035539.151,0829.208,N,07657.158,E,1,12,1.0,0.0,M,0.0,M,,*64
$GPGSA,A,3,01,02,03,04,05,06,07,08,09,10,11,12,1.0,1.0,1.0*30
$GPRMC,035539.151,A,0829.208,N,07657.158,E,000.0,000.0,300824,000.0,W*7D
$GPGGA,035540.151,0829.208,N,07657.158,E,1,12,1.0,0.0,M,0.0,M,,*6A
$GPGSA,A,3,01,02,03,04,05,06,07,08,09,10,11,12,1.0,1.0,1.0*30
$GPRMC,035540.151,A,0829.208,N,07657.158,E,000.0,000.0,300824,000.0,W*73
$GPGGA,035541.151,0829.208,N,07657.158,E,1,12,1.0,0.0,M,0.0,M,,*6B
$GPGSA,A,3,01,02,03,04,05,06,07,08,09,10,11,12,1.0,1.0,1.0*30
$GPRMC,035541.151,A,0829.208,N,07657.158,E,000.0,000.0,300824,000.0,W*72
$GPGGA,035542.151,0829.208,N,07657.158,E,1,12,1.0,0.0,M,0.0,M,,*68
$GPGSA,A,3,01,02,03,04,05,06,07,08,09,10,11,12,1.0,1.0,1.0*30
$GPRMC,035542.151,A,0829.208,N,07657.158,E,000.0,000.0,300824,000.0,W*71
$GPGGA,035543.151,0829.208,N,07657.158,E,1,12,1.0,0.0,M,0.0,M,,*69
$GPGSA,A,3,01,02,03,04,05,06,07,08,09,10,11,12,1.0,1.0,1.0*30
$GPRMC,035543.151,A,0829.208,N,07657.158,E,000.0,000.0,300824,000.0,W*70
$GPGGA,035544.151,0829.208,N,07657.158,E,1,12,1.0,0.0,M,0.0,M,,*6E
$GPGSA,A,3,01,02,03,04,05,06,07,08,09,10,11,12,1.0,1.0,1.0*30
$GPRMC,035544.151,A,0829.208,N,07657.158,E,000.0,000.0,300824,000.0,W*77
$GPGGA,035545.151,0829.208,N,07657.158,E,1,12,1.0,0.0,M,0.0,M,,*6F
$GPGSA,A,3,01,02,03,04,05,06,07,08,09,10,11,12,1.0,1.0,1.0*30
$GPRMC,035545.151,A,0829.208,N,07657.158,E,000.0,000.0,300824,000.0,W*76
$GPGGA,035546.151,0829.208,N,07657.158,E,1,12,1.0,0.0,M,0.0,M,,*6C
$GPGSA,A,3,01,02,03,04,05,06,07,08,09,10,11,12,1.0,1.0,1.0*30
$GPRMC,035546.151,A,0829.208,N,07657.158,E,000.0,000.0,300824,000.0,W*75
$GPGGA,035547.151,0829.208,N,07657.158,E,1,12,1.0,0.0,M,0.0,M,,*6D
$GPGSA,A,3,01,02,03,04,05,06,07,08,09,10,11,12,1.0,1.0,1.0*30
$GPRMC,035547.151,A,0829.208,N,07657.158,E,000.0,000.0,300824,000.0,W*74
$GPGGA,035548.151,0829.208,N,07657.158,E,1,12,1.0,0.0,M,0.0,M,,*62
$GPGSA,A,3,01,02,03,04,05,06,07,08,09,10,11,12,1.0,1.0,1.0*30
$GPRMC,035548.151,A,0829.208,N,07657.158,E,000.0,000.0,300824,000.0,W*7B
$GPGGA,035549.151,0829.208,N,07657.158,E,1,12,1.0,0.0,M,0.0,M,,*63
$GPGSA,A,3,01,02,03,04,05,06,07,08,09,10,11,12,1.0,1.0,1.0*30
$GPRMC,035549.151,A,0829.208,N,07657.158,E,000.0,000.0,300824,000.0,W*7A
$GPGGA,035550.151,0829.208,N,07657.158,E,1,12,1.0,0.0,M,0.0,M,,*6B
$GPGSA,A,3,01,02,03,04,05,06,07,08,09,10,11,12,1.0,1.0,1.0*30
$GPRMC,035550.151,A,0829.208,N,07657.158,E,000.0,000.0,300824,000.0,W*72
$GPGGA,035551.151,0829.208,N,07657.158,E,1,12,1.0,0.0,M,0.0,M,,*6A
$GPGSA,A,3,01,02,03,04,05,06,07,08,09,10,11,12,1.0,1.0,1.0*30
$GPRMC,035551.151,A,0829.208,N,07657.158,E,000.0,000.0,300824,000.0,W*73
$GPGGA,035552.151,0829.208,N,07657.158,E,1,12,1.0,0.0,M,0.0,M,,*69
$GPGSA,A,3,01,02,03,04,05,06,07,08,09,10,11,12,1.0,1.0,1.0*30
$GPRMC,035552.151,A,0829.208,N,07657.158,E,000.0,000.0,300824,000.0,W*70
$GPGGA,035553.151,0829.208,N,07657.158,E,1,12,1.0,0.0,M,0.0,M,,*68
$GPGSA,A,3,01,02,03,04,05,06,07,08,09,10,11,12,1.0,1.0,1.0*30
$GPRMC,035553.151,A,0829.208,N,07657.158,E,000.0,000.0,300824,000.0,W*71
$GPGGA,035554.151,0829.208,N,07657.158,E,1,12,1.0,0.0,M,0.0,M,,*6F
$GPGSA,A,3,01,02,03,04,05,06,07,08,09,10,11,12,1.0,1.0,1.0*30
$GPRMC,035554.151,A,0829.208,N,07657.158,E,000.0,000.0,300824,000.0,W*76
$GPGGA,035555.151,0829.208,N,07657.158,E,1,12,1.0,0.0,M,0.0,M,,*6E
$GPGSA,A,3,01,02,03,04,05,06,07,08,09,10,11,12,1.0,1.0,1.0*30
$GPRMC,035555.151,A,0829.208,N,07657.158,E,000.0,000.0,300824,000.0,W*77
$GPGGA,035556.151,0829.208,N,07657.158,E,1,12,1.0,0.0,M,0.0,M,,*6D
$GPGSA,A,3,01,02,03,04,05,06,07,08,09,10,11,12,1.0,1.0,1.0*30
$GPRMC,035556.151,A,0829.208,N,07657.158,E,000.0,000.0,300824,000.0,W*74
$GPGGA,035557.151,0829.208,N,07657.158,E,1,12,1.0,0.0,M,0.0,M,,*6C
$GPGSA,A,3,01,02,03,04,05,06,07,08,09,10,11,12,1.0,1.0,1.0*30
$GPRMC,035557.151,A,0829.208,N,07657.158,E,000.0,000.0,300824,000.0,W*75
$GPGGA,035558.151,0829.208,N,07657.158,E,1,12,1.0,0.0,M,0.0,M,,*63
$GPGSA,A,3,01,02,03,04,05,06,07,08,09,10,11,12,1.0,1.0,1.0*30
$GPRMC,035558.151,A,0829.208,N,07657.158,E,000.0,000.0,300824,000.0,W*7A
$GPGGA,035559.151,0829.208,N,07657.158,E,1,12,1.0,0.0,M,0.0,M,,*62
$GPGSA,A,3,01,02,03,04,05,06,07,08,09,10,11,12,1.0,1.0,1.0*30
$GPRMC,035559.151,A,0829.208,N,07657.158,E,000.0,000.0,300824,000.0,W*7B
$GPGGA,035600.151,0829.208,N,07657.158,E,1,12,1.0,0.0,M,0.0,M,,*6D
$GPGSA,A,3,01,02,03,04,05,06,07,08,09,10,11,12,1.0,1.0,1.0*30
$GPRMC,035600.151,A,0829.208,N,07657.158,E,000.0,000.0,300824,000.0,W*74
$GPGGA,035601.151,0829.208,N,07657.158,E,1,12,1.0,0.0,M,0.0,M,,*6C
$GPGSA,A,3,01,02,03,04,05,06,07,08,09,10,11,12,1.0,1.0,1.0*30
$GPRMC,035601.151,A,0829.208,N,07657.158,E,000.0,000.0,300824,000.0,W*75
$GPGGA,035602.151,0829.208,N,07657.158,E,1,12,1.0,0.0,M,0.0,M,,*6F
$GPGSA,A,3,01,02,03,04,05,06,07,08,09,10,11,12,1.0,1.0,1.0*30
$GPRMC,035602.151,A,0829.208,N,07657.158,E,000.0,000.0,300824,000.0,W*76
$GPGGA,035603.151,0829.208,N,07657.158,E,1,12,1.0,0.0,M,0.0,M,,*6E
$GPGSA,A,3,01,02,03,04,05,06,07,08,09,10,11,12,1.0,1.0,1.0*30
$GPRMC,035603.151,A,0829.208,N,07657.158,E,000.0,000.0,300824,000.0,W*77
$GPGGA,035604.151,0829.208,N,07657.158,E,1,12,1.0,0.0,M,0.0,M,,*69
$GPGSA,A,3,01,02,03,04,05,06,07,08,09,10,11,12,1.0,1.0,1.0*30
$GPRMC,035604.151,A,0829.208,N,07657.158,E,000.0,000.0,300824,000.0,W*70
$GPGGA,035605.151,0829.208,N,07657.158,E,1,12,1.0,0.0,M,0.0,M,,*68
$GPGSA,A,3,01,02,03,04,05,06,07,08,09,10,11,12,1.0,1.0,1.0*30
$GPRMC,035605.151,A,0829.208,N,07657.158,E,000.0,000.0,300824,000.0,W*71
$GPGGA,035606.151,0829.208,N,07657.158,E,1,12,1.0,0.0,M,0.0,M,,*6B
$GPGSA,A,3,01,02,03,04,05,06,07,08,09,10,11,12,1.0,1.0,1.0*30
$GPRMC,035606.151,A,0829.208,N,07657.158,E,000.0,000.0,300824,000.0,W*72
$GPGGA,035607.151,0829.208,N,07657.158,E,1,12,1.0,0.0,M,0.0,M,,*6A
$GPGSA,A,3,01,02,03,04,05,06,07,08,09,10,11,12,1.0,1.0,1.0*30
$GPRMC,035607.151,A,0829.208,N,07657.158,E,000.0,000.0,300824,000.0,W*73
$GPGGA,035608.151,0829.208,N,07657.158,E,1,12,1.0,0.0,M,0.0,M,,*65
$GPGSA,A,3,01,02,03,04,05,06,07,08,09,10,11,12,1.0,1.0,1.0*30
$GPRMC,035608.151,A,0829.208,N,07657.158,E,000.0,000.0,300824,000.0,W*7C
$GPGGA,035609.151,0829.208,N,07657.158,E,1,12,1.0,0.0,M,0.0,M,,*64
$GPGSA,A,3,01,02,03,04,05,06,07,08,09,10,11,12,1.0,1.0,1.0*30
$GPRMC,035609.151,A,0829.208,N,07657.158,E,000.0,000.0,300824,000.0,W*7D
$GPGGA,035610.151,0829.208,N,07657.158,E,1,12,1.0,0.0,M,0.0,M,,*6C
$GPGSA,A,3,01,02,03,04,05,06,07,08,09,10,11,12,1.0,1.0,1.0*30
$GPRMC,035610.151,A,0829.208,N,07657.158,E,000.0,000.0,300824,000.0,W*75
$GPGGA,035611.151,0829.208,N,07657.158,E,1,12,1.0,0.0,M,0.0,M,,*6D
$GPGSA,A,3,01,02,03,04,05,06,07,08,09,10,11,12,1.0,1.0,1.0*30
$GPRMC,035611.151,A,0829.208,N,07657.158,E,000.0,000.0,300824,000.0,W*74
$GPGGA,035612.151,0829.208,N,07657.158,E,1,12,1.0,0.0,M,0.0,M,,*6E
$GPGSA,A,3,01,02,03,04,05,06,07,08,09,10,11,12,1.0,1.0,1.0*30
$GPRMC,035612.151,A,0829.208,N,07657.158,E,000.0,000.0,300824,000.0,W*77
$GPGGA,035613.151,0829.208,N,07657.158,E,1,12,1.0,0.0,M,0.0,M,,*6F
$GPGSA,A,3,01,02,03,04,05,06,07,08,09,10,11,12,1.0,1.0,1.0*30
$GPRMC,035613.151,A,0829.208,N,07657.158,E,000.0,000.0,300824,000.0,W*76
$GPGGA,035614.151,0829.208,N,07657.158,E,1,12,1.0,0.0,M,0.0,M,,*68
$GPGSA,A,3,01,02,03,04,05,06,07,08,09,10,11,12,1.0,1.0,1.0*30
$GPRMC,035614.151,A,0829.208,N,07657.158,E,000.0,000.0,300824,000.0,W*71
$GPGGA,035615.151,0829.208,N,07657.158,E,1,12,1.0,0.0,M,0.0,M,,*69
$GPGSA,A,3,01,02,03,04,05,06,07,08,09,10,11,12,1.0,1.0,1.0*30
$GPRMC,035615.151,A,0829.208,N,07657.158,E,000.0,000.0,300824,000.0,W*70
$GPGGA,035616.151,0829.208,N,07657.158,E,1,12,1.0,0.0,M,0.0,M,,*6A
$GPGSA,A,3,01,02,03,04,05,06,07,08,09,10,11,12,1.0,1.0,1.0*30
$GPRMC,035616.151,A,0829.208,N,07657.158,E,000.0,000.0,300824,000.0,W*73
$GPGGA,035617.151,0829.208,N,07657.158,E,1,12,1.0,0.0,M,0.0,M,,*6B
$GPGSA,A,3,01,02,03,04,05,06,07,08,09,10,11,12,1.0,1.0,1.0*30
$GPRMC,035617.151,A,0829.208,N,07657.158,E,000.0,000.0,300824,000.0,W*72
$GPGGA,035618.151,0829.208,N,07657.158,E,1,12,1.0,0.0,M,0.0,M,,*64
$GPGSA,A,3,01,02,03,04,05,06,07,08,09,10,11,12,1.0,1.0,1.0*30
$GPRMC,035618.151,A,0829.208,N,07657.158,E,000.0,000.0,300824,000.0,W*7D
$GPGGA,035619.151,0829.208,N,07657.158,E,1,12,1.0,0.0,M,0.0,M,,*65
$GPGSA,A,3,01,02,03,04,05,06,07,08,09,10,11,12,1.0,1.0,1.0*30
$GPRMC,035619.151,A,0829.208,N,07657.158,E,000.0,000.0,300824,000.0,W*7C
$GPGGA,035620.151,0829.208,N,07657.158,E,1,12,1.0,0.0,M,0.0,M,,*6F
$GPGSA,A,3,01,02,03,04,05,06,07,08,09,10,11,12,1.0,1.0,1.0*30
$GPRMC,035620.151,A,0829.208,N,07657.158,E,000.0,000.0,300824,000.0,W*76
$GPGGA,035621.151,0829.208,N,07657.158,E,1,12,1.0,0.0,M,0.0,M,,*6E
$GPGSA,A,3,01,02,03,04,05,06,07,08,09,10,11,12,1.0,1.0,1.0*30
$GPRMC,035621.151,A,0829.208,N,07657.158,E,000.0,000.0,300824,000.0,W*77
$GPGGA,035622.151,0829.208,N,07657.158,E,1,12,1.0,0.0,M,0.0,M,,*6D
$GPGSA,A,3,01,02,03,04,05,06,07,08,09,10,11,12,1.0,1.0,1.0*30
$GPRMC,035622.151,A,0829.208,N,07657.158,E,000.0,000.0,300824,000.0,W*74
$GPGGA,035623.151,0829.208,N,07657.158,E,1,12,1.0,0.0,M,0.0,M,,*6C
$GPGSA,A,3,01,02,03,04,05,06,07,08,09,10,11,12,1.0,1.0,1.0*30
$GPRMC,035623.151,A,0829.208,N,07657.158,E,000.0,000.0,300824,000.0,W*75
$GPGGA,035624.151,0829.208,N,07657.158,E,1,12,1.0,0.0,M,0.0,M,,*6B
$GPGSA,A,3,01,02,03,04,05,06,07,08,09,10,11,12,1.0,1.0,1.0*30
$GPRMC,035624.151,A,0829.208,N,07657.158,E,000.0,000.0,300824,000.0,W*72
$GPGGA,035625.151,0829.208,N,07657.158,E,1,12,1.0,0.0,M,0.0,M,,*6A
$GPGSA,A,3,01,02,03,04,05,06,07,08,09,10,11,12,1.0,1.0,1.0*30
$GPRMC,035625.151,A,0829.208,N,07657.158,E,000.0,000.0,300824,000.0,W*73
$GPGGA,035626.151,0829.208,N,07657.158,E,1,12,1.0,0.0,M,0.0,M,,*69
$GPGSA,A,3,01,02,03,04,05,06,07,08,09,10,11,12,1.0,1.0,1.0*30
$GPRMC,035626.151,A,0829.208,N,07657.158,E,000.0,000.0,300824,000.0,W*70
$GPGGA,035627.151,0829.208,N,07657.158,E,1,12,1.0,0.0,M,0.0,M,,*68
$GPGSA,A,3,01,02,03,04,05,06,07,08,09,10,11,12,1.0,1.0,1.0*30
$GPRMC,035627.151,A,0829.208,N,07657.158,E,000.0,000.0,300824,000.0,W*71
$GPGGA,035628.151,0829.208,N,07657.158,E,1,12,1.0,0.0,M,0.0,M,,*67
$GPGSA,A,3,01,02,03,04,05,06,07,08,09,10,11,12,1.0,1.0,1.0*30
$GPRMC,035628.151,A,0829.208,N,07657.158,E,000.0,000.0,300824,000.0,W*7E
$GPGGA,035629.151,0829.208,N,07657.158,E,1,12,1.0,0.0,M,0.0,M,,*66
$GPGSA,A,3,01,02,03,04,05,06,07,08,09,10,11,12,1.0,1.0,1.0*30
$GPRMC,035629.151,A,0829.208,N,07657.158,E,000.0,000.0,300824,000.0,W*7F
$GPGGA,035630.151,0829.208,N,07657.158,E,1,12,1.0,0.0,M,0.0,M,,*6E
$GPGSA,A,3,01,02,03,04,05,06,07,08,09,10,11,12,1.0,1.0,1.0*30
$GPRMC,035630.151,A,0829.208,N,07657.158,E,000.0,000.0,300824,000.0,W*77
$GPGGA,035631.151,0829.208,N,07657.158,E,1,12,1.0,0.0,M,0.0,M,,*6F
$GPGSA,A,3,01,02,03,04,05,06,07,08,09,10,11,12,1.0,1.0,1.0*30
$GPRMC,035631.151,A,0829.208,N,07657.158,E,000.0,000.0,300824,000.0,W*76
$GPGGA,035632.151,0829.208,N,07657.158,E,1,12,1.0,0.0,M,0.0,M,,*6C
$GPGSA,A,3,01,02,03,04,05,06,07,08,09,10,11,12,1.0,1.0,1.0*30
$GPRMC,035632.151,A,0829.208,N,07657.158,E,000.0,000.0,300824,000.0,W*75
$GPGGA,035633.151,0829.208,N,07657.158,E,1,12,1.0,0.0,M,0.0,M,,*6D
$GPGSA,A,3,01,02,03,04,05,06,07,08,09,10,11,12,1.0,1.0,1.0*30
$GPRMC,035633.151,A,0829.208,N,07657.158,E,000.0,000.0,300824,000.0,W*74
$GPGGA,035634.151,0829.208,N,07657.158,E,1,12,1.0,0.0,M,0.0,M,,*6A
$GPGSA,A,3,01,02,03,04,05,06,07,08,09,10,11,12,1.0,1.0,1.0*30
$GPRMC,035634.151,A,0829.208,N,07657.158,E,000.0,000.0,300824,000.0,W*73
$GPGGA,035635.151,0829.208,N,07657.158,E,1,12,1.0,0.0,M,0.0,M,,*6B
$GPGSA,A,3,01,02,03,04,05,06,07,08,09,10,11,12,1.0,1.0,1.0*30
$GPRMC,035635.151,A,0829.208,N,07657.158,E,000.0,000.0,300824,000.0,W*72
$GPGGA,035636.151,0829.208,N,07657.158,E,1,12,1.0,0.0,M,0.0,M,,*68
$GPGSA,A,3,01,02,03,04,05,06,07,08,09,10,11,12,1.0,1.0,1.0*30
$GPRMC,035636.151,A,0829.208,N,07657.158,E,000.0,000.0,300824,000.0,W*71
$GPGGA,035637.151,0829.208,N,07657.158,E,1,12,1.0,0.0,M,0.0,M,,*69
$GPGSA,A,3,01,02,03,04,05,06,07,08,09,10,11,12,1.0,1.0,1.0*30
$GPRMC,035637.151,A,0829.208,N,07657.158,E,000.0,000.0,300824,000.0,W*70
$GPGGA,035638.151,0829.208,N,07657.158,E,1,12,1.0,0.0,M,0.0,M,,*66
$GPGSA,A,3,01,02,03,04,05,06,07,08,09,10,11,12,1.0,1.0,1.0*30
$GPRMC,035638.151,A,0829.208,N,07657.158,E,000.0,000.0,300824,000.0,W*7F
$GPGGA,035639.151,0829.208,N,07657.158,E,1,12,1.0,0.0,M,0.0,M,,*67
$GPGSA,A,3,01,02,03,04,05,06,07,08,09,10,11,12,1.0,1.0,1.0*30
$GPRMC,035639.151,A,0829.208,N,07657.158,E,000.0,000.0,300824,000.0,W*7E
$GPGGA,035640.151,0829.208,N,07657.158,E,1,12,1.0,0.0,M,0.0,M,,*69
$GPGSA,A,3,01,02,03,04,05,06,07,08,09,10,11,12,1.0,1.0,1.0*30
$GPRMC,035640.151,A,0829.208,N,07657.158,E,000.0,000.0,300824,000.0,W*70
$GPGGA,035641.151,0829.208,N,07657.158,E,1,12,1.0,0.0,M,0.0,M,,*68
$GPGSA,A,3,01,02,03,04,05,06,07,08,09,10,11,12,1.0,1.0,1.0*30
$GPRMC,035641.151,A,0829.208,N,07657.158,E,000.0,000.0,300824,000.0,W*71
$GPGGA,035642.151,0829.208,N,07657.158,E,1,12,1.0,0.0,M,0.0,M,,*6B
$GPGSA,A,3,01,02,03,04,05,06,07,08,09,10,11,12,1.0,1.0,1.0*30
$GPRMC,035642.151,A,0829.208,N,07657.158,E,000.0,000.0,300824,000.0,W*72
$GPGGA,035643.151,0829.208,N,07657.158,E,1,12,1.0,0.0,M,0.0,M,,*6A
$GPGSA,A,3,01,02,03,04,05,06,07,08,09,10,11,12,1.0,1.0,1.0*30
$GPRMC,035643.151,A,0829.208,N,07657.158,E,000.0,000.0,300824,000.0,W*73
$GPGGA,035644.151,0829.208,N,07657.158,E,1,12,1.0,0.0,M,0.0,M,,*6D
$GPGSA,A,3,01,02,03,04,05,06,07,08,09,10,11,12,1.0,1.0,1.0*30
$GPRMC,035644.151,A,0829.208,N,07657.158,E,000.0,000.0,300824,000.0,W*74
$GPGGA,035645.151,0829.208,N,07657.158,E,1,12,1.0,0.0,M,0.0,M,,*6C
$GPGSA,A,3,01,02,03,04,05,06,07,08,09,10,11,12,1.0,1.0,1.0*30
$GPRMC,035645.151,A,0829.208,N,07657.158,E,000.0,000.0,300824,000.0,W*75
$GPGGA,035646.151,0829.208,N,07657.158,E,1,12,1.0,0.0,M,0.0,M,,*6F
$GPGSA,A,3,01,02,03,04,05,06,07,08,09,10,11,12,1.0,1.0,1.0*30
$GPRMC,035646.151,A,0829.208,N,07657.158,E,000.0,000.0,300824,000.0,W*76
$GPGGA,035647.151,0829.208,N,07657.158,E,1,12,1.0,0.0,M,0.0,M,,*6E
$GPGSA,A,3,01,02,03,04,05,06,07,08,09,10,11,12,1.0,1.0,1.0*30
$GPRMC,035647.151,A,0829.208,N,07657.158,E,000.0,000.0,300824,000.0,W*77
$GPGGA,035648.151,0829.208,N,07657.158,E,1,12,1.0,0.0,M,0.0,M,,*61
$GPGSA,A,3,01,02,03,04,05,06,07,08,09,10,11,12,1.0,1.0,1.0*30
$GPRMC,035648.151,A,0829.208,N,07657.158,E,000.0,000.0,300824,000.0,W*78
$GPGGA,035649.151,0829.208,N,07657.158,E,1,12,1.0,0.0,M,0.0,M,,*60
$GPGSA,A,3,01,02,03,04,05,06,07,08,09,10,11,12,1.0,1.0,1.0*30
$GPRMC,035649.151,A,0829.208,N,07657.158,E,000.0,000.0,300824,000.0,W*79
$GPGGA,035650.151,0829.208,N,07657.158,E,1,12,1.0,0.0,M,0.0,M,,*68
$GPGSA,A,3,01,02,03,04,05,06,07,08,09,10,11,12,1.0,1.0,1.0*30
$GPRMC,035650.151,A,0829.208,N,07657.158,E,000.0,000.0,300824,000.0,W*71
$GPGGA,035651.151,0829.208,N,07657.158,E,1,12,1.0,0.0,M,0.0,M,,*69
$GPGSA,A,3,01,02,03,04,05,06,07,08,09,10,11,12,1.0,1.0,1.0*30
$GPRMC,035651.151,A,0829.208,N,07657.158,E,000.0,000.0,300824,000.0,W*70
$GPGGA,035652.151,0829.208,N,07657.158,E,1,12,1.0,0.0,M,0.0,M,,*6A
$GPGSA,A,3,01,02,03,04,05,06,07,08,09,10,11,12,1.0,1.0,1.0*30
$GPRMC,035652.151,A,0829.208,N,07657.158,E,000.0,000.0,300824,000.0,W*73
$GPGGA,035653.151,0829.208,N,07657.158,E,1,12,1.0,0.0,M,0.0,M,,*6B
$GPGSA,A,3,01,02,03,04,05,06,07,08,09,10,11,12,1.0,1.0,1.0*30
$GPRMC,035653.151,A,0829.208,N,07657.158,E,000.0,000.0,300824,000.0,W*72
$GPGGA,035654.151,0829.208,N,07657.158,E,1,12,1.0,0.0,M,0.0,M,,*6C
$GPGSA,A,3,01,02,03,04,05,06,07,08,09,10,11,12,1.0,1.0,1.0*30
$GPRMC,035654.151,A,0829.208,N,07657.158,E,000.0,000.0,300824,000.0,W*75
$GPGGA,035655.151,0829.208,N,07657.158,E,1,12,1.0,0.0,M,0.0,M,,*6D
$GPGSA,A,3,01,02,03,04,05,06,07,08,09,10,11,12,1.0,1.0,1.0*30
$GPRMC,035655.151,A,0829.208,N,07657.158,E,000.0,000.0,300824,000.0,W*74
$GPGGA,035656.151,0829.208,N,07657.158,E,1,12,1.0,0.0,M,0.0,M,,*6E
$GPGSA,A,3,01,02,03,04,05,06,07,08,09,10,11,12,1.0,1.0,1.0*30
$GPRMC,035656.151,A,0829.208,N,07657.158,E,000.0,000.0,300824,000.0,W*77
$GPGGA,035657.151,0829.208,N,07657.158,E,1,12,1.0,0.0,M,0.0,M,,*6F
$GPGSA,A,3,01,02,03,04,05,06,07,08,09,10,11,12,1.0,1.0,1.0*30
$GPRMC,035657.151,A,0829.208,N,07657.158,E,000.0,000.0,300824,000.0,W*76
$GPGGA,035658.151,0829.208,N,07657.158,E,1,12,1.0,0.0,M,0.0,M,,*60
$GPGSA,A,3,01,02,03,04,05,06,07,08,09,10,11,12,1.0,1.0,1.0*30
$GPRMC,035658.151,A,0829.208,N,07657.158,E,000.0,000.0,300824,000.0,W*79
$GPGGA,035659.151,0829.208,N,07657.158,E,1,12,1.0,0.0,M,0.0,M,,*61
$GPGSA,A,3,01,02,03,04,05,06,07,08,09,10,11,12,1.0,1.0,1.0*30
$GPRMC,035659.151,A,0829.208,N,07657.158,E,000.0,000.0,300824,000.0,W*78
$GPGGA,035700.151,0829.208,N,07657.158,E,1,12,1.0,0.0,M,0.0,M,,*6C
$GPGSA,A,3,01,02,03,04,05,06,07,08,09,10,11,12,1.0,1.0,1.0*30
$GPRMC,035700.151,A,0829.208,N,07657.158,E,000.0,000.0,300824,000.0,W*75
$GPGGA,035701.151,0829.208,N,07657.158,E,1,12,1.0,0.0,M,0.0,M,,*6D
$GPGSA,A,3,01,02,03,04,05,06,07,08,09,10,11,12,1.0,1.0,1.0*30
$GPRMC,035701.151,A,0829.208,N,07657.158,E,000.0,000.0,300824,000.0,W*74
$GPGGA,035702.151,0829.208,N,07657.158,E,1,12,1.0,0.0,M,0.0,M,,*6E
$GPGSA,A,3,01,02,03,04,05,06,07,08,09,10,11,12,1.0,1.0,1.0*30
$GPRMC,035702.151,A,0829.208,N,07657.158,E,000.0,000.0,300824,000.0,W*77
$GPGGA,035703.151,0829.208,N,07657.158,E,1,12,1.0,0.0,M,0.0,M,,*6F
$GPGSA,A,3,01,02,03,04,05,06,07,08,09,10,11,12,1.0,1.0,1.0*30
$GPRMC,035703.151,A,0829.208,N,07657.158,E,000.0,000.0,300824,000.0,W*76
$GPGGA,035704.151,0829.208,N,07657.158,E,1,12,1.0,0.0,M,0.0,M,,*68
$GPGSA,A,3,01,02,03,04,05,06,07,08,09,10,11,12,1.0,1.0,1.0*30
$GPRMC,035704.151,A,0829.208,N,07657.158,E,000.0,000.0,300824,000.0,W*71
$GPGGA,035705.151,0829.208,N,07657.158,E,1,12,1.0,0.0,M,0.0,M,,*69
$GPGSA,A,3,01,02,03,04,05,06,07,08,09,10,11,12,1.0,1.0,1.0*30
$GPRMC,035705.151,A,0829.208,N,07657.158,E,000.0,000.0,300824,000.0,W*70
$GPGGA,035706.151,0829.208,N,07657.158,E,1,12,1.0,0.0,M,0.0,M,,*6A
$GPGSA,A,3,01,02,03,04,05,06,07,08,09,10,11,12,1.0,1.0,1.0*30
$GPRMC,035706.151,A,0829.208,N,07657.158,E,000.0,000.0,300824,000.0,W*73
$GPGGA,035707.151,0829.208,N,07657.158,E,1,12,1.0,0.0,M,0.0,M,,*6B
$GPGSA,A,3,01,02,03,04,05,06,07,08,09,10,11,12,1.0,1.0,1.0*30
$GPRMC,035707.151,A,0829.208,N,07657.158,E,000.0,000.0,300824,000.0,W*72
$GPGGA,035708.151,0829.208,N,07657.158,E,1,12,1.0,0.0,M,0.0,M,,*64
$GPGSA,A,3,01,02,03,04,05,06,07,08,09,10,11,12,1.0,1.0,1.0*30
$GPRMC,035708.151,A,0829.208,N,07657.158,E,000.0,000.0,300824,000.0,W*7D
$GPGGA,035709.151,0829.208,N,07657.158,E,1,12,1.0,0.0,M,0.0,M,,*65
$GPGSA,A,3,01,02,03,04,05,06,07,08,09,10,11,12,1.0,1.0,1.0*30
$GPRMC,035709.151,A,0829.208,N,07657.158,E,000.0,000.0,300824,000.0,W*7C
$GPGGA,035710.151,0829.208,N,07657.158,E,1,12,1.0,0.0,M,0.0,M,,*6D
$GPGSA,A,3,01,02,03,04,05,06,07,08,09,10,11,12,1.0,1.0,1.0*30
$GPRMC,035710.151,A,0829.208,N,07657.158,E,000.0,000.0,300824,000.0,W*74
$GPGGA,035711.151,0829.208,N,07657.158,E,1,12,1.0,0.0,M,0.0,M,,*6C
$GPGSA,A,3,01,02,03,04,05,06,07,08,09,10,11,12,1.0,1.0,1.0*30
$GPRMC,035711.151,A,0829.208,N,07657.158,E,000.0,000.0,300824,000.0,W*75
$GPGGA,035712.151,0829.208,N,07657.158,E,1,12,1.0,0.0,M,0.0,M,,*6F
$GPGSA,A,3,01,02,03,04,05,06,07,08,09,10,11,12,1.0,1.0,1.0*30
$GPRMC,035712.151,A,0829.208,N,07657.158,E,000.0,000.0,300824,000.0,W*76
$GPGGA,035713.151,0829.208,N,07657.158,E,1,12,1.0,0.0,M,0.0,M,,*6E
$GPGSA,A,3,01,02,03,04,05,06,07,08,09,10,11,12,1.0,1.0,1.0*30
$GPRMC,035713.151,A,0829.208,N,07657.158,E,000.0,000.0,300824,000.0,W*77
$GPGGA,035714.151,0829.208,N,07657.158,E,1,12,1.0,0.0,M,0.0,M,,*69
$GPGSA,A,3,01,02,03,04,05,06,07,08,09,10,11,12,1.0,1.0,1.0*30
$GPRMC,035714.151,A,0829.208,N,07657.158,E,000.0,000.0,300824,000.0,W*70
$GPGGA,035715.151,0829.208,N,07657.158,E,1,12,1.0,0.0,M,0.0,M,,*68
$GPGSA,A,3,01,02,03,04,05,06,07,08,09,10,11,12,1.0,1.0,1.0*30
$GPRMC,035715.151,A,0829.208,N,07657.158,E,000.0,000.0,300824,000.0,W*71
$GPGGA,035716.151,0829.208,N,07657.158,E,1,12,1.0,0.0,M,0.0,M,,*6B
$GPGSA,A,3,01,02,03,04,05,06,07,08,09,10,11,12,1.0,1.0,1.0*30
$GPRMC,035716.151,A,0829.208,N,07657.158,E,000.0,000.0,300824,000.0,W*72
$GPGGA,035717.151,0829.208,N,07657.158,E,1,12,1.0,0.0,M,0.0,M,,*6A
$GPGSA,A,3,01,02,03,04,05,06,07,08,09,10,11,12,1.0,1.0,1.0*30
$GPRMC,035717.151,A,0829.208,N,07657.158,E,097.2,282.5,300824,000.0,W*72
$GPGGA,035718.151,0829.214,N,07657.132,E,1,12,1.0,0.0,M,0.0,M,,*64
$GPGSA,A,3,01,02,03,04,05,06,07,08,09,10,11,12,1.0,1.0,1.0*30
$GPRMC,035718.151,A,0829.214,N,07657.132,E,097.2,282.6,300824,000.0,W*7F
$GPGGA,035719.151,0829.220,N,07657.105,E,1,12,1.0,0.0,M,0.0,M,,*66
$GPGSA,A,3,01,02,03,04,05,06,07,08,09,10,11,12,1.0,1.0,1.0*30
$GPRMC,035719.151,A,0829.220,N,07657.105,E,097.2,282.6,300824,000.0,W*7D
$GPGGA,035720.151,0829.225,N,07657.078,E,1,12,1.0,0.0,M,0.0,M,,*62
$GPGSA,A,3,01,02,03,04,05,06,07,08,09,10,11,12,1.0,1.0,1.0*30
$GPRMC,035720.151,A,0829.225,N,07657.078,E,097.2,282.2,300824,000.0,W*7D
$GPGGA,035721.151,0829.231,N,07657.052,E,1,12,1.0,0.0,M,0.0,M,,*6E
$GPGSA,A,3,01,02,03,04,05,06,07,08,09,10,11,12,1.0,1.0,1.0*30
$GPRMC,035721.151,A,0829.231,N,07657.052,E,097.2,282.2,300824,000.0,W*71
$GPGGA,035722.151,0829.237,N,07657.025,E,1,12,1.0,0.0,M,0.0,M,,*6B
$GPGSA,A,3,01,02,03,04,05,06,07,08,09,10,11,12,1.0,1.0,1.0*30
$GPRMC,035722.151,A,0829.237,N,07657.025,E,097.2,282.5,300824,000.0,W*73
$GPGGA,035723.151,0829.243,N,07656.998,E,1,12,1.0,0.0,M,0.0,M,,*67
$GPGSA,A,3,01,02,03,04,05,06,07,08,09,10,11,12,1.0,1.0,1.0*30
$GPRMC,035723.151,A,0829.243,N,07656.998,E,097.2,282.5,300824,000.0,W*7F
$GPGGA,035724.151,0829.248,N,07656.972,E,1,12,1.0,0.0,M,0.0,M,,*6F
$GPGSA,A,3,01,02,03,04,05,06,07,08,09,10,11,12,1.0,1.0,1.0*30
$GPRMC,035724.151,A,0829.248,N,07656.972,E,097.2,282.1,300824,000.0,W*73
$GPGGA,035725.151,0829.254,N,07656.945,E,1,12,1.0,0.0,M,0.0,M,,*67
$GPGSA,A,3,01,02,03,04,05,06,07,08,09,10,11,12,1.0,1.0,1.0*30
$GPRMC,035725.151,A,0829.254,N,07656.945,E,097.2,282.8,300824,000.0,W*72
$GPGGA,035726.151,0829.260,N,07656.918,E,1,12,1.0,0.0,M,0.0,M,,*6B
$GPGSA,A,3,01,02,03,04,05,06,07,08,09,10,11,12,1.0,1.0,1.0*30
$GPRMC,035726.151,A,0829.260,N,07656.918,E,097.2,282.6,300824,000.0,W*70
$GPGGA,035727.151,0829.266,N,07656.892,E,1,12,1.0,0.0,M,0.0,M,,*6F
$GPGSA,A,3,01,02,03,04,05,06,07,08,09,10,11,12,1.0,1.0,1.0*30
$GPRMC,035727.151,A,0829.266,N,07656.892,E,097.2,282.6,300824,000.0,W*74
$GPGGA,035728.151,0829.272,N,07656.865,E,1,12,1.0,0.0,M,0.0,M,,*6D
$GPGSA,A,3,01,02,03,04,05,06,07,08,09,10,11,12,1.0,1.0,1.0*30
$GPRMC,035728.151,A,0829.272,N,07656.865,E,097.2,282.4,300824,000.0,W*74
$GPGGA,035729.151,0829.278,N,07656.839,E,1,12,1.0,0.0,M,0.0,M,,*6F
$GPGSA,A,3,01,02,03,04,05,06,07,08,09,10,11,12,1.0,1.0,1.0*30
$GPRMC,035729.151,A,0829.278,N,07656.839,E,097.2,282.6,300824,000.0,W*74
$GPGGA,035730.151,0829.284,N,07656.812,E,1,12,1.0,0.0,M,0.0,M,,*6D
$GPGSA,A,3,01,02,03,04,05,06,07,08,09,10,11,12,1.0,1.0,1.0*30
$GPRMC,035730.151,A,0829.284,N,07656.812,E,097.2,282.6,300824,000.0,W*76
$GPGGA,035731.151,0829.289,N,07656.785,E,1,12,1.0,0.0,M,0.0,M,,*60
$GPGSA,A,3,01,02,03,04,05,06,07,08,09,10,11,12,1.0,1.0,1.0*30
$GPRMC,035731.151,A,0829.289,N,07656.785,E,097.2,282.5,300824,000.0,W*78
$GPGGA,035732.151,0829.295,N,07656.759,E,1,12,1.0,0.0,M,0.0,M,,*6F
$GPGSA,A,3,01,02,03,04,05,06,07,08,09,10,11,12,1.0,1.0,1.0*30
$GPRMC,035732.151,A,0829.295,N,07656.759,E,097.2,282.5,300824,000.0,W*77
$GPGGA,035733.151,0829.301,N,07656.732,E,1,12,1.0,0.0,M,0.0,M,,*6F
$GPGSA,A,3,01,02,03,04,05,06,07,08,09,10,11,12,1.0,1.0,1.0*30
$GPRMC,035733.151,A,0829.301,N,07656.732,E,097.2,282.5,300824,000.0,W*77
$GPGGA,035734.151,0829.307,N,07656.705,E,1,12,1.0,0.0,M,0.0,M,,*6A
$GPGSA,A,3,01,02,03,04,05,06,07,08,09,10,11,12,1.0,1.0,1.0*30
$GPRMC,035734.151,A,0829.307,N,07656.705,E,097.2,283.2,300824,000.0,W*74
$GPGGA,035735.151,0829.313,N,07656.679,E,1,12,1.0,0.0,M,0.0,M,,*64
$GPGSA,A,3,01,02,03,04,05,06,07,08,09,10,11,12,1.0,1.0,1.0*30
$GPRMC,035735.151,A,0829.313,N,07656.679,E,097.2,283.2,300824,000.0,W*7A
$GPGGA,035736.151,0829.319,N,07656.652,E,1,12,1.0,0.0,M,0.0,M,,*64
$GPGSA,A,3,01,02,03,04,05,06,07,08,09,10,11,12,1.0,1.0,1.0*30
$GPRMC,035736.151,A,0829.319,N,07656.652,E,097.2,285.5,300824,000.0,W*7B
$GPGGA,035737.151,0829.327,N,07656.626,E,1,12,1.0,0.0,M,0.0,M,,*6B
$GPGSA,A,3,01,02,03,04,05,06,07,08,09,10,11,12,1.0,1.0,1.0*30
$GPRMC,035737.151,A,0829.327,N,07656.626,E,097.2,286.6,300824,000.0,W*74
$GPGGA,035738.151,0829.334,N,07656.600,E,1,12,1.0,0.0,M,0.0,M,,*62
$GPGSA,A,3,01,02,03,04,05,06,07,08,09,10,11,12,1.0,1.0,1.0*30
$GPRMC,035738.151,A,0829.334,N,07656.600,E,097.2,290.0,300824,000.0,W*7C
$GPGGA,035739.151,0829.343,N,07656.574,E,1,12,1.0,0.0,M,0.0,M,,*63
$GPGSA,A,3,01,02,03,04,05,06,07,08,09,10,11,12,1.0,1.0,1.0*30
$GPRMC,035739.151,A,0829.343,N,07656.574,E,097.2,292.7,300824,000.0,W*78
$GPGGA,035740.151,0829.354,N,07656.549,E,1,12,1.0,0.0,M,0.0,M,,*65
$GPGSA,A,3,01,02,03,04,05,06,07,08,09,10,11,12,1.0,1.0,1.0*30
$GPRMC,035740.151,A,0829.354,N,07656.549,E,097.2,293.8,300824,000.0,W*70
$GPGGA,035741.151,0829.365,N,07656.524,E,1,12,1.0,0.0,M,0.0,M,,*6D
$GPGSA,A,3,01,02,03,04,05,06,07,08,09,10,11,12,1.0,1.0,1.0*30
$GPRMC,035741.151,A,0829.365,N,07656.524,E,097.2,295.1,300824,000.0,W*77
$GPGGA,035742.151,0829.376,N,07656.499,E,1,12,1.0,0.0,M,0.0,M,,*6B
$GPGSA,A,3,01,02,03,04,05,06,07,08,09,10,11,12,1.0,1.0,1.0*30
$GPRMC,035742.151,A,0829.376,N,07656.499,E,097.2,298.5,300824,000.0,W*78
$GPGGA,035743.151,0829.389,N,07656.475,E,1,12,1.0,0.0,M,0.0,M,,*68
$GPGSA,A,3,01,02,03,04,05,06,07,08,09,10,11,12,1.0,1.0,1.0*30
$GPRMC,035743.151,A,0829.389,N,07656.475,E,097.2,298.2,300824,000.0,W*7C
$GPGGA,035744.151,0829.402,N,07656.451,E,1,12,1.0,0.0,M,0.0,M,,*6D
$GPGSA,A,3,01,02,03,04,05,06,07,08,09,10,11,12,1.0,1.0,1.0*30
$GPRMC,035744.151,A,0829.402,N,07656.451,E,097.2,296.7,300824,000.0,W*72
$GPGGA,035745.151,0829.414,N,07656.427,E,1,12,1.0,0.0,M,0.0,M,,*6A
$GPGSA,A,3,01,02,03,04,05,06,07,08,09,10,11,12,1.0,1.0,1.0*30
$GPRMC,035745.151,A,0829.414,N,07656.427,E,097.2,295.4,300824,000.0,W*75
$GPGGA,035746.151,0829.425,N,07656.402,E,1,12,1.0,0.0,M,0.0,M,,*6C
$GPGSA,A,3,01,02,03,04,05,06,07,08,09,10,11,12,1.0,1.0,1.0*30
$GPRMC,035746.151,A,0829.425,N,07656.402,E,097.2,299.6,300824,000.0,W*7D
$GPGGA,035747.151,0829.439,N,07656.379,E,1,12,1.0,0.0,M,0.0,M,,*6B
$GPGSA,A,3,01,02,03,04,05,06,07,08,09,10,11,12,1.0,1.0,1.0*30
$GPRMC,035747.151,A,0829.439,N,07656.379,E,097.2,299.3,300824,000.0,W*7F
$GPGGA,035748.151,0829.452,N,07656.355,E,1,12,1.0,0.0,M,0.0,M,,*67
$GPGSA,A,3,01,02,03,04,05,06,07,08,09,10,11,12,1.0,1.0,1.0*30
$GPRMC,035748.151,A,0829.452,N,07656.355,E,097.2,299.0,300824,000.0,W*70
$GPGGA,035749.151,0829.465,N,07656.331,E,1,12,1.0,0.0,M,0.0,M,,*60
$GPGSA,A,3,01,02,03,04,05,06,07,08,09,10,11,12,1.0,1.0,1.0*30
$GPRMC,035749.151,A,0829.465,N,07656.331,E,097.2,299.1,300824,000.0,W*76
$GPGGA,035750.151,0829.478,N,07656.307,E,1,12,1.0,0.0,M,0.0,M,,*61
$GPGSA,A,3,01,02,03,04,05,06,07,08,09,10,11,12,1.0,1.0,1.0*30
$GPRMC,035750.151,A,0829.478,N,07656.307,E,097.2,297.7,300824,000.0,W*7F
$GPGGA,035751.151,0829.491,N,07656.283,E,1,12,1.0,0.0,M,0.0,M,,*6A
$GPGSA,A,3,01,02,03,04,05,06,07,08,09,10,11,12,1.0,1.0,1.0*30
$GPRMC,035751.151,A,0829.491,N,07656.283,E,097.2,297.7,300824,000.0,W*74
$GPGGA,035752.151,0829.503,N,07656.259,E,1,12,1.0,0.0,M,0.0,M,,*64
$GPGSA,A,3,01,02,03,04,05,06,07,08,09,10,11,12,1.0,1.0,1.0*30
$GPRMC,035752.151,A,0829.503,N,07656.259,E,097.2,298.1,300824,000.0,W*73
$GPGGA,035753.151,0829.516,N,07656.235,E,1,12,1.0,0.0,M,0.0,M,,*6B
$GPGSA,A,3,01,02,03,04,05,06,07,08,09,10,11,12,1.0,1.0,1.0*30
$GPRMC,035753.151,A,0829.516,N,07656.235,E,097.2,297.7,300824,000.0,W*75
$GPGGA,035754.151,0829.529,N,07656.211,E,1,12,1.0,0.0,M,0.0,M,,*66
$GPGSA,A,3,01,02,03,04,05,06,07,08,09,10,11,12,1.0,1.0,1.0*30
$GPRMC,035754.151,A,0829.529,N,07656.211,E,097.2,298.5,300824,000.0,W*75
$GPGGA,035755.151,0829.541,N,07656.187,E,1,12,1.0,0.0,M,0.0,M,,*65
$GPGSA,A,3,01,02,03,04,05,06,07,08,09,10,11,12,1.0,1.0,1.0*30
$GPRMC,035755.151,A,0829.541,N,07656.187,E,097.2,297.8,300824,000.0,W*74
$GPGGA,035756.151,0829.554,N,07656.163,E,1,12,1.0,0.0,M,0.0,M,,*68
$GPGSA,A,3,01,02,03,04,05,06,07,08,09,10,11,12,1.0,1.0,1.0*30
$GPRMC,035756.151,A,0829.554,N,07656.163,E,097.2,298.2,300824,000.0,W*7C
$GPGGA,035757.151,0829.567,N,07656.138,E,1,12,1.0,0.0,M,0.0,M,,*67
$GPGSA,A,3,01,02,03,04,05,06,07,08,09,10,11,12,1.0,1.0,1.0*30
$GPRMC,035757.151,A,0829.567,N,07656.138,E,097.2,298.2,300824,000.0,W*73
$GPGGA,035758.151,0829.579,N,07656.114,E,1,12,1.0,0.0,M,0.0,M,,*69
$GPGSA,A,3,01,02,03,04,05,06,07,08,09,10,11,12,1.0,1.0,1.0*30
$GPRMC,035758.151,A,0829.579,N,07656.114,E,097.2,298.3,300824,000.0,W*7C
$GPGGA,035759.151,0829.592,N,07656.090,E,1,12,1.0,0.0,M,0.0,M,,*60
$GPGSA,A,3,01,02,03,04,05,06,07,08,09,10,11,12,1.0,1.0,1.0*30
$GPRMC,035759.151,A,0829.592,N,07656.090,E,097.2,298.3,300824,000.0,W*75
$GPGGA,035800.151,0829.605,N,07656.066,E,1,12,1.0,0.0,M,0.0,M,,*67
$GPGSA,A,3,01,02,03,04,05,06,07,08,09,10,11,12,1.0,1.0,1.0*30
$GPRMC,035800.151,A,0829.605,N,07656.066,E,097.2,298.3,300824,000.0,W*72
$GPGGA,035801.151,0829.618,N,07656.042,E,1,12,1.0,0.0,M,0.0,M,,*6C
$GPGSA,A,3,01,02,03,04,05,06,07,08,09,10,11,12,1.0,1.0,1.0*30
$GPRMC,035801.151,A,0829.618,N,07656.042,E,097.2,298.3,300824,000.0,W*79
$GPGGA,035802.151,0829.631,N,07656.018,E,1,12,1.0,0.0,M,0.0,M,,*6B
$GPGSA,A,3,01,02,03,04,05,06,07,08,09,10,11,12,1.0,1.0,1.0*30
$GPRMC,035802.151,A,0829.631,N,07656.018,E,097.2,298.0,300824,000.0,W*7D
$GPGGA,035803.151,0829.643,N,07655.994,E,1,12,1.0,0.0,M,0.0,M,,*61
$GPGSA,A,3,01,02,03,04,05,06,07,08,09,10,11,12,1.0,1.0,1.0*30
$GPRMC,035803.151,A,0829.643,N,07655.994,E,097.2,298.0,300824,000.0,W*77
$GPGGA,035804.151,0829.656,N,07655.970,E,1,12,1.0,0.0,M,0.0,M,,*68
$GPGSA,A,3,01,02,03,04,05,06,07,08,09,10,11,12,1.0,1.0,1.0*30
$GPRMC,035804.151,A,0829.656,N,07655.970,E,097.2,298.3,300824,000.0,W*7D
$GPGGA,035805.151,0829.669,N,07655.946,E,1,12,1.0,0.0,M,0.0,M,,*60
$GPGSA,A,3,01,02,03,04,05,06,07,08,09,10,11,12,1.0,1.0,1.0*30
$GPRMC,035805.151,A,0829.669,N,07655.946,E,097.2,298.1,300824,000.0,W*77
$GPGGA,035806.151,0829.681,N,07655.922,E,1,12,1.0,0.0,M,0.0,M,,*67
$GPGSA,A,3,01,02,03,04,05,06,07,08,09,10,11,12,1.0,1.0,1.0*30
$GPRMC,035806.151,A,0829.681,N,07655.922,E,097.2,298.4,300824,000.0,W*75
$GPGGA,035807.151,0829.694,N,07655.898,E,1,12,1.0,0.0,M,0.0,M,,*62
$GPGSA,A,3,01,02,03,04,05,06,07,08,09,10,11,12,1.0,1.0,1.0*30
$GPRMC,035807.151,A,0829.694,N,07655.898,E,194.4,298.1,300824,000.0,W*71
$GPGGA,035808.151,0829.720,N,07655.850,E,1,12,1.0,0.0,M,0.0,M,,*67
$GPGSA,A,3,01,02,03,04,05,06,07,08,09,10,11,12,1.0,1.0,1.0*30
$GPRMC,035808.151,A,0829.720,N,07655.850,E,194.4,297.4,300824,000.0,W*7E
$GPGGA,035809.151,0829.744,N,07655.802,E,1,12,1.0,0.0,M,0.0,M,,*63
$GPGSA,A,3,01,02,03,04,05,06,07,08,09,10,11,12,1.0,1.0,1.0*30
$GPRMC,035809.151,A,0829.744,N,07655.802,E,194.4,293.8,300824,000.0,W*72
$GPGGA,035810.151,0829.766,N,07655.752,E,1,12,1.0,0.0,M,0.0,M,,*61
$GPGSA,A,3,01,02,03,04,05,06,07,08,09,10,11,12,1.0,1.0,1.0*30
$GPRMC,035810.151,A,0829.766,N,07655.752,E,097.2,289.6,300824,000.0,W*71
$GPGGA,035811.151,0829.775,N,07655.726,E,1,12,1.0,0.0,M,0.0,M,,*61
$GPGSA,A,3,01,02,03,04,05,06,07,08,09,10,11,12,1.0,1.0,1.0*30
$GPRMC,035811.151,A,0829.775,N,07655.726,E,097.2,285.4,300824,000.0,W*7F
$GPGGA,035812.151,0829.783,N,07655.700,E,1,12,1.0,0.0,M,0.0,M,,*6F
$GPGSA,A,3,01,02,03,04,05,06,07,08,09,10,11,12,1.0,1.0,1.0*30
$GPRMC,035812.151,A,0829.783,N,07655.700,E,097.2,281.2,300824,000.0,W*73
$GPGGA,035813.151,0829.788,N,07655.673,E,1,12,1.0,0.0,M,0.0,M,,*60
$GPGSA,A,3,01,02,03,04,05,06,07,08,09,10,11,12,1.0,1.0,1.0*30
$GPRMC,035813.151,A,0829.788,N,07655.673,E,097.2,277.0,300824,000.0,W*77
$GPGGA,035814.151,0829.791,N,07655.646,E,1,12,1.0,0.0,M,0.0,M,,*69
$GPGSA,A,3,01,02,03,04,05,06,07,08,09,10,11,12,1.0,1.0,1.0*30
$GPRMC,035814.151,A,0829.791,N,07655.646,E,097.2,275.1,300824,000.0,W*7D
$GPGGA,035815.151,0829.793,N,07655.619,E,1,12,1.0,0.0,M,0.0,M,,*60
$GPGSA,A,3,01,02,03,04,05,06,07,08,09,10,11,12,1.0,1.0,1.0*30
$GPRMC,035815.151,A,0829.793,N,07655.619,E,194.4,266.7,300824,000.0,W*74
$GPGGA,035816.151,0829.790,N,07655.564,E,1,12,1.0,0.0,M,0.0,M,,*69
$GPGSA,A,3,01,02,03,04,05,06,07,08,09,10,11,12,1.0,1.0,1.0*30
$GPRMC,035816.151,A,0829.790,N,07655.564,E,058.3,263.3,300824,000.0,W*7A
$GPGGA,035817.151,0829.788,N,07655.548,E,1,12,1.0,0.0,M,0.0,M,,*6F
$GPGSA,A,3,01,02,03,04,05,06,07,08,09,10,11,12,1.0,1.0,1.0*30
$GPRMC,035817.151,A,0829.788,N,07655.548,E,058.3,254.8,300824,000.0,W*73
$GPGGA,035818.151,0829.784,N,07655.532,E,1,12,1.0,0.0,M,0.0,M,,*61
$GPGSA,A,3,01,02,03,04,05,06,07,08,09,10,11,12,1.0,1.0,1.0*30
$GPRMC,035818.151,A,0829.784,N,07655.532,E,194.4,258.3,300824,000.0,W*7C
$GPGGA,035819.151,0829.773,N,07655.479,E,1,12,1.0,0.0,M,0.0,M,,*66
$GPGSA,A,3,01,02,03,04,05,06,07,08,09,10,11,12,1.0,1.0,1.0*30
$GPRMC,035819.151,A,0829.773,N,07655.479,E,194.4,256.3,300824,000.0,W*75
$GPGGA,035820.151,0829.760,N,07655.426,E,1,12,1.0,0.0,M,0.0,M,,*64
$GPGSA,A,3,01,02,03,04,05,06,07,08,09,10,11,12,1.0,1.0,1.0*30
$GPRMC,035820.151,A,0829.760,N,07655.426,E,194.4,256.2,300824,000.0,W*76
$GPGGA,035821.151,0829.748,N,07655.373,E,1,12,1.0,0.0,M,0.0,M,,*68
$GPGSA,A,3,01,02,03,04,05,06,07,08,09,10,11,12,1.0,1.0,1.0*30
$GPRMC,035821.151,A,0829.748,N,07655.373,E,194.4,256.2,300824,000.0,W*7A
$GPGGA,035822.151,0829.735,N,07655.320,E,1,12,1.0,0.0,M,0.0,M,,*67
$GPGSA,A,3,01,02,03,04,05,06,07,08,09,10,11,12,1.0,1.0,1.0*30
$GPRMC,035822.151,A,0829.735,N,07655.320,E,194.4,256.0,300824,000.0,W*77
$GPGGA,035823.151,0829.722,N,07655.267,E,1,12,1.0,0.0,M,0.0,M,,*62
$GPGSA,A,3,01,02,03,04,05,06,07,08,09,10,11,12,1.0,1.0,1.0*30
$GPRMC,035823.151,A,0829.722,N,07655.267,E,194.4,256.8,300824,000.0,W*7A
$GPGGA,035824.151,0829.709,N,07655.214,E,1,12,1.0,0.0,M,0.0,M,,*68
$GPGSA,A,3,01,02,03,04,05,06,07,08,09,10,11,12,1.0,1.0,1.0*30
$GPRMC,035824.151,A,0829.709,N,07655.214,E,194.4,257.3,300824,000.0,W*7A
$GPGGA,035825.151,0829.698,N,07655.160,E,1,12,1.0,0.0,M,0.0,M,,*60
$GPGSA,A,3,01,02,03,04,05,06,07,08,09,10,11,12,1.0,1.0,1.0*30
$GPRMC,035825.151,A,0829.698,N,07655.160,E,194.4,256.0,300824,000.0,W*70
$GPGGA,035826.151,0829.684,N,07655.108,E,1,12,1.0,0.0,M,0.0,M,,*60
$GPGSA,A,3,01,02,03,04,05,06,07,08,09,10,11,12,1.0,1.0,1.0*30
$GPRMC,035826.151,A,0829.684,N,07655.108,E,194.4,255.7,300824,000.0,W*74
$GPGGA,035827.151,0829.671,N,07655.055,E,1,12,1.0,0.0,M,0.0,M,,*62
$GPGSA,A,3,01,02,03,04,05,06,07,08,09,10,11,12,1.0,1.0,1.0*30
$GPRMC,035827.151,A,0829.671,N,07655.055,E,194.4,255.7,300824,000.0,W*76
$GPGGA,035828.151,0829.658,N,07655.002,E,1,12,1.0,0.0,M,0.0,M,,*64
$GPGSA,A,3,01,02,03,04,05,06,07,08,09,10,11,12,1.0,1.0,1.0*30
$GPRMC,035828.151,A,0829.658,N,07655.002,E,194.4,257.1,300824,000.0,W*74
$GPGGA,035829.151,0829.646,N,07654.949,E,1,12,1.0,0.0,M,0.0,M,,*6D
$GPGSA,A,3,01,02,03,04,05,06,07,08,09,10,11,12,1.0,1.0,1.0*30
$GPRMC,035829.151,A,0829.646,N,07654.949,E,194.4,259.7,300824,000.0,W*75
$GPGGA,035830.151,0829.636,N,07654.895,E,1,12,1.0,0.0,M,0.0,M,,*62
$GPGSA,A,3,01,02,03,04,05,06,07,08,09,10,11,12,1.0,1.0,1.0*30
$GPRMC,035830.151,A,0829.636,N,07654.895,E,194.4,267.5,300824,000.0,W*75
$GPGGA,035831.151,0829.634,N,07654.840,E,1,12,1.0,0.0,M,0.0,M,,*69
$GPGSA,A,3,01,02,03,04,05,06,07,08,09,10,11,12,1.0,1.0,1.0*30
$GPRMC,035831.151,A,0829.634,N,07654.840,E,194.4,273.1,300824,000.0,W*7F
$GPGGA,035832.151,0829.637,N,07654.786,E,1,12,1.0,0.0,M,0.0,M,,*6C
$GPGSA,A,3,01,02,03,04,05,06,07,08,09,10,11,12,1.0,1.0,1.0*30
$GPRMC,035832.151,A,0829.637,N,07654.786,E,194.4,280.1,300824,000.0,W*76
$GPGGA,035833.151,0829.646,N,07654.732,E,1,12,1.0,0.0,M,0.0,M,,*64
$GPGSA,A,3,01,02,03,04,05,06,07,08,09,10,11,12,1.0,1.0,1.0*30
$GPRMC,035833.151,A,0829.646,N,07654.732,E,194.4,287.2,300824,000.0,W*7A
$GPGGA,035834.151,0829.662,N,07654.680,E,1,12,1.0,0.0,M,0.0,M,,*6D
$GPGSA,A,3,01,02,03,04,05,06,07,08,09,10,11,12,1.0,1.0,1.0*30
$GPRMC,035834.151,A,0829.662,N,07654.680,E,194.4,294.3,300824,000.0,W*70
$GPGGA,035835.151,0829.684,N,07654.630,E,1,12,1.0,0.0,M,0.0,M,,*6F
$GPGSA,A,3,01,02,03,04,05,06,07,08,09,10,11,12,1.0,1.0,1.0*30
$GPRMC,035835.151,A,0829.684,N,07654.630,E,194.4,300.0,300824,000.0,W*7D
$GPGGA,035836.151,0829.711,N,07654.583,E,1,12,1.0,0.0,M,0.0,M,,*6A
$GPGSA,A,3,01,02,03,04,05,06,07,08,09,10,11,12,1.0,1.0,1.0*30
$GPRMC,035836.151,A,0829.711,N,07654.583,E,194.4,307.4,300824,000.0,W*7B
$GPGGA,035837.151,0829.744,N,07654.540,E,1,12,1.0,0.0,M,0.0,M,,*64
$GPGSA,A,3,01,02,03,04,05,06,07,08,09,10,11,12,1.0,1.0,1.0*30
$GPRMC,035837.151,A,0829.744,N,07654.540,E,097.2,310.0,300824,000.0,W*73
$GPGGA,035838.151,0829.761,N,07654.519,E,1,12,1.0,0.0,M,0.0,M,,*60
$GPGSA,A,3,01,02,03,04,05,06,07,08,09,10,11,12,1.0,1.0,1.0*30
$GPRMC,035838.151,A,0829.761,N,07654.519,E,097.2,316.2,300824,000.0,W*73
$GPGGA,035839.151,0829.781,N,07654.500,E,1,12,1.0,0.0,M,0.0,M,,*67
$GPGSA,A,3,01,02,03,04,05,06,07,08,09,10,11,12,1.0,1.0,1.0*30
$GPRMC,035839.151,A,0829.781,N,07654.500,E,194.4,317.7,300824,000.0,W*74
$GPGGA,035840.151,0829.821,N,07654.463,E,1,12,1.0,0.0,M,0.0,M,,*68
$GPGSA,A,3,01,02,03,04,05,06,07,08,09,10,11,12,1.0,1.0,1.0*30
$GPRMC,035840.151,A,0829.821,N,07654.463,E,194.4,317.7,300824,000.0,W*7B
$GPGGA,035841.151,0829.861,N,07654.427,E,1,12,1.0,0.0,M,0.0,M,,*6D
$GPGSA,A,3,01,02,03,04,05,06,07,08,09,10,11,12,1.0,1.0,1.0*30
$GPRMC,035841.151,A,0829.861,N,07654.427,E,194.4,317.6,300824,000.0,W*7F
$GPGGA,035842.151,0829.901,N,07654.390,E,1,12,1.0,0.0,M,0.0,M,,*62
$GPGSA,A,3,01,02,03,04,05,06,07,08,09,10,11,12,1.0,1.0,1.0*30
$GPRMC,035842.151,A,0829.901,N,07654.390,E,194.4,317.7,300824,000.0,W*71
$GPGGA,035843.151,0829.941,N,07654.353,E,1,12,1.0,0.0,M,0.0,M,,*68
$GPGSA,A,3,01,02,03,04,05,06,07,08,09,10,11,12,1.0,1.0,1.0*30
$GPRMC,035843.151,A,0829.941,N,07654.353,E,194.4,317.7,300824,000.0,W*7B
$GPGGA,035844.151,0829.980,N,07654.316,E,1,12,1.0,0.0,M,0.0,M,,*63
$GPGSA,A,3,01,02,03,04,05,06,07,08,09,10,11,12,1.0,1.0,1.0*30
$GPRMC,035844.151,A,0829.980,N,07654.316,E,194.4,317.5,300824,000.0,W*72
$GPGGA,035845.151,0830.020,N,07654.280,E,1,12,1.0,0.0,M,0.0,M,,*67
$GPGSA,A,3,01,02,03,04,05,06,07,08,09,10,11,12,1.0,1.0,1.0*30
$GPRMC,035845.151,A,0830.020,N,07654.280,E,194.4,317.5,300824,000.0,W*76
$GPGGA,035846.151,0830.060,N,07654.243,E,1,12,1.0,0.0,M,0.0,M,,*6F
$GPGSA,A,3,01,02,03,04,05,06,07,08,09,10,11,12,1.0,1.0,1.0*30
$GPRMC,035846.151,A,0830.060,N,07654.243,E,194.4,317.8,300824,000.0,W*73
$GPGGA,035847.151,0830.100,N,07654.206,E,1,12,1.0,0.0,M,0.0,M,,*68
$GPGSA,A,3,01,02,03,04,05,06,07,08,09,10,11,12,1.0,1.0,1.0*30
$GPRMC,035847.151,A,0830.100,N,07654.206,E,194.4,317.7,300824,000.0,W*7B
$GPGGA,035848.151,0830.140,N,07654.169,E,1,12,1.0,0.0,M,0.0,M,,*69
$GPGSA,A,3,01,02,03,04,05,06,07,08,09,10,11,12,1.0,1.0,1.0*30
$GPRMC,035848.151,A,0830.140,N,07654.169,E,194.4,317.5,300824,000.0,W*78
$GPGGA,035849.151,0830.180,N,07654.132,E,1,12,1.0,0.0,M,0.0,M,,*6A
$GPGSA,A,3,01,02,03,04,05,06,07,08,09,10,11,12,1.0,1.0,1.0*30
$GPRMC,035849.151,A,0830.180,N,07654.132,E,194.4,317.8,300824,000.0,W*76
$GPGGA,035850.151,0830.220,N,07654.096,E,1,12,1.0,0.0,M,0.0,M,,*64
$GPGSA,A,3,01,02,03,04,05,06,07,08,09,10,11,12,1.0,1.0,1.0*30
$GPRMC,035850.151,A,0830.220,N,07654.096,E,194.4,317.7,300824,000.0,W*77
$GPGGA,035851.151,0830.260,N,07654.059,E,1,12,1.0,0.0,M,0.0,M,,*62
$GPGSA,A,3,01,02,03,04,05,06,07,08,09,10,11,12,1.0,1.0,1.0*30
$GPRMC,035851.151,A,0830.260,N,07654.059,E,194.4,318.0,300824,000.0,W*79
$GPGGA,035852.151,0830.300,N,07654.023,E,1,12,1.0,0.0,M,0.0,M,,*6B
$GPGSA,A,3,01,02,03,04,05,06,07,08,09,10,11,12,1.0,1.0,1.0*30
$GPRMC,035852.151,A,0830.300,N,07654.023,E,194.4,317.9,300824,000.0,W*76
$GPGGA,035853.151,0830.340,N,07653.986,E,1,12,1.0,0.0,M,0.0,M,,*6F
$GPGSA,A,3,01,02,03,04,05,06,07,08,09,10,11,12,1.0,1.0,1.0*30
$GPRMC,035853.151,A,0830.340,N,07653.986,E,194.4,317.6,300824,000.0,W*7D
$GPGGA,035854.151,0830.380,N,07653.949,E,1,12,1.0,0.0,M,0.0,M,,*67
$GPGSA,A,3,01,02,03,04,05,06,07,08,09,10,11,12,1.0,1.0,1.0*30
$GPRMC,035854.151,A,0830.380,N,07653.949,E,194.4,318.0,300824,000.0,W*7C
