$GPGGA,091848.017,2016.044,N,08550.661,E,1,12,1.0,0.0,M,0.0,M,,*68
$GPGSA,A,3,01,02,03,04,05,06,07,08,09,10,11,12,1.0,1.0,1.0*30
$GPRMC,091848.017,A,2016.044,N,08550.661,E,000.3,158.7,190224,000.0,W*78
$GPGGA,091849.017,2016.044,N,08550.661,E,1,12,1.0,0.0,M,0.0,M,,*69
$GPGSA,A,3,01,02,03,04,05,06,07,08,09,10,11,12,1.0,1.0,1.0*30
$GPRMC,091849.017,A,2016.044,N,08550.661,E,000.3,000.0,190224,000.0,W*72
$GPGGA,091850.017,2016.044,N,08550.661,E,1,12,1.0,0.0,M,0.0,M,,*61
$GPGSA,A,3,01,02,03,04,05,06,07,08,09,10,11,12,1.0,1.0,1.0*30
$GPRMC,091850.017,A,2016.044,N,08550.661,E,000.0,000.0,190224,000.0,W*79
$GPGGA,091851.017,2016.044,N,08550.661,E,1,12,1.0,0.0,M,0.0,M,,*60
$GPGSA,A,3,01,02,03,04,05,06,07,08,09,10,11,12,1.0,1.0,1.0*30
$GPRMC,091851.017,A,2016.044,N,08550.661,E,000.0,000.0,190224,000.0,W*78
$GPGGA,091852.017,2016.044,N,08550.661,E,1,12,1.0,0.0,M,0.0,M,,*63
$GPGSA,A,3,01,02,03,04,05,06,07,08,09,10,11,12,1.0,1.0,1.0*30
$GPRMC,091852.017,A,2016.044,N,08550.661,E,000.0,000.0,190224,000.0,W*7B
$GPGGA,091853.017,2016.044,N,08550.661,E,1,12,1.0,0.0,M,0.0,M,,*62
$GPGSA,A,3,01,02,03,04,05,06,07,08,09,10,11,12,1.0,1.0,1.0*30
$GPRMC,091853.017,A,2016.044,N,08550.661,E,000.0,000.0,190224,000.0,W*7A
$GPGGA,091854.017,2016.044,N,08550.661,E,1,12,1.0,0.0,M,0.0,M,,*65
$GPGSA,A,3,01,02,03,04,05,06,07,08,09,10,11,12,1.0,1.0,1.0*30
$GPRMC,091854.017,A,2016.044,N,08550.661,E,000.0,000.0,190224,000.0,W*7D
$GPGGA,091855.017,2016.044,N,08550.661,E,1,12,1.0,0.0,M,0.0,M,,*64
$GPGSA,A,3,01,02,03,04,05,06,07,08,09,10,11,12,1.0,1.0,1.0*30
$GPRMC,091855.017,A,2016.044,N,08550.661,E,000.0,000.0,190224,000.0,W*7C
$GPGGA,091856.017,2016.044,N,08550.661,E,1,12,1.0,0.0,M,0.0,M,,*67
$GPGSA,A,3,01,02,03,04,05,06,07,08,09,10,11,12,1.0,1.0,1.0*30
$GPRMC,091856.017,A,2016.044,N,08550.661,E,000.0,000.0,190224,000.0,W*7F
$GPGGA,091857.017,2016.044,N,08550.661,E,1,12,1.0,0.0,M,0.0,M,,*66
$GPGSA,A,3,01,02,03,04,05,06,07,08,09,10,11,12,1.0,1.0,1.0*30
$GPRMC,091857.017,A,2016.044,N,08550.661,E,000.0,000.0,190224,000.0,W*7E
$GPGGA,091858.017,2016.044,N,08550.661,E,1,12,1.0,0.0,M,0.0,M,,*69
$GPGSA,A,3,01,02,03,04,05,06,07,08,09,10,11,12,1.0,1.0,1.0*30
$GPRMC,091858.017,A,2016.044,N,08550.661,E,000.0,000.0,190224,000.0,W*71
$GPGGA,091859.017,2016.044,N,08550.661,E,1,12,1.0,0.0,M,0.0,M,,*68
$GPGSA,A,3,01,02,03,04,05,06,07,08,09,10,11,12,1.0,1.0,1.0*30
$GPRMC,091859.017,A,2016.044,N,08550.661,E,000.0,000.0,190224,000.0,W*70
$GPGGA,091900.017,2016.044,N,08550.661,E,1,12,1.0,0.0,M,0.0,M,,*65
$GPGSA,A,3,01,02,03,04,05,06,07,08,09,10,11,12,1.0,1.0,1.0*30
$GPRMC,091900.017,A,2016.044,N,08550.661,E,000.0,000.0,190224,000.0,W*7D
$GPGGA,091901.017,2016.044,N,08550.661,E,1,12,1.0,0.0,M,0.0,M,,*64
$GPGSA,A,3,01,02,03,04,05,06,07,08,09,10,11,12,1.0,1.0,1.0*30
$GPRMC,091901.017,A,2016.044,N,08550.661,E,000.0,000.0,190224,000.0,W*7C
$GPGGA,091902.017,2016.044,N,08550.661,E,1,12,1.0,0.0,M,0.0,M,,*67
$GPGSA,A,3,01,02,03,04,05,06,07,08,09,10,11,12,1.0,1.0,1.0*30
$GPRMC,091902.017,A,2016.044,N,08550.661,E,000.0,000.0,190224,000.0,W*7F
$GPGGA,091903.017,2016.044,N,08550.661,E,1,12,1.0,0.0,M,0.0,M,,*66
$GPGSA,A,3,01,02,03,04,05,06,07,08,09,10,11,12,1.0,1.0,1.0*30
$GPRMC,091903.017,A,2016.044,N,08550.661,E,000.0,000.0,190224,000.0,W*7E
$GPGGA,091904.017,2016.044,N,08550.661,E,1,12,1.0,0.0,M,0.0,M,,*61
$GPGSA,A,3,01,02,03,04,05,06,07,08,09,10,11,12,1.0,1.0,1.0*30
$GPRMC,091904.017,A,2016.044,N,08550.661,E,000.0,000.0,190224,000.0,W*79
$GPGGA,091905.017,2016.044,N,08550.661,E,1,12,1.0,0.0,M,0.0,M,,*60
$GPGSA,A,3,01,02,03,04,05,06,07,08,09,10,11,12,1.0,1.0,1.0*30
$GPRMC,091905.017,A,2016.044,N,08550.661,E,000.0,000.0,190224,000.0,W*78
$GPGGA,091906.017,2016.044,N,08550.661,E,1,12,1.0,0.0,M,0.0,M,,*63
$GPGSA,A,3,01,02,03,04,05,06,07,08,09,10,11,12,1.0,1.0,1.0*30
$GPRMC,091906.017,A,2016.044,N,08550.661,E,000.0,000.0,190224,000.0,W*7B
$GPGGA,091907.017,2016.044,N,08550.661,E,1,12,1.0,0.0,M,0.0,M,,*62
$GPGSA,A,3,01,02,03,04,05,06,07,08,09,10,11,12,1.0,1.0,1.0*30
$GPRMC,091907.017,A,2016.044,N,08550.661,E,000.0,000.0,190224,000.0,W*7A
$GPGGA,091908.017,2016.044,N,08550.661,E,1,12,1.0,0.0,M,0.0,M,,*6D
$GPGSA,A,3,01,02,03,04,05,06,07,08,09,10,11,12,1.0,1.0,1.0*30
$GPRMC,091908.017,A,2016.044,N,08550.661,E,000.0,000.0,190224,000.0,W*75
$GPGGA,091909.017,2016.044,N,08550.661,E,1,12,1.0,0.0,M,0.0,M,,*6C
$GPGSA,A,3,01,02,03,04,05,06,07,08,09,10,11,12,1.0,1.0,1.0*30
$GPRMC,091909.017,A,2016.044,N,08550.661,E,000.0,000.0,190224,000.0,W*74
$GPGGA,091910.017,2016.044,N,08550.661,E,1,12,1.0,0.0,M,0.0,M,,*64
$GPGSA,A,3,01,02,03,04,05,06,07,08,09,10,11,12,1.0,1.0,1.0*30
$GPRMC,091910.017,A,2016.044,N,08550.661,E,000.0,000.0,190224,000.0,W*7C
$GPGGA,091911.017,2016.044,N,08550.661,E,1,12,1.0,0.0,M,0.0,M,,*65
$GPGSA,A,3,01,02,03,04,05,06,07,08,09,10,11,12,1.0,1.0,1.0*30
$GPRMC,091911.017,A,2016.044,N,08550.661,E,000.0,000.0,190224,000.0,W*7D
$GPGGA,091912.017,2016.044,N,08550.661,E,1,12,1.0,0.0,M,0.0,M,,*66
$GPGSA,A,3,01,02,03,04,05,06,07,08,09,10,11,12,1.0,1.0,1.0*30
$GPRMC,091912.017,A,2016.044,N,08550.661,E,000.0,000.0,190224,000.0,W*7E
$GPGGA,091913.017,2016.044,N,08550.661,E,1,12,1.0,0.0,M,0.0,M,,*67
$GPGSA,A,3,01,02,03,04,05,06,07,08,09,10,11,12,1.0,1.0,1.0*30
$GPRMC,091913.017,A,2016.044,N,08550.661,E,000.0,000.0,190224,000.0,W*7F
$GPGGA,091914.017,2016.044,N,08550.661,E,1,12,1.0,0.0,M,0.0,M,,*60
$GPGSA,A,3,01,02,03,04,05,06,07,08,09,10,11,12,1.0,1.0,1.0*30
$GPRMC,091914.017,A,2016.044,N,08550.661,E,000.0,000.0,190224,000.0,W*78
$GPGGA,091915.017,2016.044,N,08550.661,E,1,12,1.0,0.0,M,0.0,M,,*61
$GPGSA,A,3,01,02,03,04,05,06,07,08,09,10,11,12,1.0,1.0,1.0*30
$GPRMC,091915.017,A,2016.044,N,08550.661,E,000.0,000.0,190224,000.0,W*79
$GPGGA,091916.017,2016.044,N,08550.661,E,1,12,1.0,0.0,M,0.0,M,,*62
$GPGSA,A,3,01,02,03,04,05,06,07,08,09,10,11,12,1.0,1.0,1.0*30
$GPRMC,091916.017,A,2016.044,N,08550.661,E,000.0,000.0,190224,000.0,W*7A
$GPGGA,091917.017,2016.044,N,08550.661,E,1,12,1.0,0.0,M,0.0,M,,*63
$GPGSA,A,3,01,02,03,04,05,06,07,08,09,10,11,12,1.0,1.0,1.0*30
$GPRMC,091917.017,A,2016.044,N,08550.661,E,000.0,000.0,190224,000.0,W*7B
$GPGGA,091918.017,2016.044,N,08550.661,E,1,12,1.0,0.0,M,0.0,M,,*6C
$GPGSA,A,3,01,02,03,04,05,06,07,08,09,10,11,12,1.0,1.0,1.0*30
$GPRMC,091918.017,A,2016.044,N,08550.661,E,000.0,000.0,190224,000.0,W*74
$GPGGA,091919.017,2016.044,N,08550.661,E,1,12,1.0,0.0,M,0.0,M,,*6D
$GPGSA,A,3,01,02,03,04,05,06,07,08,09,10,11,12,1.0,1.0,1.0*30
$GPRMC,091919.017,A,2016.044,N,08550.661,E,000.0,000.0,190224,000.0,W*75
$GPGGA,091920.017,2016.044,N,08550.661,E,1,12,1.0,0.0,M,0.0,M,,*67
$GPGSA,A,3,01,02,03,04,05,06,07,08,09,10,11,12,1.0,1.0,1.0*30
$GPRMC,091920.017,A,2016.044,N,08550.661,E,000.0,000.0,190224,000.0,W*7F
$GPGGA,091921.017,2016.044,N,08550.661,E,1,12,1.0,0.0,M,0.0,M,,*66
$GPGSA,A,3,01,02,03,04,05,06,07,08,09,10,11,12,1.0,1.0,1.0*30
$GPRMC,091921.017,A,2016.044,N,08550.661,E,000.0,000.0,190224,000.0,W*7E
$GPGGA,091922.017,2016.044,N,08550.661,E,1,12,1.0,0.0,M,0.0,M,,*65
$GPGSA,A,3,01,02,03,04,05,06,07,08,09,10,11,12,1.0,1.0,1.0*30
$GPRMC,091922.017,A,2016.044,N,08550.661,E,000.0,000.0,190224,000.0,W*7D
$GPGGA,091923.017,2016.044,N,08550.661,E,1,12,1.0,0.0,M,0.0,M,,*64
$GPGSA,A,3,01,02,03,04,05,06,07,08,09,10,11,12,1.0,1.0,1.0*30
$GPRMC,091923.017,A,2016.044,N,08550.661,E,000.0,000.0,190224,000.0,W*7C
$GPGGA,091924.017,2016.044,N,08550.661,E,1,12,1.0,0.0,M,0.0,M,,*63
$GPGSA,A,3,01,02,03,04,05,06,07,08,09,10,11,12,1.0,1.0,1.0*30
$GPRMC,091924.017,A,2016.044,N,08550.661,E,000.0,000.0,190224,000.0,W*7B
$GPGGA,091925.017,2016.044,N,08550.661,E,1,12,1.0,0.0,M,0.0,M,,*62
$GPGSA,A,3,01,02,03,04,05,06,07,08,09,10,11,12,1.0,1.0,1.0*30
$GPRMC,091925.017,A,2016.044,N,08550.661,E,000.0,000.0,190224,000.0,W*7A
$GPGGA,091926.017,2016.044,N,08550.661,E,1,12,1.0,0.0,M,0.0,M,,*61
$GPGSA,A,3,01,02,03,04,05,06,07,08,09,10,11,12,1.0,1.0,1.0*30
$GPRMC,091926.017,A,2016.044,N,08550.661,E,000.0,000.0,190224,000.0,W*79
$GPGGA,091927.017,2016.044,N,08550.661,E,1,12,1.0,0.0,M,0.0,M,,*60
$GPGSA,A,3,01,02,03,04,05,06,07,08,09,10,11,12,1.0,1.0,1.0*30
$GPRMC,091927.017,A,2016.044,N,08550.661,E,000.0,000.0,190224,000.0,W*78
$GPGGA,091928.017,2016.044,N,08550.661,E,1,12,1.0,0.0,M,0.0,M,,*6F
$GPGSA,A,3,01,02,03,04,05,06,07,08,09,10,11,12,1.0,1.0,1.0*30
$GPRMC,091928.017,A,2016.044,N,08550.661,E,000.0,000.0,190224,000.0,W*77
$GPGGA,091929.017,2016.044,N,08550.661,E,1,12,1.0,0.0,M,0.0,M,,*6E
$GPGSA,A,3,01,02,03,04,05,06,07,08,09,10,11,12,1.0,1.0,1.0*30
$GPRMC,091929.017,A,2016.044,N,08550.661,E,000.0,000.0,190224,000.0,W*76
$GPGGA,091930.017,2016.044,N,08550.661,E,1,12,1.0,0.0,M,0.0,M,,*66
$GPGSA,A,3,01,02,03,04,05,06,07,08,09,10,11,12,1.0,1.0,1.0*30
$GPRMC,091930.017,A,2016.044,N,08550.661,E,000.0,000.0,190224,000.0,W*7E
$GPGGA,091931.017,2016.044,N,08550.661,E,1,12,1.0,0.0,M,0.0,M,,*67
$GPGSA,A,3,01,02,03,04,05,06,07,08,09,10,11,12,1.0,1.0,1.0*30
$GPRMC,091931.017,A,2016.044,N,08550.661,E,000.0,000.0,190224,000.0,W*7F
$GPGGA,091932.017,2016.044,N,08550.661,E,1,12,1.0,0.0,M,0.0,M,,*64
$GPGSA,A,3,01,02,03,04,05,06,07,08,09,10,11,12,1.0,1.0,1.0*30
$GPRMC,091932.017,A,2016.044,N,08550.661,E,000.0,000.0,190224,000.0,W*7C
$GPGGA,091933.017,2016.044,N,08550.661,E,1,12,1.0,0.0,M,0.0,M,,*65
$GPGSA,A,3,01,02,03,04,05,06,07,08,09,10,11,12,1.0,1.0,1.0*30
$GPRMC,091933.017,A,2016.044,N,08550.661,E,000.0,000.0,190224,000.0,W*7D
$GPGGA,091934.017,2016.044,N,08550.661,E,1,12,1.0,0.0,M,0.0,M,,*62
$GPGSA,A,3,01,02,03,04,05,06,07,08,09,10,11,12,1.0,1.0,1.0*30
$GPRMC,091934.017,A,2016.044,N,08550.661,E,000.0,000.0,190224,000.0,W*7A
$GPGGA,091935.017,2016.044,N,08550.661,E,1,12,1.0,0.0,M,0.0,M,,*63
$GPGSA,A,3,01,02,03,04,05,06,07,08,09,10,11,12,1.0,1.0,1.0*30
$GPRMC,091935.017,A,2016.044,N,08550.661,E,000.0,000.0,190224,000.0,W*7B
$GPGGA,091936.017,2016.044,N,08550.661,E,1,12,1.0,0.0,M,0.0,M,,*60
$GPGSA,A,3,01,02,03,04,05,06,07,08,09,10,11,12,1.0,1.0,1.0*30
$GPRMC,091936.017,A,2016.044,N,08550.661,E,000.0,000.0,190224,000.0,W*78
$GPGGA,091937.017,2016.044,N,08550.661,E,1,12,1.0,0.0,M,0.0,M,,*61
$GPGSA,A,3,01,02,03,04,05,06,07,08,09,10,11,12,1.0,1.0,1.0*30
$GPRMC,091937.017,A,2016.044,N,08550.661,E,000.0,000.0,190224,000.0,W*79
$GPGGA,091938.017,2016.044,N,08550.661,E,1,12,1.0,0.0,M,0.0,M,,*6E
$GPGSA,A,3,01,02,03,04,05,06,07,08,09,10,11,12,1.0,1.0,1.0*30
$GPRMC,091938.017,A,2016.044,N,08550.661,E,000.0,000.0,190224,000.0,W*76
$GPGGA,091939.017,2016.044,N,08550.661,E,1,12,1.0,0.0,M,0.0,M,,*6F
$GPGSA,A,3,01,02,03,04,05,06,07,08,09,10,11,12,1.0,1.0,1.0*30
$GPRMC,091939.017,A,2016.044,N,08550.661,E,000.0,000.0,190224,000.0,W*77
$GPGGA,091940.017,2016.044,N,08550.661,E,1,12,1.0,0.0,M,0.0,M,,*61
$GPGSA,A,3,01,02,03,04,05,06,07,08,09,10,11,12,1.0,1.0,1.0*30
$GPRMC,091940.017,A,2016.044,N,08550.661,E,000.0,000.0,190224,000.0,W*79
$GPGGA,091941.017,2016.044,N,08550.661,E,1,12,1.0,0.0,M,0.0,M,,*60
$GPGSA,A,3,01,02,03,04,05,06,07,08,09,10,11,12,1.0,1.0,1.0*30
$GPRMC,091941.017,A,2016.044,N,08550.661,E,000.0,000.0,190224,000.0,W*78
$GPGGA,091942.017,2016.044,N,08550.661,E,1,12,1.0,0.0,M,0.0,M,,*63
$GPGSA,A,3,01,02,03,04,05,06,07,08,09,10,11,12,1.0,1.0,1.0*30
$GPRMC,091942.017,A,2016.044,N,08550.661,E,000.0,000.0,190224,000.0,W*7B
$GPGGA,091943.017,2016.044,N,08550.661,E,1,12,1.0,0.0,M,0.0,M,,*62
$GPGSA,A,3,01,02,03,04,05,06,07,08,09,10,11,12,1.0,1.0,1.0*30
$GPRMC,091943.017,A,2016.044,N,08550.661,E,000.0,000.0,190224,000.0,W*7A
$GPGGA,091944.017,2016.044,N,08550.661,E,1,12,1.0,0.0,M,0.0,M,,*65
$GPGSA,A,3,01,02,03,04,05,06,07,08,09,10,11,12,1.0,1.0,1.0*30
$GPRMC,091944.017,A,2016.044,N,08550.661,E,000.0,000.0,190224,000.0,W*7D
$GPGGA,091945.017,2016.044,N,08550.661,E,1,12,1.0,0.0,M,0.0,M,,*64
$GPGSA,A,3,01,02,03,04,05,06,07,08,09,10,11,12,1.0,1.0,1.0*30
$GPRMC,091945.017,A,2016.044,N,08550.661,E,000.0,000.0,190224,000.0,W*7C
$GPGGA,091946.017,2016.044,N,08550.661,E,1,12,1.0,0.0,M,0.0,M,,*67
$GPGSA,A,3,01,02,03,04,05,06,07,08,09,10,11,12,1.0,1.0,1.0*30
$GPRMC,091946.017,A,2016.044,N,08550.661,E,000.0,000.0,190224,000.0,W*7F
$GPGGA,091947.017,2016.044,N,08550.661,E,1,12,1.0,0.0,M,0.0,M,,*66
$GPGSA,A,3,01,02,03,04,05,06,07,08,09,10,11,12,1.0,1.0,1.0*30
$GPRMC,091947.017,A,2016.044,N,08550.661,E,000.0,000.0,190224,000.0,W*7E
$GPGGA,091948.017,2016.044,N,08550.661,E,1,12,1.0,0.0,M,0.0,M,,*69
$GPGSA,A,3,01,02,03,04,05,06,07,08,09,10,11,12,1.0,1.0,1.0*30
$GPRMC,091948.017,A,2016.044,N,08550.661,E,000.0,000.0,190224,000.0,W*71
$GPGGA,091949.017,2016.044,N,08550.661,E,1,12,1.0,0.0,M,0.0,M,,*68
$GPGSA,A,3,01,02,03,04,05,06,07,08,09,10,11,12,1.0,1.0,1.0*30
$GPRMC,091949.017,A,2016.044,N,08550.661,E,000.0,000.0,190224,000.0,W*70
$GPGGA,091950.017,2016.044,N,08550.661,E,1,12,1.0,0.0,M,0.0,M,,*60
$GPGSA,A,3,01,02,03,04,05,06,07,08,09,10,11,12,1.0,1.0,1.0*30
$GPRMC,091950.017,A,2016.044,N,08550.661,E,000.0,000.0,190224,000.0,W*78
$GPGGA,091951.017,2016.044,N,08550.661,E,1,12,1.0,0.0,M,0.0,M,,*61
$GPGSA,A,3,01,02,03,04,05,06,07,08,09,10,11,12,1.0,1.0,1.0*30
$GPRMC,091951.017,A,2016.044,N,08550.661,E,000.0,000.0,190224,000.0,W*79
$GPGGA,091952.017,2016.044,N,08550.661,E,1,12,1.0,0.0,M,0.0,M,,*62
$GPGSA,A,3,01,02,03,04,05,06,07,08,09,10,11,12,1.0,1.0,1.0*30
$GPRMC,091952.017,A,2016.044,N,08550.661,E,000.0,000.0,190224,000.0,W*7A
$GPGGA,091953.017,2016.044,N,08550.661,E,1,12,1.0,0.0,M,0.0,M,,*63
$GPGSA,A,3,01,02,03,04,05,06,07,08,09,10,11,12,1.0,1.0,1.0*30
$GPRMC,091953.017,A,2016.044,N,08550.661,E,000.0,000.0,190224,000.0,W*7B
$GPGGA,091954.017,2016.044,N,08550.661,E,1,12,1.0,0.0,M,0.0,M,,*64
$GPGSA,A,3,01,02,03,04,05,06,07,08,09,10,11,12,1.0,1.0,1.0*30
$GPRMC,091954.017,A,2016.044,N,08550.661,E,000.0,000.0,190224,000.0,W*7C
$GPGGA,091955.017,2016.044,N,08550.661,E,1,12,1.0,0.0,M,0.0,M,,*65
$GPGSA,A,3,01,02,03,04,05,06,07,08,09,10,11,12,1.0,1.0,1.0*30
$GPRMC,091955.017,A,2016.044,N,08550.661,E,000.0,000.0,190224,000.0,W*7D
$GPGGA,091956.017,2016.044,N,08550.661,E,1,12,1.0,0.0,M,0.0,M,,*66
$GPGSA,A,3,01,02,03,04,05,06,07,08,09,10,11,12,1.0,1.0,1.0*30
$GPRMC,091956.017,A,2016.044,N,08550.661,E,000.0,000.0,190224,000.0,W*7E
$GPGGA,091957.017,2016.044,N,08550.661,E,1,12,1.0,0.0,M,0.0,M,,*67
$GPGSA,A,3,01,02,03,04,05,06,07,08,09,10,11,12,1.0,1.0,1.0*30
$GPRMC,091957.017,A,2016.044,N,08550.661,E,000.0,000.0,190224,000.0,W*7F
$GPGGA,091958.017,2016.044,N,08550.661,E,1,12,1.0,0.0,M,0.0,M,,*68
$GPGSA,A,3,01,02,03,04,05,06,07,08,09,10,11,12,1.0,1.0,1.0*30
$GPRMC,091958.017,A,2016.044,N,08550.661,E,000.0,000.0,190224,000.0,W*70
$GPGGA,091959.017,2016.044,N,08550.661,E,1,12,1.0,0.0,M,0.0,M,,*69
$GPGSA,A,3,01,02,03,04,05,06,07,08,09,10,11,12,1.0,1.0,1.0*30
$GPRMC,091959.017,A,2016.044,N,08550.661,E,000.0,000.0,190224,000.0,W*71
$GPGGA,092000.017,2016.044,N,08550.661,E,1,12,1.0,0.0,M,0.0,M,,*6F
$GPGSA,A,3,01,02,03,04,05,06,07,08,09,10,11,12,1.0,1.0,1.0*30
$GPRMC,092000.017,A,2016.044,N,08550.661,E,000.0,000.0,190224,000.0,W*77
$GPGGA,092001.017,2016.044,N,08550.661,E,1,12,1.0,0.0,M,0.0,M,,*6E
$GPGSA,A,3,01,02,03,04,05,06,07,08,09,10,11,12,1.0,1.0,1.0*30
$GPRMC,092001.017,A,2016.044,N,08550.661,E,000.0,000.0,190224,000.0,W*76
$GPGGA,092002.017,2016.044,N,08550.661,E,1,12,1.0,0.0,M,0.0,M,,*6D
$GPGSA,A,3,01,02,03,04,05,06,07,08,09,10,11,12,1.0,1.0,1.0*30
$GPRMC,092002.017,A,2016.044,N,08550.661,E,000.0,000.0,190224,000.0,W*75
$GPGGA,092003.017,2016.044,N,08550.661,E,1,12,1.0,0.0,M,0.0,M,,*6C
$GPGSA,A,3,01,02,03,04,05,06,07,08,09,10,11,12,1.0,1.0,1.0*30
$GPRMC,092003.017,A,2016.044,N,08550.661,E,000.0,000.0,190224,000.0,W*74
$GPGGA,092004.017,2016.044,N,08550.661,E,1,12,1.0,0.0,M,0.0,M,,*6B
$GPGSA,A,3,01,02,03,04,05,06,07,08,09,10,11,12,1.0,1.0,1.0*30
$GPRMC,092004.017,A,2016.044,N,08550.661,E,000.0,000.0,190224,000.0,W*73
$GPGGA,092005.017,2016.044,N,08550.661,E,1,12,1.0,0.0,M,0.0,M,,*6A
$GPGSA,A,3,01,02,03,04,05,06,07,08,09,10,11,12,1.0,1.0,1.0*30
$GPRMC,092005.017,A,2016.044,N,08550.661,E,000.0,000.0,190224,000.0,W*72
$GPGGA,092006.017,2016.044,N,08550.661,E,1,12,1.0,0.0,M,0.0,M,,*69
$GPGSA,A,3,01,02,03,04,05,06,07,08,09,10,11,12,1.0,1.0,1.0*30
$GPRMC,092006.017,A,2016.044,N,08550.661,E,000.0,000.0,190224,000.0,W*71
$GPGGA,092007.017,2016.044,N,08550.661,E,1,12,1.0,0.0,M,0.0,M,,*68
$GPGSA,A,3,01,02,03,04,05,06,07,08,09,10,11,12,1.0,1.0,1.0*30
$GPRMC,092007.017,A,2016.044,N,08550.661,E,000.0,000.0,190224,000.0,W*70
$GPGGA,092008.017,2016.044,N,08550.661,E,1,12,1.0,0.0,M,0.0,M,,*67
$GPGSA,A,3,01,02,03,04,05,06,07,08,09,10,11,12,1.0,1.0,1.0*30
$GPRMC,092008.017,A,2016.044,N,08550.661,E,000.0,000.0,190224,000.0,W*7F
$GPGGA,092009.017,2016.044,N,08550.661,E,1,12,1.0,0.0,M,0.0,M,,*66
$GPGSA,A,3,01,02,03,04,05,06,07,08,09,10,11,12,1.0,1.0,1.0*30
$GPRMC,092009.017,A,2016.044,N,08550.661,E,000.0,000.0,190224,000.0,W*7E
$GPGGA,092010.017,2016.044,N,08550.661,E,1,12,1.0,0.0,M,0.0,M,,*6E
$GPGSA,A,3,01,02,03,04,05,06,07,08,09,10,11,12,1.0,1.0,1.0*30
$GPRMC,092010.017,A,2016.044,N,08550.661,E,000.0,000.0,190224,000.0,W*76
$GPGGA,092011.017,2016.044,N,08550.661,E,1,12,1.0,0.0,M,0.0,M,,*6F
$GPGSA,A,3,01,02,03,04,05,06,07,08,09,10,11,12,1.0,1.0,1.0*30
$GPRMC,092011.017,A,2016.044,N,08550.661,E,000.0,000.0,190224,000.0,W*77
$GPGGA,092012.017,2016.044,N,08550.661,E,1,12,1.0,0.0,M,0.0,M,,*6C
$GPGSA,A,3,01,02,03,04,05,06,07,08,09,10,11,12,1.0,1.0,1.0*30
$GPRMC,092012.017,A,2016.044,N,08550.661,E,000.0,000.0,190224,000.0,W*74
$GPGGA,092013.017,2016.044,N,08550.661,E,1,12,1.0,0.0,M,0.0,M,,*6D
$GPGSA,A,3,01,02,03,04,05,06,07,08,09,10,11,12,1.0,1.0,1.0*30
$GPRMC,092013.017,A,2016.044,N,08550.661,E,000.0,000.0,190224,000.0,W*75
$GPGGA,092014.017,2016.044,N,08550.661,E,1,12,1.0,0.0,M,0.0,M,,*6A
$GPGSA,A,3,01,02,03,04,05,06,07,08,09,10,11,12,1.0,1.0,1.0*30
$GPRMC,092014.017,A,2016.044,N,08550.661,E,000.0,000.0,190224,000.0,W*72
$GPGGA,092015.017,2016.044,N,08550.661,E,1,12,1.0,0.0,M,0.0,M,,*6B
$GPGSA,A,3,01,02,03,04,05,06,07,08,09,10,11,12,1.0,1.0,1.0*30
$GPRMC,092015.017,A,2016.044,N,08550.661,E,000.0,000.0,190224,000.0,W*73
$GPGGA,092016.017,2016.044,N,08550.661,E,1,12,1.0,0.0,M,0.0,M,,*68
$GPGSA,A,3,01,02,03,04,05,06,07,08,09,10,11,12,1.0,1.0,1.0*30
$GPRMC,092016.017,A,2016.044,N,08550.661,E,000.0,000.0,190224,000.0,W*70
$GPGGA,092017.017,2016.044,N,08550.661,E,1,12,1.0,0.0,M,0.0,M,,*69
$GPGSA,A,3,01,02,03,04,05,06,07,08,09,10,11,12,1.0,1.0,1.0*30
$GPRMC,092017.017,A,2016.044,N,08550.661,E,000.0,000.0,190224,000.0,W*71
$GPGGA,092018.017,2016.044,N,08550.661,E,1,12,1.0,0.0,M,0.0,M,,*66
$GPGSA,A,3,01,02,03,04,05,06,07,08,09,10,11,12,1.0,1.0,1.0*30
$GPRMC,092018.017,A,2016.044,N,08550.661,E,000.0,000.0,190224,000.0,W*7E
$GPGGA,092019.017,2016.044,N,08550.661,E,1,12,1.0,0.0,M,0.0,M,,*67
$GPGSA,A,3,01,02,03,04,05,06,07,08,09,10,11,12,1.0,1.0,1.0*30
$GPRMC,092019.017,A,2016.044,N,08550.661,E,000.0,000.0,190224,000.0,W*7F
$GPGGA,092020.017,2016.044,N,08550.661,E,1,12,1.0,0.0,M,0.0,M,,*6D
$GPGSA,A,3,01,02,03,04,05,06,07,08,09,10,11,12,1.0,1.0,1.0*30
$GPRMC,092020.017,A,2016.044,N,08550.661,E,000.0,000.0,190224,000.0,W*75
$GPGGA,092021.017,2016.044,N,08550.661,E,1,12,1.0,0.0,M,0.0,M,,*6C
$GPGSA,A,3,01,02,03,04,05,06,07,08,09,10,11,12,1.0,1.0,1.0*30
$GPRMC,092021.017,A,2016.044,N,08550.661,E,000.0,000.0,190224,000.0,W*74
$GPGGA,092022.017,2016.044,N,08550.661,E,1,12,1.0,0.0,M,0.0,M,,*6F
$GPGSA,A,3,01,02,03,04,05,06,07,08,09,10,11,12,1.0,1.0,1.0*30
$GPRMC,092022.017,A,2016.044,N,08550.661,E,000.0,000.0,190224,000.0,W*77
$GPGGA,092023.017,2016.044,N,08550.661,E,1,12,1.0,0.0,M,0.0,M,,*6E
$GPGSA,A,3,01,02,03,04,05,06,07,08,09,10,11,12,1.0,1.0,1.0*30
$GPRMC,092023.017,A,2016.044,N,08550.661,E,000.0,000.0,190224,000.0,W*76
$GPGGA,092024.017,2016.044,N,08550.661,E,1,12,1.0,0.0,M,0.0,M,,*69
$GPGSA,A,3,01,02,03,04,05,06,07,08,09,10,11,12,1.0,1.0,1.0*30
$GPRMC,092024.017,A,2016.044,N,08550.661,E,000.0,000.0,190224,000.0,W*71
$GPGGA,092025.017,2016.044,N,08550.661,E,1,12,1.0,0.0,M,0.0,M,,*68
$GPGSA,A,3,01,02,03,04,05,06,07,08,09,10,11,12,1.0,1.0,1.0*30
$GPRMC,092025.017,A,2016.044,N,08550.661,E,000.0,000.0,190224,000.0,W*70
$GPGGA,092026.017,2016.044,N,08550.661,E,1,12,1.0,0.0,M,0.0,M,,*6B
$GPGSA,A,3,01,02,03,04,05,06,07,08,09,10,11,12,1.0,1.0,1.0*30
$GPRMC,092026.017,A,2016.044,N,08550.661,E,000.0,000.0,190224,000.0,W*73
$GPGGA,092027.017,2016.044,N,08550.661,E,1,12,1.0,0.0,M,0.0,M,,*6A
$GPGSA,A,3,01,02,03,04,05,06,07,08,09,10,11,12,1.0,1.0,1.0*30
$GPRMC,092027.017,A,2016.044,N,08550.661,E,000.0,000.0,190224,000.0,W*72
$GPGGA,092028.017,2016.044,N,08550.661,E,1,12,1.0,0.0,M,0.0,M,,*65
$GPGSA,A,3,01,02,03,04,05,06,07,08,09,10,11,12,1.0,1.0,1.0*30
$GPRMC,092028.017,A,2016.044,N,08550.661,E,000.0,000.0,190224,000.0,W*7D
$GPGGA,092029.017,2016.044,N,08550.661,E,1,12,1.0,0.0,M,0.0,M,,*64
$GPGSA,A,3,01,02,03,04,05,06,07,08,09,10,11,12,1.0,1.0,1.0*30
$GPRMC,092029.017,A,2016.044,N,08550.661,E,000.0,000.0,190224,000.0,W*7C
$GPGGA,092030.017,2016.044,N,08550.661,E,1,12,1.0,0.0,M,0.0,M,,*6C
$GPGSA,A,3,01,02,03,04,05,06,07,08,09,10,11,12,1.0,1.0,1.0*30
$GPRMC,092030.017,A,2016.044,N,08550.661,E,000.0,000.0,190224,000.0,W*74
$GPGGA,092031.017,2016.044,N,08550.661,E,1,12,1.0,0.0,M,0.0,M,,*6D
$GPGSA,A,3,01,02,03,04,05,06,07,08,09,10,11,12,1.0,1.0,1.0*30
$GPRMC,092031.017,A,2016.044,N,08550.661,E,000.0,000.0,190224,000.0,W*75
$GPGGA,092032.017,2016.044,N,08550.661,E,1,12,1.0,0.0,M,0.0,M,,*6E
$GPGSA,A,3,01,02,03,04,05,06,07,08,09,10,11,12,1.0,1.0,1.0*30
$GPRMC,092032.017,A,2016.044,N,08550.661,E,000.0,000.0,190224,000.0,W*76
$GPGGA,092033.017,2016.044,N,08550.661,E,1,12,1.0,0.0,M,0.0,M,,*6F
$GPGSA,A,3,01,02,03,04,05,06,07,08,09,10,11,12,1.0,1.0,1.0*30
$GPRMC,092033.017,A,2016.044,N,08550.661,E,000.0,000.0,190224,000.0,W*77
$GPGGA,092034.017,2016.044,N,08550.661,E,1,12,1.0,0.0,M,0.0,M,,*68
$GPGSA,A,3,01,02,03,04,05,06,07,08,09,10,11,12,1.0,1.0,1.0*30
$GPRMC,092034.017,A,2016.044,N,08550.661,E,000.0,000.0,190224,000.0,W*70
$GPGGA,092035.017,2016.044,N,08550.661,E,1,12,1.0,0.0,M,0.0,M,,*69
$GPGSA,A,3,01,02,03,04,05,06,07,08,09,10,11,12,1.0,1.0,1.0*30
$GPRMC,092035.017,A,2016.044,N,08550.661,E,000.0,000.0,190224,000.0,W*71
$GPGGA,092036.017,2016.044,N,08550.661,E,1,12,1.0,0.0,M,0.0,M,,*6A
$GPGSA,A,3,01,02,03,04,05,06,07,08,09,10,11,12,1.0,1.0,1.0*30
$GPRMC,092036.017,A,2016.044,N,08550.661,E,000.0,000.0,190224,000.0,W*72
$GPGGA,092037.017,2016.044,N,08550.661,E,1,12,1.0,0.0,M,0.0,M,,*6B
$GPGSA,A,3,01,02,03,04,05,06,07,08,09,10,11,12,1.0,1.0,1.0*30
$GPRMC,092037.017,A,2016.044,N,08550.661,E,000.0,000.0,190224,000.0,W*73
$GPGGA,092038.017,2016.044,N,08550.661,E,1,12,1.0,0.0,M,0.0,M,,*64
$GPGSA,A,3,01,02,03,04,05,06,07,08,09,10,11,12,1.0,1.0,1.0*30
$GPRMC,092038.017,A,2016.044,N,08550.661,E,000.0,000.0,190224,000.0,W*7C
$GPGGA,092039.017,2016.044,N,08550.661,E,1,12,1.0,0.0,M,0.0,M,,*65
$GPGSA,A,3,01,02,03,04,05,06,07,08,09,10,11,12,1.0,1.0,1.0*30
$GPRMC,092039.017,A,2016.044,N,08550.661,E,000.0,000.0,190224,000.0,W*7D
$GPGGA,092040.017,2016.044,N,08550.661,E,1,12,1.0,0.0,M,0.0,M,,*6B
$GPGSA,A,3,01,02,03,04,05,06,07,08,09,10,11,12,1.0,1.0,1.0*30
$GPRMC,092040.017,A,2016.044,N,08550.661,E,000.0,000.0,190224,000.0,W*73
$GPGGA,092041.017,2016.044,N,08550.661,E,1,12,1.0,0.0,M,0.0,M,,*6A
$GPGSA,A,3,01,02,03,04,05,06,07,08,09,10,11,12,1.0,1.0,1.0*30
$GPRMC,092041.017,A,2016.044,N,08550.661,E,000.0,000.0,190224,000.0,W*72
$GPGGA,092042.017,2016.044,N,08550.661,E,1,12,1.0,0.0,M,0.0,M,,*69
$GPGSA,A,3,01,02,03,04,05,06,07,08,09,10,11,12,1.0,1.0,1.0*30
$GPRMC,092042.017,A,2016.044,N,08550.661,E,000.0,000.0,190224,000.0,W*71
$GPGGA,092043.017,2016.044,N,08550.661,E,1,12,1.0,0.0,M,0.0,M,,*68
$GPGSA,A,3,01,02,03,04,05,06,07,08,09,10,11,12,1.0,1.0,1.0*30
$GPRMC,092043.017,A,2016.044,N,08550.661,E,000.0,000.0,190224,000.0,W*70
$GPGGA,092044.017,2016.044,N,08550.661,E,1,12,1.0,0.0,M,0.0,M,,*6F
$GPGSA,A,3,01,02,03,04,05,06,07,08,09,10,11,12,1.0,1.0,1.0*30
$GPRMC,092044.017,A,2016.044,N,08550.661,E,000.0,000.0,190224,000.0,W*77
$GPGGA,092045.017,2016.044,N,08550.661,E,1,12,1.0,0.0,M,0.0,M,,*6E
$GPGSA,A,3,01,02,03,04,05,06,07,08,09,10,11,12,1.0,1.0,1.0*30
$GPRMC,092045.017,A,2016.044,N,08550.661,E,000.0,000.0,190224,000.0,W*76
$GPGGA,092046.017,2016.044,N,08550.661,E,1,12,1.0,0.0,M,0.0,M,,*6D
$GPGSA,A,3,01,02,03,04,05,06,07,08,09,10,11,12,1.0,1.0,1.0*30
$GPRMC,092046.017,A,2016.044,N,08550.661,E,000.0,000.0,190224,000.0,W*75
$GPGGA,092047.017,2016.044,N,08550.661,E,1,12,1.0,0.0,M,0.0,M,,*6C
$GPGSA,A,3,01,02,03,04,05,06,07,08,09,10,11,12,1.0,1.0,1.0*30
$GPRMC,092047.017,A,2016.044,N,08550.661,E,000.0,000.0,190224,000.0,W*74
$GPGGA,092048.017,2016.044,N,08550.661,E,1,12,1.0,0.0,M,0.0,M,,*63
$GPGSA,A,3,01,02,03,04,05,06,07,08,09,10,11,12,1.0,1.0,1.0*30
$GPRMC,092048.017,A,2016.044,N,08550.661,E,000.0,000.0,190224,000.0,W*7B
$GPGGA,092049.017,2016.044,N,08550.661,E,1,12,1.0,0.0,M,0.0,M,,*62
$GPGSA,A,3,01,02,03,04,05,06,07,08,09,10,11,12,1.0,1.0,1.0*30
$GPRMC,092049.017,A,2016.044,N,08550.661,E,000.0,000.0,190224,000.0,W*7A
$GPGGA,092050.017,2016.044,N,08550.661,E,1,12,1.0,0.0,M,0.0,M,,*6A
$GPGSA,A,3,01,02,03,04,05,06,07,08,09,10,11,12,1.0,1.0,1.0*30
$GPRMC,092050.017,A,2016.044,N,08550.661,E,000.0,000.0,190224,000.0,W*72
$GPGGA,092051.017,2016.044,N,08550.661,E,1,12,1.0,0.0,M,0.0,M,,*6B
$GPGSA,A,3,01,02,03,04,05,06,07,08,09,10,11,12,1.0,1.0,1.0*30
$GPRMC,092051.017,A,2016.044,N,08550.661,E,000.0,000.0,190224,000.0,W*73
$GPGGA,092052.017,2016.044,N,08550.661,E,1,12,1.0,0.0,M,0.0,M,,*68
$GPGSA,A,3,01,02,03,04,05,06,07,08,09,10,11,12,1.0,1.0,1.0*30
$GPRMC,092052.017,A,2016.044,N,08550.661,E,000.0,000.0,190224,000.0,W*70
$GPGGA,092053.017,2016.044,N,08550.661,E,1,12,1.0,0.0,M,0.0,M,,*69
$GPGSA,A,3,01,02,03,04,05,06,07,08,09,10,11,12,1.0,1.0,1.0*30
$GPRMC,092053.017,A,2016.044,N,08550.661,E,000.0,000.0,190224,000.0,W*71
$GPGGA,092054.017,2016.044,N,08550.661,E,1,12,1.0,0.0,M,0.0,M,,*6E
$GPGSA,A,3,01,02,03,04,05,06,07,08,09,10,11,12,1.0,1.0,1.0*30
$GPRMC,092054.017,A,2016.044,N,08550.661,E,000.0,000.0,190224,000.0,W*76
$GPGGA,092055.017,2016.044,N,08550.661,E,1,12,1.0,0.0,M,0.0,M,,*6F
$GPGSA,A,3,01,02,03,04,05,06,07,08,09,10,11,12,1.0,1.0,1.0*30
$GPRMC,092055.017,A,2016.044,N,08550.661,E,000.0,000.0,190224,000.0,W*77
$GPGGA,092056.017,2016.044,N,08550.661,E,1,12,1.0,0.0,M,0.0,M,,*6C
$GPGSA,A,3,01,02,03,04,05,06,07,08,09,10,11,12,1.0,1.0,1.0*30
$GPRMC,092056.017,A,2016.044,N,08550.661,E,000.0,000.0,190224,000.0,W*74
$GPGGA,092057.017,2016.044,N,08550.661,E,1,12,1.0,0.0,M,0.0,M,,*6D
$GPGSA,A,3,01,02,03,04,05,06,07,08,09,10,11,12,1.0,1.0,1.0*30
$GPRMC,092057.017,A,2016.044,N,08550.661,E,000.0,000.0,190224,000.0,W*75
$GPGGA,092058.017,2016.044,N,08550.661,E,1,12,1.0,0.0,M,0.0,M,,*62
$GPGSA,A,3,01,02,03,04,05,06,07,08,09,10,11,12,1.0,1.0,1.0*30
$GPRMC,092058.017,A,2016.044,N,08550.661,E,000.0,000.0,190224,000.0,W*7A
$GPGGA,092059.017,2016.044,N,08550.661,E,1,12,1.0,0.0,M,0.0,M,,*63
$GPGSA,A,3,01,02,03,04,05,06,07,08,09,10,11,12,1.0,1.0,1.0*30
$GPRMC,092059.017,A,2016.044,N,08550.661,E,000.0,000.0,190224,000.0,W*7B
$GPGGA,092100.017,2016.044,N,08550.661,E,1,12,1.0,0.0,M,0.0,M,,*6E
$GPGSA,A,3,01,02,03,04,05,06,07,08,09,10,11,12,1.0,1.0,1.0*30
$GPRMC,092100.017,A,2016.044,N,08550.661,E,000.0,000.0,190224,000.0,W*76
$GPGGA,092101.017,2016.044,N,08550.661,E,1,12,1.0,0.0,M,0.0,M,,*6F
$GPGSA,A,3,01,02,03,04,05,06,07,08,09,10,11,12,1.0,1.0,1.0*30
$GPRMC,092101.017,A,2016.044,N,08550.661,E,000.0,000.0,190224,000.0,W*77
$GPGGA,092102.017,2016.044,N,08550.661,E,1,12,1.0,0.0,M,0.0,M,,*6C
$GPGSA,A,3,01,02,03,04,05,06,07,08,09,10,11,12,1.0,1.0,1.0*30
$GPRMC,092102.017,A,2016.044,N,08550.661,E,000.0,000.0,190224,000.0,W*74
$GPGGA,092103.017,2016.044,N,08550.661,E,1,12,1.0,0.0,M,0.0,M,,*6D
$GPGSA,A,3,01,02,03,04,05,06,07,08,09,10,11,12,1.0,1.0,1.0*30
$GPRMC,092103.017,A,2016.044,N,08550.661,E,000.0,000.0,190224,000.0,W*75
$GPGGA,092104.017,2016.044,N,08550.661,E,1,12,1.0,0.0,M,0.0,M,,*6A
$GPGSA,A,3,01,02,03,04,05,06,07,08,09,10,11,12,1.0,1.0,1.0*30
$GPRMC,092104.017,A,2016.044,N,08550.661,E,000.0,000.0,190224,000.0,W*72
$GPGGA,092105.017,2016.044,N,08550.661,E,1,12,1.0,0.0,M,0.0,M,,*6B
$GPGSA,A,3,01,02,03,04,05,06,07,08,09,10,11,12,1.0,1.0,1.0*30
$GPRMC,092105.017,A,2016.044,N,08550.661,E,000.9,028.8,190224,000.0,W*78
$GPGGA,092106.017,2016.044,N,08550.661,E,1,12,1.0,0.0,M,0.0,M,,*68
$GPGSA,A,3,01,02,03,04,05,06,07,08,09,10,11,12,1.0,1.0,1.0*30
$GPRMC,092106.017,A,2016.044,N,08550.661,E,000.9,000.0,190224,000.0,W*79
$GPGGA,092107.017,2016.044,N,08550.661,E,1,12,1.0,0.0,M,0.0,M,,*69
$GPGSA,A,3,01,02,03,04,05,06,07,08,09,10,11,12,1.0,1.0,1.0*30
$GPRMC,092107.017,A,2016.044,N,08550.661,E,194.4,037.6,190224,000.0,W*7B
$GPGGA,092108.017,2016.087,N,08550.695,E,1,12,1.0,0.0,M,0.0,M,,*62
$GPGSA,A,3,01,02,03,04,05,06,07,08,09,10,11,12,1.0,1.0,1.0*30
$GPRMC,092108.017,A,2016.087,N,08550.695,E,194.4,040.5,190224,000.0,W*73
$GPGGA,092109.017,2016.130,N,08550.731,E,1,12,1.0,0.0,M,0.0,M,,*61
$GPGSA,A,3,01,02,03,04,05,06,07,08,09,10,11,12,1.0,1.0,1.0*30
$GPRMC,092109.017,A,2016.130,N,08550.731,E,194.4,046.0,190224,000.0,W*73
$GPGGA,092110.017,2016.168,N,08550.771,E,1,12,1.0,0.0,M,0.0,M,,*60
$GPGSA,A,3,01,02,03,04,05,06,07,08,09,10,11,12,1.0,1.0,1.0*30
$GPRMC,092110.017,A,2016.168,N,08550.771,E,194.4,039.7,190224,000.0,W*7D
$GPGGA,092111.017,2016.211,N,08550.806,E,1,12,1.0,0.0,M,0.0,M,,*63
$GPGSA,A,3,01,02,03,04,05,06,07,08,09,10,11,12,1.0,1.0,1.0*30
$GPRMC,092111.017,A,2016.211,N,08550.806,E,194.4,038.5,190224,000.0,W*7D
$GPGGA,092112.017,2016.254,N,08550.841,E,1,12,1.0,0.0,M,0.0,M,,*62
$GPGSA,A,3,01,02,03,04,05,06,07,08,09,10,11,12,1.0,1.0,1.0*30
$GPRMC,092112.017,A,2016.254,N,08550.841,E,194.4,039.4,190224,000.0,W*7C
$GPGGA,092113.017,2016.297,N,08550.876,E,1,12,1.0,0.0,M,0.0,M,,*68
$GPGSA,A,3,01,02,03,04,05,06,07,08,09,10,11,12,1.0,1.0,1.0*30
$GPRMC,092113.017,A,2016.297,N,08550.876,E,194.4,038.5,190224,000.0,W*76
$GPGGA,092114.017,2016.340,N,08550.910,E,1,12,1.0,0.0,M,0.0,M,,*65
$GPGSA,A,3,01,02,03,04,05,06,07,08,09,10,11,12,1.0,1.0,1.0*30
$GPRMC,092114.017,A,2016.340,N,08550.910,E,194.4,038.3,190224,000.0,W*7D
$GPGGA,092115.017,2016.383,N,08550.945,E,1,12,1.0,0.0,M,0.0,M,,*6B
$GPGSA,A,3,01,02,03,04,05,06,07,08,09,10,11,12,1.0,1.0,1.0*30
$GPRMC,092115.017,A,2016.383,N,08550.945,E,194.4,037.5,190224,000.0,W*7A
$GPGGA,092116.017,2016.427,N,08550.978,E,1,12,1.0,0.0,M,0.0,M,,*6F
$GPGSA,A,3,01,02,03,04,05,06,07,08,09,10,11,12,1.0,1.0,1.0*30
$GPRMC,092116.017,A,2016.427,N,08550.978,E,194.4,038.0,190224,000.0,W*74
$GPGGA,092117.017,2016.471,N,08551.012,E,1,12,1.0,0.0,M,0.0,M,,*69
$GPGSA,A,3,01,02,03,04,05,06,07,08,09,10,11,12,1.0,1.0,1.0*30
$GPRMC,092117.017,A,2016.471,N,08551.012,E,194.4,037.8,190224,000.0,W*75
$GPGGA,092118.017,2016.514,N,08551.046,E,1,12,1.0,0.0,M,0.0,M,,*65
$GPGSA,A,3,01,02,03,04,05,06,07,08,09,10,11,12,1.0,1.0,1.0*30
$GPRMC,092118.017,A,2016.514,N,08551.046,E,194.4,037.2,190224,000.0,W*73
$GPGGA,092119.017,2016.558,N,08551.080,E,1,12,1.0,0.0,M,0.0,M,,*66
$GPGSA,A,3,01,02,03,04,05,06,07,08,09,10,11,12,1.0,1.0,1.0*30
$GPRMC,092119.017,A,2016.558,N,08551.080,E,194.4,036.2,190224,000.0,W*71
$GPGGA,092120.017,2016.603,N,08551.112,E,1,12,1.0,0.0,M,0.0,M,,*6B
$GPGSA,A,3,01,02,03,04,05,06,07,08,09,10,11,12,1.0,1.0,1.0*30
$GPRMC,092120.017,A,2016.603,N,08551.112,E,194.4,036.3,190224,000.0,W*7D
$GPGGA,092121.017,2016.647,N,08551.145,E,1,12,1.0,0.0,M,0.0,M,,*68
$GPGSA,A,3,01,02,03,04,05,06,07,08,09,10,11,12,1.0,1.0,1.0*30
$GPRMC,092121.017,A,2016.647,N,08551.145,E,194.4,031.9,190224,000.0,W*73
$GPGGA,092122.017,2016.694,N,08551.174,E,1,12,1.0,0.0,M,0.0,M,,*67
$GPGSA,A,3,01,02,03,04,05,06,07,08,09,10,11,12,1.0,1.0,1.0*30
$GPRMC,092122.017,A,2016.694,N,08551.174,E,194.4,029.5,190224,000.0,W*79
$GPGGA,092123.017,2016.741,N,08551.201,E,1,12,1.0,0.0,M,0.0,M,,*6E
$GPGSA,A,3,01,02,03,04,05,06,07,08,09,10,11,12,1.0,1.0,1.0*30
$GPRMC,092123.017,A,2016.741,N,08551.201,E,194.4,024.9,190224,000.0,W*71
$GPGGA,092124.017,2016.791,N,08551.224,E,1,12,1.0,0.0,M,0.0,M,,*63
$GPGSA,A,3,01,02,03,04,05,06,07,08,09,10,11,12,1.0,1.0,1.0*30
$GPRMC,092124.017,A,2016.791,N,08551.224,E,194.4,020.5,190224,000.0,W*74
$GPGGA,092125.017,2016.842,N,08551.243,E,1,12,1.0,0.0,M,0.0,M,,*62
$GPGSA,A,3,01,02,03,04,05,06,07,08,09,10,11,12,1.0,1.0,1.0*30
$GPRMC,092125.017,A,2016.842,N,08551.243,E,194.4,018.0,190224,000.0,W*7B
$GPGGA,092126.017,2016.893,N,08551.260,E,1,12,1.0,0.0,M,0.0,M,,*6C
$GPGSA,A,3,01,02,03,04,05,06,07,08,09,10,11,12,1.0,1.0,1.0*30
$GPRMC,092126.017,A,2016.893,N,08551.260,E,194.4,012.8,190224,000.0,W*77
$GPGGA,092127.017,2016.946,N,08551.272,E,1,12,1.0,0.0,M,0.0,M,,*67
$GPGSA,A,3,01,02,03,04,05,06,07,08,09,10,11,12,1.0,1.0,1.0*30
$GPRMC,092127.017,A,2016.946,N,08551.272,E,194.4,011.8,190224,000.0,W*7F
$GPGGA,092128.017,2016.999,N,08551.283,E,1,12,1.0,0.0,M,0.0,M,,*64
$GPGSA,A,3,01,02,03,04,05,06,07,08,09,10,11,12,1.0,1.0,1.0*30
$GPRMC,092128.017,A,2016.999,N,08551.283,E,194.4,007.6,190224,000.0,W*75
$GPGGA,092129.017,2017.053,N,08551.290,E,1,12,1.0,0.0,M,0.0,M,,*69
$GPGSA,A,3,01,02,03,04,05,06,07,08,09,10,11,12,1.0,1.0,1.0*30
$GPRMC,092129.017,A,2017.053,N,08551.290,E,194.4,003.5,190224,000.0,W*7F
$GPGGA,092130.017,2017.106,N,08551.293,E,1,12,1.0,0.0,M,0.0,M,,*63
$GPGSA,A,3,01,02,03,04,05,06,07,08,09,10,11,12,1.0,1.0,1.0*30
$GPRMC,092130.017,A,2017.106,N,08551.293,E,194.4,000.3,190224,000.0,W*70
$GPGGA,092131.017,2017.160,N,08551.293,E,1,12,1.0,0.0,M,0.0,M,,*62
$GPGSA,A,3,01,02,03,04,05,06,07,08,09,10,11,12,1.0,1.0,1.0*30
$GPRMC,092131.017,A,2017.160,N,08551.293,E,194.4,357.0,190224,000.0,W*73
$GPGGA,092132.017,2017.214,N,08551.290,E,1,12,1.0,0.0,M,0.0,M,,*62
$GPGSA,A,3,01,02,03,04,05,06,07,08,09,10,11,12,1.0,1.0,1.0*30
$GPRMC,092132.017,A,2017.214,N,08551.290,E,194.4,353.9,190224,000.0,W*7E
$GPGGA,092133.017,2017.268,N,08551.285,E,1,12,1.0,0.0,M,0.0,M,,*6C
$GPGSA,A,3,01,02,03,04,05,06,07,08,09,10,11,12,1.0,1.0,1.0*30
$GPRMC,092133.017,A,2017.268,N,08551.285,E,194.4,349.9,190224,000.0,W*7B
$GPGGA,092134.017,2017.321,N,08551.275,E,1,12,1.0,0.0,M,0.0,M,,*68
$GPGSA,A,3,01,02,03,04,05,06,07,08,09,10,11,12,1.0,1.0,1.0*30
$GPRMC,092134.017,A,2017.321,N,08551.275,E,194.4,346.3,190224,000.0,W*7A
$GPGGA,092135.017,2017.374,N,08551.262,E,1,12,1.0,0.0,M,0.0,M,,*6F
$GPGSA,A,3,01,02,03,04,05,06,07,08,09,10,11,12,1.0,1.0,1.0*30
$GPRMC,092135.017,A,2017.374,N,08551.262,E,194.4,343.1,190224,000.0,W*7A
$GPGGA,092136.017,2017.426,N,08551.247,E,1,12,1.0,0.0,M,0.0,M,,*6B
$GPGSA,A,3,01,02,03,04,05,06,07,08,09,10,11,12,1.0,1.0,1.0*30
$GPRMC,092136.017,A,2017.426,N,08551.247,E,194.4,341.9,190224,000.0,W*74
$GPGGA,092137.017,2017.477,N,08551.230,E,1,12,1.0,0.0,M,0.0,M,,*6E
$GPGSA,A,3,01,02,03,04,05,06,07,08,09,10,11,12,1.0,1.0,1.0*30
$GPRMC,092137.017,A,2017.477,N,08551.230,E,194.4,340.7,190224,000.0,W*7E
$GPGGA,092138.017,2017.529,N,08551.212,E,1,12,1.0,0.0,M,0.0,M,,*6B
$GPGSA,A,3,01,02,03,04,05,06,07,08,09,10,11,12,1.0,1.0,1.0*30
$GPRMC,092138.017,A,2017.529,N,08551.212,E,194.4,340.7,190224,000.0,W*7B
$GPGGA,092139.017,2017.580,N,08551.194,E,1,12,1.0,0.0,M,0.0,M,,*64
$GPGSA,A,3,01,02,03,04,05,06,07,08,09,10,11,12,1.0,1.0,1.0*30
$GPRMC,092139.017,A,2017.580,N,08551.194,E,194.4,340.6,190224,000.0,W*75
$GPGGA,092140.017,2017.631,N,08551.176,E,1,12,1.0,0.0,M,0.0,M,,*6F
$GPGSA,A,3,01,02,03,04,05,06,07,08,09,10,11,12,1.0,1.0,1.0*30
$GPRMC,092140.017,A,2017.631,N,08551.176,E,194.4,341.0,190224,000.0,W*79
$GPGGA,092141.017,2017.682,N,08551.158,E,1,12,1.0,0.0,M,0.0,M,,*6A
$GPGSA,A,3,01,02,03,04,05,06,07,08,09,10,11,12,1.0,1.0,1.0*30
$GPRMC,092141.017,A,2017.682,N,08551.158,E,194.4,340.6,190224,000.0,W*7B
$GPGGA,092142.017,2017.734,N,08551.140,E,1,12,1.0,0.0,M,0.0,M,,*6C
$GPGSA,A,3,01,02,03,04,05,06,07,08,09,10,11,12,1.0,1.0,1.0*30
$GPRMC,092142.017,A,2017.734,N,08551.140,E,194.4,340.7,190224,000.0,W*7C
$GPGGA,092143.017,2017.785,N,08551.122,E,1,12,1.0,0.0,M,0.0,M,,*63
$GPGSA,A,3,01,02,03,04,05,06,07,08,09,10,11,12,1.0,1.0,1.0*30
$GPRMC,092143.017,A,2017.785,N,08551.122,E,194.4,341.0,190224,000.0,W*75
$GPGGA,092144.017,2017.836,N,08551.104,E,1,12,1.0,0.0,M,0.0,M,,*67
$GPGSA,A,3,01,02,03,04,05,06,07,08,09,10,11,12,1.0,1.0,1.0*30
$GPRMC,092144.017,A,2017.836,N,08551.104,E,194.4,340.7,190224,000.0,W*77
$GPGGA,092145.017,2017.888,N,08551.086,E,1,12,1.0,0.0,M,0.0,M,,*68
$GPGSA,A,3,01,02,03,04,05,06,07,08,09,10,11,12,1.0,1.0,1.0*30
$GPRMC,092145.017,A,2017.888,N,08551.086,E,194.4,340.9,190224,000.0,W*76
$GPGGA,092146.017,2017.939,N,08551.069,E,1,12,1.0,0.0,M,0.0,M,,*61
$GPGSA,A,3,01,02,03,04,05,06,07,08,09,10,11,12,1.0,1.0,1.0*30
$GPRMC,092146.017,A,2017.939,N,08551.069,E,194.4,340.8,190224,000.0,W*7E
$GPGGA,092147.017,2017.990,N,08551.051,E,1,12,1.0,0.0,M,0.0,M,,*68
$GPGSA,A,3,01,02,03,04,05,06,07,08,09,10,11,12,1.0,1.0,1.0*30
$GPRMC,092147.017,A,2017.990,N,08551.051,E,194.4,339.8,190224,000.0,W*79
$GPGGA,092148.017,2018.041,N,08551.032,E,1,12,1.0,0.0,M,0.0,M,,*68
$GPGSA,A,3,01,02,03,04,05,06,07,08,09,10,11,12,1.0,1.0,1.0*30
$GPRMC,092148.017,A,2018.041,N,08551.032,E,194.4,339.8,190224,000.0,W*79
$GPGGA,092149.017,2018.092,N,08551.013,E,1,12,1.0,0.0,M,0.0,M,,*64
$GPGSA,A,3,01,02,03,04,05,06,07,08,09,10,11,12,1.0,1.0,1.0*30
$GPRMC,092149.017,A,2018.092,N,08551.013,E,194.4,341.1,190224,000.0,W*73
$GPGGA,092150.017,2018.144,N,08550.996,E,1,12,1.0,0.0,M,0.0,M,,*63
$GPGSA,A,3,01,02,03,04,05,06,07,08,09,10,11,12,1.0,1.0,1.0*30
$GPRMC,092150.017,A,2018.144,N,08550.996,E,194.4,342.5,190224,000.0,W*73
$GPGGA,092151.017,2018.195,N,08550.979,E,1,12,1.0,0.0,M,0.0,M,,*6F
$GPGSA,A,3,01,02,03,04,05,06,07,08,09,10,11,12,1.0,1.0,1.0*30
$GPRMC,092151.017,A,2018.195,N,08550.979,E,194.4,341.9,190224,000.0,W*70
$GPGGA,092152.017,2018.247,N,08550.962,E,1,12,1.0,0.0,M,0.0,M,,*6A
$GPGSA,A,3,01,02,03,04,05,06,07,08,09,10,11,12,1.0,1.0,1.0*30
$GPRMC,092152.017,A,2018.247,N,08550.962,E,194.4,342.7,190224,000.0,W*78
$GPGGA,092153.017,2018.299,N,08550.946,E,1,12,1.0,0.0,M,0.0,M,,*6E
$GPGSA,A,3,01,02,03,04,05,06,07,08,09,10,11,12,1.0,1.0,1.0*30
$GPRMC,092153.017,A,2018.299,N,08550.946,E,194.4,341.8,190224,000.0,W*70
$GPGGA,092154.017,2018.350,N,08550.929,E,1,12,1.0,0.0,M,0.0,M,,*64
$GPGSA,A,3,01,02,03,04,05,06,07,08,09,10,11,12,1.0,1.0,1.0*30
$GPRMC,092154.017,A,2018.350,N,08550.929,E,194.4,341.3,190224,000.0,W*71
$GPGGA,092155.017,2018.402,N,08550.912,E,1,12,1.0,0.0,M,0.0,M,,*6D
$GPGSA,A,3,01,02,03,04,05,06,07,08,09,10,11,12,1.0,1.0,1.0*30
$GPRMC,092155.017,A,2018.402,N,08550.912,E,194.4,340.8,190224,000.0,W*72
$GPGGA,092156.017,2018.453,N,08550.894,E,1,12,1.0,0.0,M,0.0,M,,*65
$GPGSA,A,3,01,02,03,04,05,06,07,08,09,10,11,12,1.0,1.0,1.0*30
$GPRMC,092156.017,A,2018.453,N,08550.894,E,194.4,341.1,190224,000.0,W*72
$GPGGA,092157.017,2018.504,N,08550.876,E,1,12,1.0,0.0,M,0.0,M,,*6B
$GPGSA,A,3,01,02,03,04,05,06,07,08,09,10,11,12,1.0,1.0,1.0*30
$GPRMC,092157.017,A,2018.504,N,08550.876,E,194.4,340.8,190224,000.0,W*74
$GPGGA,092158.017,2018.556,N,08550.859,E,1,12,1.0,0.0,M,0.0,M,,*6E
$GPGSA,A,3,01,02,03,04,05,06,07,08,09,10,11,12,1.0,1.0,1.0*30
$GPRMC,092158.017,A,2018.556,N,08550.859,E,194.4,343.9,190224,000.0,W*73
$GPGGA,092159.017,2018.608,N,08550.844,E,1,12,1.0,0.0,M,0.0,M,,*6B
$GPGSA,A,3,01,02,03,04,05,06,07,08,09,10,11,12,1.0,1.0,1.0*30
$GPRMC,092159.017,A,2018.608,N,08550.844,E,194.4,348.0,190224,000.0,W*74
$GPGGA,092200.017,2018.661,N,08550.832,E,1,12,1.0,0.0,M,0.0,M,,*6A
$GPGSA,A,3,01,02,03,04,05,06,07,08,09,10,11,12,1.0,1.0,1.0*30
$GPRMC,092200.017,A,2018.661,N,08550.832,E,194.4,350.4,190224,000.0,W*78
$GPGGA,092201.017,2018.714,N,08550.823,E,1,12,1.0,0.0,M,0.0,M,,*68
$GPGSA,A,3,01,02,03,04,05,06,07,08,09,10,11,12,1.0,1.0,1.0*30
$GPRMC,092201.017,A,2018.714,N,08550.823,E,194.4,350.6,190224,000.0,W*78
$GPGGA,092202.017,2018.767,N,08550.814,E,1,12,1.0,0.0,M,0.0,M,,*6B
$GPGSA,A,3,01,02,03,04,05,06,07,08,09,10,11,12,1.0,1.0,1.0*30
$GPRMC,092202.017,A,2018.767,N,08550.814,E,194.4,350.2,190224,000.0,W*7F
$GPGGA,092203.017,2018.820,N,08550.805,E,1,12,1.0,0.0,M,0.0,M,,*66
$GPGSA,A,3,01,02,03,04,05,06,07,08,09,10,11,12,1.0,1.0,1.0*30
$GPRMC,092203.017,A,2018.820,N,08550.805,E,194.4,351.5,190224,000.0,W*74
$GPGGA,092204.017,2018.874,N,08550.797,E,1,12,1.0,0.0,M,0.0,M,,*64
$GPGSA,A,3,01,02,03,04,05,06,07,08,09,10,11,12,1.0,1.0,1.0*30
$GPRMC,092204.017,A,2018.874,N,08550.797,E,194.4,351.5,190224,000.0,W*76
$GPGGA,092205.017,2018.927,N,08550.789,E,1,12,1.0,0.0,M,0.0,M,,*6D
$GPGSA,A,3,01,02,03,04,05,06,07,08,09,10,11,12,1.0,1.0,1.0*30
$GPRMC,092205.017,A,2018.927,N,08550.789,E,194.4,353.3,190224,000.0,W*7B
$GPGGA,092206.017,2018.981,N,08550.783,E,1,12,1.0,0.0,M,0.0,M,,*68
$GPGSA,A,3,01,02,03,04,05,06,07,08,09,10,11,12,1.0,1.0,1.0*30
$GPRMC,092206.017,A,2018.981,N,08550.783,E,194.4,352.2,190224,000.0,W*7E
$GPGGA,092207.017,2019.035,N,08550.776,E,1,12,1.0,0.0,M,0.0,M,,*64
$GPGSA,A,3,01,02,03,04,05,06,07,08,09,10,11,12,1.0,1.0,1.0*30
$GPRMC,092207.017,A,2019.035,N,08550.776,E,194.4,350.7,190224,000.0,W*75
$GPGGA,092208.017,2019.088,N,08550.767,E,1,12,1.0,0.0,M,0.0,M,,*6D
$GPGSA,A,3,01,02,03,04,05,06,07,08,09,10,11,12,1.0,1.0,1.0*30
$GPRMC,092208.017,A,2019.088,N,08550.767,E,194.4,351.1,190224,000.0,W*7B
$GPGGA,092209.017,2019.141,N,08550.758,E,1,12,1.0,0.0,M,0.0,M,,*64
$GPGSA,A,3,01,02,03,04,05,06,07,08,09,10,11,12,1.0,1.0,1.0*30
$GPRMC,092209.017,A,2019.141,N,08550.758,E,194.4,351.1,190224,000.0,W*72
$GPGGA,092210.017,2019.195,N,08550.750,E,1,12,1.0,0.0,M,0.0,M,,*6D
$GPGSA,A,3,01,02,03,04,05,06,07,08,09,10,11,12,1.0,1.0,1.0*30
$GPRMC,092210.017,A,2019.195,N,08550.750,E,194.4,350.4,190224,000.0,W*7F
$GPGGA,092211.017,2019.248,N,08550.741,E,1,12,1.0,0.0,M,0.0,M,,*6F
$GPGSA,A,3,01,02,03,04,05,06,07,08,09,10,11,12,1.0,1.0,1.0*30
$GPRMC,092211.017,A,2019.248,N,08550.741,E,194.4,350.6,190224,000.0,W*7F
$GPGGA,092212.017,2019.301,N,08550.732,E,1,12,1.0,0.0,M,0.0,M,,*64
$GPGSA,A,3,01,02,03,04,05,06,07,08,09,10,11,12,1.0,1.0,1.0*30
$GPRMC,092212.017,A,2019.301,N,08550.732,E,194.4,351.6,190224,000.0,W*75
$GPGGA,092213.017,2019.355,N,08550.724,E,1,12,1.0,0.0,M,0.0,M,,*63
$GPGSA,A,3,01,02,03,04,05,06,07,08,09,10,11,12,1.0,1.0,1.0*30
$GPRMC,092213.017,A,2019.355,N,08550.724,E,194.4,350.4,190224,000.0,W*71
$GPGGA,092214.017,2019.408,N,08550.715,E,1,12,1.0,0.0,M,0.0,M,,*69
$GPGSA,A,3,01,02,03,04,05,06,07,08,09,10,11,12,1.0,1.0,1.0*30
$GPRMC,092214.017,A,2019.408,N,08550.715,E,194.4,350.6,190224,000.0,W*79
$GPGGA,092215.017,2019.461,N,08550.706,E,1,12,1.0,0.0,M,0.0,M,,*65
$GPGSA,A,3,01,02,03,04,05,06,07,08,09,10,11,12,1.0,1.0,1.0*30
$GPRMC,092215.017,A,2019.461,N,08550.706,E,194.4,350.5,190224,000.0,W*76
$GPGGA,092216.017,2019.515,N,08550.698,E,1,12,1.0,0.0,M,0.0,M,,*62
$GPGSA,A,3,01,02,03,04,05,06,07,08,09,10,11,12,1.0,1.0,1.0*30
$GPRMC,092216.017,A,2019.515,N,08550.698,E,194.4,351.2,190224,000.0,W*77
$GPGGA,092217.017,2019.568,N,08550.689,E,1,12,1.0,0.0,M,0.0,M,,*69
$GPGSA,A,3,01,02,03,04,05,06,07,08,09,10,11,12,1.0,1.0,1.0*30
$GPRMC,092217.017,A,2019.568,N,08550.689,E,194.4,351.0,190224,000.0,W*7E
$GPGGA,092218.017,2019.621,N,08550.681,E,1,12,1.0,0.0,M,0.0,M,,*60
$GPGSA,A,3,01,02,03,04,05,06,07,08,09,10,11,12,1.0,1.0,1.0*30
$GPRMC,092218.017,A,2019.621,N,08550.681,E,194.4,350.0,190224,000.0,W*76
$GPGGA,092219.017,2019.675,N,08550.671,E,1,12,1.0,0.0,M,0.0,M,,*6F
$GPGSA,A,3,01,02,03,04,05,06,07,08,09,10,11,12,1.0,1.0,1.0*30
$GPRMC,092219.017,A,2019.675,N,08550.671,E,194.4,350.0,190224,000.0,W*79
$GPGGA,092220.017,2019.728,N,08550.662,E,1,12,1.0,0.0,M,0.0,M,,*6E
$GPGSA,A,3,01,02,03,04,05,06,07,08,09,10,11,12,1.0,1.0,1.0*30
$GPRMC,092220.017,A,2019.728,N,08550.662,E,194.4,349.9,190224,000.0,W*79
$GPGGA,092221.017,2019.781,N,08550.653,E,1,12,1.0,0.0,M,0.0,M,,*6E
$GPGSA,A,3,01,02,03,04,05,06,07,08,09,10,11,12,1.0,1.0,1.0*30
$GPRMC,092221.017,A,2019.781,N,08550.653,E,194.4,349.9,190224,000.0,W*79
$GPGGA,092222.017,2019.834,N,08550.643,E,1,12,1.0,0.0,M,0.0,M,,*6D
$GPGSA,A,3,01,02,03,04,05,06,07,08,09,10,11,12,1.0,1.0,1.0*30
$GPRMC,092222.017,A,2019.834,N,08550.643,E,194.4,350.6,190224,000.0,W*7D
$GPGGA,092223.017,2019.888,N,08550.634,E,1,12,1.0,0.0,M,0.0,M,,*6B
$GPGSA,A,3,01,02,03,04,05,06,07,08,09,10,11,12,1.0,1.0,1.0*30
$GPRMC,092223.017,A,2019.888,N,08550.634,E,194.4,350.6,190224,000.0,W*7B
$GPGGA,092224.017,2019.941,N,08550.625,E,1,12,1.0,0.0,M,0.0,M,,*68
$GPGSA,A,3,01,02,03,04,05,06,07,08,09,10,11,12,1.0,1.0,1.0*30
$GPRMC,092224.017,A,2019.941,N,08550.625,E,194.4,351.9,190224,000.0,W*76
$GPGGA,092225.017,2019.994,N,08550.618,E,1,12,1.0,0.0,M,0.0,M,,*6F
$GPGSA,A,3,01,02,03,04,05,06,07,08,09,10,11,12,1.0,1.0,1.0*30
$GPRMC,092225.017,A,2019.994,N,08550.618,E,194.4,350.5,190224,000.0,W*7C
$GPGGA,092226.017,2020.048,N,08550.609,E,1,12,1.0,0.0,M,0.0,M,,*6E
$GPGSA,A,3,01,02,03,04,05,06,07,08,09,10,11,12,1.0,1.0,1.0*30
$GPRMC,092226.017,A,2020.048,N,08550.609,E,194.4,351.6,190224,000.0,W*7F
$GPGGA,092227.017,2020.101,N,08550.601,E,1,12,1.0,0.0,M,0.0,M,,*6B
$GPGSA,A,3,01,02,03,04,05,06,07,08,09,10,11,12,1.0,1.0,1.0*30
$GPRMC,092227.017,A,2020.101,N,08550.601,E,194.4,350.7,190224,000.0,W*7A
$GPGGA,092228.017,2020.154,N,08550.592,E,1,12,1.0,0.0,M,0.0,M,,*6D
$GPGSA,A,3,01,02,03,04,05,06,07,08,09,10,11,12,1.0,1.0,1.0*30
$GPRMC,092228.017,A,2020.154,N,08550.592,E,194.4,350.4,190224,000.0,W*7F
$GPGGA,092229.017,2020.208,N,08550.583,E,1,12,1.0,0.0,M,0.0,M,,*66
$GPGSA,A,3,01,02,03,04,05,06,07,08,09,10,11,12,1.0,1.0,1.0*30
$GPRMC,092229.017,A,2020.208,N,08550.583,E,194.4,347.8,190224,000.0,W*7E
$GPGGA,092230.017,2020.261,N,08550.572,E,1,12,1.0,0.0,M,0.0,M,,*6F
$GPGSA,A,3,01,02,03,04,05,06,07,08,09,10,11,12,1.0,1.0,1.0*30
$GPRMC,092230.017,A,2020.261,N,08550.572,E,194.4,348.8,190224,000.0,W*78
$GPGGA,092231.017,2020.314,N,08550.561,E,1,12,1.0,0.0,M,0.0,M,,*6F
$GPGSA,A,3,01,02,03,04,05,06,07,08,09,10,11,12,1.0,1.0,1.0*30
$GPRMC,092231.017,A,2020.314,N,08550.561,E,194.4,348.8,190224,000.0,W*78
$GPGGA,092232.017,2020.367,N,08550.551,E,1,12,1.0,0.0,M,0.0,M,,*6B
$GPGSA,A,3,01,02,03,04,05,06,07,08,09,10,11,12,1.0,1.0,1.0*30
$GPRMC,092232.017,A,2020.367,N,08550.551,E,194.4,351.7,190224,000.0,W*7B
$GPGGA,092233.017,2020.420,N,08550.543,E,1,12,1.0,0.0,M,0.0,M,,*6D
$GPGSA,A,3,01,02,03,04,05,06,07,08,09,10,11,12,1.0,1.0,1.0*30
$GPRMC,092233.017,A,2020.420,N,08550.543,E,194.4,351.7,190224,000.0,W*7D
$GPGGA,092234.017,2020.474,N,08550.535,E,1,12,1.0,0.0,M,0.0,M,,*6A
$GPGSA,A,3,01,02,03,04,05,06,07,08,09,10,11,12,1.0,1.0,1.0*30
$GPRMC,092234.017,A,2020.474,N,08550.535,E,194.4,353.7,190224,000.0,W*78
$GPGGA,092235.017,2020.527,N,08550.529,E,1,12,1.0,0.0,M,0.0,M,,*61
$GPGSA,A,3,01,02,03,04,05,06,07,08,09,10,11,12,1.0,1.0,1.0*30
$GPRMC,092235.017,A,2020.527,N,08550.529,E,194.4,353.7,190224,000.0,W*73
$GPGGA,092236.017,2020.581,N,08550.523,E,1,12,1.0,0.0,M,0.0,M,,*64
$GPGSA,A,3,01,02,03,04,05,06,07,08,09,10,11,12,1.0,1.0,1.0*30
$GPRMC,092236.017,A,2020.581,N,08550.523,E,194.4,351.0,190224,000.0,W*73
$GPGGA,092237.017,2020.634,N,08550.515,E,1,12,1.0,0.0,M,0.0,M,,*6D
$GPGSA,A,3,01,02,03,04,05,06,07,08,09,10,11,12,1.0,1.0,1.0*30
$GPRMC,092237.017,A,2020.634,N,08550.515,E,194.4,351.0,190224,000.0,W*7A
$GPGGA,092238.017,2020.688,N,08550.506,E,1,12,1.0,0.0,M,0.0,M,,*67
$GPGSA,A,3,01,02,03,04,05,06,07,08,09,10,11,12,1.0,1.0,1.0*30
$GPRMC,092238.017,A,2020.688,N,08550.506,E,194.4,350.8,190224,000.0,W*79
$GPGGA,092239.017,2020.741,N,08550.498,E,1,12,1.0,0.0,M,0.0,M,,*64
$GPGSA,A,3,01,02,03,04,05,06,07,08,09,10,11,12,1.0,1.0,1.0*30
$GPRMC,092239.017,A,2020.741,N,08550.498,E,194.4,350.8,190224,000.0,W*7A
$GPGGA,092240.017,2020.794,N,08550.489,E,1,12,1.0,0.0,M,0.0,M,,*62
$GPGSA,A,3,01,02,03,04,05,06,07,08,09,10,11,12,1.0,1.0,1.0*30
$GPRMC,092240.017,A,2020.794,N,08550.489,E,194.4,350.6,190224,000.0,W*72
$GPGGA,092241.017,2020.848,N,08550.480,E,1,12,1.0,0.0,M,0.0,M,,*64
$GPGSA,A,3,01,02,03,04,05,06,07,08,09,10,11,12,1.0,1.0,1.0*30
$GPRMC,092241.017,A,2020.848,N,08550.480,E,194.4,350.6,190224,000.0,W*74
$GPGGA,092242.017,2020.901,N,08550.471,E,1,12,1.0,0.0,M,0.0,M,,*65
$GPGSA,A,3,01,02,03,04,05,06,07,08,09,10,11,12,1.0,1.0,1.0*30
$GPRMC,092242.017,A,2020.901,N,08550.471,E,194.4,351.0,190224,000.0,W*72
$GPGGA,092243.017,2020.954,N,08550.463,E,1,12,1.0,0.0,M,0.0,M,,*67
$GPGSA,A,3,01,02,03,04,05,06,07,08,09,10,11,12,1.0,1.0,1.0*30
$GPRMC,092243.017,A,2020.954,N,08550.463,E,194.4,351.0,190224,000.0,W*70
$GPGGA,092244.017,2021.008,N,08550.454,E,1,12,1.0,0.0,M,0.0,M,,*65
$GPGSA,A,3,01,02,03,04,05,06,07,08,09,10,11,12,1.0,1.0,1.0*30
$GPRMC,092244.017,A,2021.008,N,08550.454,E,194.4,350.9,190224,000.0,W*7A
$GPGGA,092245.017,2021.061,N,08550.446,E,1,12,1.0,0.0,M,0.0,M,,*68
$GPGSA,A,3,01,02,03,04,05,06,07,08,09,10,11,12,1.0,1.0,1.0*30
$GPRMC,092245.017,A,2021.061,N,08550.446,E,194.4,350.9,190224,000.0,W*77
$GPGGA,092246.017,2021.115,N,08550.437,E,1,12,1.0,0.0,M,0.0,M,,*6F
$GPGSA,A,3,01,02,03,04,05,06,07,08,09,10,11,12,1.0,1.0,1.0*30
$GPRMC,092246.017,A,2021.115,N,08550.437,E,194.4,350.6,190224,000.0,W*7F
$GPGGA,092247.017,2021.168,N,08550.428,E,1,12,1.0,0.0,M,0.0,M,,*6A
$GPGSA,A,3,01,02,03,04,05,06,07,08,09,10,11,12,1.0,1.0,1.0*30
$GPRMC,092247.017,A,2021.168,N,08550.428,E,194.4,350.6,190224,000.0,W*7A
$GPGGA,092248.017,2021.221,N,08550.420,E,1,12,1.0,0.0,M,0.0,M,,*63
$GPGSA,A,3,01,02,03,04,05,06,07,08,09,10,11,12,1.0,1.0,1.0*30
$GPRMC,092248.017,A,2021.221,N,08550.420,E,194.4,351.3,190224,000.0,W*77
$GPGGA,092249.017,2021.275,N,08550.412,E,1,12,1.0,0.0,M,0.0,M,,*62
$GPGSA,A,3,01,02,03,04,05,06,07,08,09,10,11,12,1.0,1.0,1.0*30
$GPRMC,092249.017,A,2021.275,N,08550.412,E,194.4,351.3,190224,000.0,W*76
$GPGGA,092250.017,2021.328,N,08550.403,E,1,12,1.0,0.0,M,0.0,M,,*63
$GPGSA,A,3,01,02,03,04,05,06,07,08,09,10,11,12,1.0,1.0,1.0*30
$GPRMC,092250.017,A,2021.328,N,08550.403,E,194.4,350.7,190224,000.0,W*72
$GPGGA,092251.017,2021.381,N,08550.395,E,1,12,1.0,0.0,M,0.0,M,,*69
$GPGSA,A,3,01,02,03,04,05,06,07,08,09,10,11,12,1.0,1.0,1.0*30
$GPRMC,092251.017,A,2021.381,N,08550.395,E,194.4,350.7,190224,000.0,W*78
$GPGGA,092252.017,2021.435,N,08550.386,E,1,12,1.0,0.0,M,0.0,M,,*60
$GPGSA,A,3,01,02,03,04,05,06,07,08,09,10,11,12,1.0,1.0,1.0*30
$GPRMC,092252.017,A,2021.435,N,08550.386,E,194.4,351.0,190224,000.0,W*77
$GPGGA,092253.017,2021.488,N,08550.377,E,1,12,1.0,0.0,M,0.0,M,,*69
$GPGSA,A,3,01,02,03,04,05,06,07,08,09,10,11,12,1.0,1.0,1.0*30
$GPRMC,092253.017,A,2021.488,N,08550.377,E,194.4,351.0,190224,000.0,W*7E
$GPGGA,092254.017,2021.541,N,08550.369,E,1,12,1.0,0.0,M,0.0,M,,*65
$GPGSA,A,3,01,02,03,04,05,06,07,08,09,10,11,12,1.0,1.0,1.0*30
$GPRMC,092254.017,A,2021.541,N,08550.369,E,194.4,351.0,190224,000.0,W*72
$GPGGA,092255.017,2021.595,N,08550.360,E,1,12,1.0,0.0,M,0.0,M,,*64
$GPGSA,A,3,01,02,03,04,05,06,07,08,09,10,11,12,1.0,1.0,1.0*30
$GPRMC,092255.017,A,2021.595,N,08550.360,E,194.4,351.0,190224,000.0,W*73
$GPGGA,092256.017,2021.648,N,08550.352,E,1,12,1.0,0.0,M,0.0,M,,*65
$GPGSA,A,3,01,02,03,04,05,06,07,08,09,10,11,12,1.0,1.0,1.0*30
$GPRMC,092256.017,A,2021.648,N,08550.352,E,194.4,350.9,190224,000.0,W*7A
$GPGGA,092257.017,2021.702,N,08550.343,E,1,12,1.0,0.0,M,0.0,M,,*6B
$GPGSA,A,3,01,02,03,04,05,06,07,08,09,10,11,12,1.0,1.0,1.0*30
$GPRMC,092257.017,A,2021.702,N,08550.343,E,194.4,350.9,190224,000.0,W*74
$GPGGA,092258.017,2021.755,N,08550.335,E,1,12,1.0,0.0,M,0.0,M,,*67
$GPGSA,A,3,01,02,03,04,05,06,07,08,09,10,11,12,1.0,1.0,1.0*30
$GPRMC,092258.017,A,2021.755,N,08550.335,E,194.4,350.5,190224,000.0,W*74
$GPGGA,092259.017,2021.808,N,08550.326,E,1,12,1.0,0.0,M,0.0,M,,*63
$GPGSA,A,3,01,02,03,04,05,06,07,08,09,10,11,12,1.0,1.0,1.0*30
$GPRMC,092259.017,A,2021.808,N,08550.326,E,194.4,350.5,190224,000.0,W*70
$GPGGA,092300.017,2021.862,N,08550.317,E,1,12,1.0,0.0,M,0.0,M,,*60
$GPGSA,A,3,01,02,03,04,05,06,07,08,09,10,11,12,1.0,1.0,1.0*30
$GPRMC,092300.017,A,2021.862,N,08550.317,E,194.4,350.3,190224,000.0,W*75
$GPGGA,092301.017,2021.915,N,08550.308,E,1,12,1.0,0.0,M,0.0,M,,*6E
$GPGSA,A,3,01,02,03,04,05,06,07,08,09,10,11,12,1.0,1.0,1.0*30
$GPRMC,092301.017,A,2021.915,N,08550.308,E,194.4,350.3,190224,000.0,W*7B
$GPGGA,092302.017,2021.968,N,08550.299,E,1,12,1.0,0.0,M,0.0,M,,*6E
$GPGSA,A,3,01,02,03,04,05,06,07,08,09,10,11,12,1.0,1.0,1.0*30
$GPRMC,092302.017,A,2021.968,N,08550.299,E,194.4,350.3,190224,000.0,W*7B
$GPGGA,092303.017,2022.021,N,08550.290,E,1,12,1.0,0.0,M,0.0,M,,*61
$GPGSA,A,3,01,02,03,04,05,06,07,08,09,10,11,12,1.0,1.0,1.0*30
$GPRMC,092303.017,A,2022.021,N,08550.290,E,194.4,347.7,190224,000.0,W*76
$GPGGA,092304.017,2022.074,N,08550.278,E,1,12,1.0,0.0,M,0.0,M,,*60
$GPGSA,A,3,01,02,03,04,05,06,07,08,09,10,11,12,1.0,1.0,1.0*30
$GPRMC,092304.017,A,2022.074,N,08550.278,E,194.4,351.0,190224,000.0,W*77
$GPGGA,092305.017,2022.128,N,08550.270,E,1,12,1.0,0.0,M,0.0,M,,*61
$GPGSA,A,3,01,02,03,04,05,06,07,08,09,10,11,12,1.0,1.0,1.0*30
$GPRMC,092305.017,A,2022.128,N,08550.270,E,194.4,351.4,190224,000.0,W*72
$GPGGA,092306.017,2022.181,N,08550.262,E,1,12,1.0,0.0,M,0.0,M,,*62
$GPGSA,A,3,01,02,03,04,05,06,07,08,09,10,11,12,1.0,1.0,1.0*30
$GPRMC,092306.017,A,2022.181,N,08550.262,E,194.4,351.4,190224,000.0,W*71
$GPGGA,092307.017,2022.234,N,08550.254,E,1,12,1.0,0.0,M,0.0,M,,*6B
$GPGSA,A,3,01,02,03,04,05,06,07,08,09,10,11,12,1.0,1.0,1.0*30
$GPRMC,092307.017,A,2022.234,N,08550.254,E,194.4,352.6,190224,000.0,W*79
$GPGGA,092308.017,2022.288,N,08550.247,E,1,12,1.0,0.0,M,0.0,M,,*61
$GPGSA,A,3,01,02,03,04,05,06,07,08,09,10,11,12,1.0,1.0,1.0*30
$GPRMC,092308.017,A,2022.288,N,08550.247,E,194.4,352.6,190224,000.0,W*73
$GPGGA,092309.017,2022.342,N,08550.240,E,1,12,1.0,0.0,M,0.0,M,,*60
$GPGSA,A,3,01,02,03,04,05,06,07,08,09,10,11,12,1.0,1.0,1.0*30
$GPRMC,092309.017,A,2022.342,N,08550.240,E,194.4,351.1,190224,000.0,W*76
$GPGGA,092310.017,2022.395,N,08550.231,E,1,12,1.0,0.0,M,0.0,M,,*64
$GPGSA,A,3,01,02,03,04,05,06,07,08,09,10,11,12,1.0,1.0,1.0*30
$GPRMC,092310.017,A,2022.395,N,08550.231,E,194.4,351.1,190224,000.0,W*72
$GPGGA,092311.017,2022.448,N,08550.223,E,1,12,1.0,0.0,M,0.0,M,,*61
$GPGSA,A,3,01,02,03,04,05,06,07,08,09,10,11,12,1.0,1.0,1.0*30
$GPRMC,092311.017,A,2022.448,N,08550.223,E,194.4,350.9,190224,000.0,W*7E
$GPGGA,092312.017,2022.502,N,08550.214,E,1,12,1.0,0.0,M,0.0,M,,*69
$GPGSA,A,3,01,02,03,04,05,06,07,08,09,10,11,12,1.0,1.0,1.0*30
$GPRMC,092312.017,A,2022.502,N,08550.214,E,194.4,350.9,190224,000.0,W*76
$GPGGA,092313.017,2022.555,N,08550.206,E,1,12,1.0,0.0,M,0.0,M,,*69
$GPGSA,A,3,01,02,03,04,05,06,07,08,09,10,11,12,1.0,1.0,1.0*30
$GPRMC,092313.017,A,2022.555,N,08550.206,E,194.4,350.9,190224,000.0,W*76
$GPGGA,092314.017,2022.608,N,08550.197,E,1,12,1.0,0.0,M,0.0,M,,*6E
$GPGSA,A,3,01,02,03,04,05,06,07,08,09,10,11,12,1.0,1.0,1.0*30
$GPRMC,092314.017,A,2022.608,N,08550.197,E,194.4,350.9,190224,000.0,W*71
$GPGGA,092315.017,2022.662,N,08550.189,E,1,12,1.0,0.0,M,0.0,M,,*6C
$GPGSA,A,3,01,02,03,04,05,06,07,08,09,10,11,12,1.0,1.0,1.0*30
$GPRMC,092315.017,A,2022.662,N,08550.189,E,194.4,350.9,190224,000.0,W*73
$GPGGA,092316.017,2022.715,N,08550.180,E,1,12,1.0,0.0,M,0.0,M,,*67
$GPGSA,A,3,01,02,03,04,05,06,07,08,09,10,11,12,1.0,1.0,1.0*30
$GPRMC,092316.017,A,2022.715,N,08550.180,E,194.4,350.7,190224,000.0,W*76
$GPGGA,092317.017,2022.768,N,08550.171,E,1,12,1.0,0.0,M,0.0,M,,*62
$GPGSA,A,3,01,02,03,04,05,06,07,08,09,10,11,12,1.0,1.0,1.0*30
$GPRMC,092317.017,A,2022.768,N,08550.171,E,194.4,350.7,190224,000.0,W*73
$GPGGA,092318.017,2022.822,N,08550.163,E,1,12,1.0,0.0,M,0.0,M,,*6F
$GPGSA,A,3,01,02,03,04,05,06,07,08,09,10,11,12,1.0,1.0,1.0*30
$GPRMC,092318.017,A,2022.822,N,08550.163,E,194.4,350.7,190224,000.0,W*7E
$GPGGA,092319.017,2022.875,N,08550.154,E,1,12,1.0,0.0,M,0.0,M,,*68
$GPGSA,A,3,01,02,03,04,05,06,07,08,09,10,11,12,1.0,1.0,1.0*30
$GPRMC,092319.017,A,2022.875,N,08550.154,E,194.4,351.0,190224,000.0,W*7F
$GPGGA,092320.017,2022.929,N,08550.145,E,1,12,1.0,0.0,M,0.0,M,,*6A
$GPGSA,A,3,01,02,03,04,05,06,07,08,09,10,11,12,1.0,1.0,1.0*30
$GPRMC,092320.017,A,2022.929,N,08550.145,E,194.4,351.0,190224,000.0,W*7D
$GPGGA,092321.017,2022.982,N,08550.137,E,1,12,1.0,0.0,M,0.0,M,,*6F
$GPGSA,A,3,01,02,03,04,05,06,07,08,09,10,11,12,1.0,1.0,1.0*30
$GPRMC,092321.017,A,2022.982,N,08550.137,E,194.4,351.0,190224,000.0,W*78
$GPGGA,092322.017,2023.035,N,08550.129,E,1,12,1.0,0.0,M,0.0,M,,*67
$GPGSA,A,3,01,02,03,04,05,06,07,08,09,10,11,12,1.0,1.0,1.0*30
$GPRMC,092322.017,A,2023.035,N,08550.129,E,194.4,350.9,190224,000.0,W*78
$GPGGA,092323.017,2023.089,N,08550.120,E,1,12,1.0,0.0,M,0.0,M,,*68
$GPGSA,A,3,01,02,03,04,05,06,07,08,09,10,11,12,1.0,1.0,1.0*30
$GPRMC,092323.017,A,2023.089,N,08550.120,E,194.4,350.9,190224,000.0,W*77
$GPGGA,092324.017,2023.142,N,08550.111,E,1,12,1.0,0.0,M,0.0,M,,*6B
$GPGSA,A,3,01,02,03,04,05,06,07,08,09,10,11,12,1.0,1.0,1.0*30
$GPRMC,092324.017,A,2023.142,N,08550.111,E,194.4,350.9,190224,000.0,W*74
$GPGGA,092325.017,2023.195,N,08550.103,E,1,12,1.0,0.0,M,0.0,M,,*63
$GPGSA,A,3,01,02,03,04,05,06,07,08,09,10,11,12,1.0,1.0,1.0*30
$GPRMC,092325.017,A,2023.195,N,08550.103,E,194.4,350.9,190224,000.0,W*7C
$GPGGA,092326.017,2023.249,N,08550.094,E,1,12,1.0,0.0,M,0.0,M,,*6D
$GPGSA,A,3,01,02,03,04,05,06,07,08,09,10,11,12,1.0,1.0,1.0*30
$GPRMC,092326.017,A,2023.249,N,08550.094,E,194.4,350.9,190224,000.0,W*72
$GPGGA,092327.017,2023.302,N,08550.086,E,1,12,1.0,0.0,M,0.0,M,,*61
$GPGSA,A,3,01,02,03,04,05,06,07,08,09,10,11,12,1.0,1.0,1.0*30
$GPRMC,092327.017,A,2023.302,N,08550.086,E,194.4,350.7,190224,000.0,W*70
$GPGGA,092328.017,2023.355,N,08550.077,E,1,12,1.0,0.0,M,0.0,M,,*62
$GPGSA,A,3,01,02,03,04,05,06,07,08,09,10,11,12,1.0,1.0,1.0*30
$GPRMC,092328.017,A,2023.355,N,08550.077,E,194.4,350.7,190224,000.0,W*73
$GPGGA,092329.017,2023.409,N,08550.069,E,1,12,1.0,0.0,M,0.0,M,,*62
$GPGSA,A,3,01,02,03,04,05,06,07,08,09,10,11,12,1.0,1.0,1.0*30
$GPRMC,092329.017,A,2023.409,N,08550.069,E,194.4,350.7,190224,000.0,W*73
$GPGGA,092330.017,2023.462,N,08550.060,E,1,12,1.0,0.0,M,0.0,M,,*6E
$GPGSA,A,3,01,02,03,04,05,06,07,08,09,10,11,12,1.0,1.0,1.0*30
$GPRMC,092330.017,A,2023.462,N,08550.060,E,194.4,350.1,190224,000.0,W*79
$GPGGA,092331.017,2023.515,N,08550.051,E,1,12,1.0,0.0,M,0.0,M,,*6C
$GPGSA,A,3,01,02,03,04,05,06,07,08,09,10,11,12,1.0,1.0,1.0*30
$GPRMC,092331.017,A,2023.515,N,08550.051,E,194.4,350.1,190224,000.0,W*7B
$GPGGA,092332.017,2023.569,N,08550.041,E,1,12,1.0,0.0,M,0.0,M,,*65
$GPGSA,A,3,01,02,03,04,05,06,07,08,09,10,11,12,1.0,1.0,1.0*30
$GPRMC,092332.017,A,2023.569,N,08550.041,E,194.4,350.9,190224,000.0,W*7A
$GPGGA,092333.017,2023.622,N,08550.033,E,1,12,1.0,0.0,M,0.0,M,,*6D
$GPGSA,A,3,01,02,03,04,05,06,07,08,09,10,11,12,1.0,1.0,1.0*30
$GPRMC,092333.017,A,2023.622,N,08550.033,E,194.4,350.9,190224,000.0,W*72
$GPGGA,092334.017,2023.675,N,08550.024,E,1,12,1.0,0.0,M,0.0,M,,*6E
$GPGSA,A,3,01,02,03,04,05,06,07,08,09,10,11,12,1.0,1.0,1.0*30
$GPRMC,092334.017,A,2023.675,N,08550.024,E,194.4,351.2,190224,000.0,W*7B
$GPGGA,092335.017,2023.729,N,08550.016,E,1,12,1.0,0.0,M,0.0,M,,*66
$GPGSA,A,3,01,02,03,04,05,06,07,08,09,10,11,12,1.0,1.0,1.0*30
$GPRMC,092335.017,A,2023.729,N,08550.016,E,194.4,351.2,190224,000.0,W*73
$GPGGA,092336.017,2023.782,N,08550.008,E,1,12,1.0,0.0,M,0.0,M,,*6B
$GPGSA,A,3,01,02,03,04,05,06,07,08,09,10,11,12,1.0,1.0,1.0*30
$GPRMC,092336.017,A,2023.782,N,08550.008,E,194.4,354.5,190224,000.0,W*7C
$GPGGA,092337.017,2023.836,N,08550.002,E,1,12,1.0,0.0,M,0.0,M,,*60
$GPGSA,A,3,01,02,03,04,05,06,07,08,09,10,11,12,1.0,1.0,1.0*30
$GPRMC,092337.017,A,2023.836,N,08550.002,E,194.4,350.5,190224,000.0,W*73
$GPGGA,092338.017,2023.889,N,08549.993,E,1,12,1.0,0.0,M,0.0,M,,*62
$GPGSA,A,3,01,02,03,04,05,06,07,08,09,10,11,12,1.0,1.0,1.0*30
$GPRMC,092338.017,A,2023.889,N,08549.993,E,194.4,350.5,190224,000.0,W*71
$GPGGA,092339.017,2023.942,N,08549.984,E,1,12,1.0,0.0,M,0.0,M,,*63
$GPGSA,A,3,01,02,03,04,05,06,07,08,09,10,11,12,1.0,1.0,1.0*30
$GPRMC,092339.017,A,2023.942,N,08549.984,E,194.4,351.1,190224,000.0,W*75
$GPGGA,092340.017,2023.996,N,08549.976,E,1,12,1.0,0.0,M,0.0,M,,*69
$GPGSA,A,3,01,02,03,04,05,06,07,08,09,10,11,12,1.0,1.0,1.0*30
$GPRMC,092340.017,A,2023.996,N,08549.976,E,194.4,351.1,190224,000.0,W*7F
$GPGGA,092341.017,2024.049,N,08549.968,E,1,12,1.0,0.0,M,0.0,M,,*6B
$GPGSA,A,3,01,02,03,04,05,06,07,08,09,10,11,12,1.0,1.0,1.0*30
$GPRMC,092341.017,A,2024.049,N,08549.968,E,194.4,351.1,190224,000.0,W*7D
$GPGGA,092342.017,2024.103,N,08549.959,E,1,12,1.0,0.0,M,0.0,M,,*65
$GPGSA,A,3,01,02,03,04,05,06,07,08,09,10,11,12,1.0,1.0,1.0*30
$GPRMC,092342.017,A,2024.103,N,08549.959,E,194.4,351.1,190224,000.0,W*73
$GPGGA,092343.017,2024.156,N,08549.951,E,1,12,1.0,0.0,M,0.0,M,,*6C
$GPGSA,A,3,01,02,03,04,05,06,07,08,09,10,11,12,1.0,1.0,1.0*30
$GPRMC,092343.017,A,2024.156,N,08549.951,E,194.4,350.7,190224,000.0,W*7D
$GPGGA,092344.017,2024.209,N,08549.942,E,1,12,1.0,0.0,M,0.0,M,,*60
$GPGSA,A,3,01,02,03,04,05,06,07,08,09,10,11,12,1.0,1.0,1.0*30
$GPRMC,092344.017,A,2024.209,N,08549.942,E,194.4,350.7,190224,000.0,W*71
