$GPGGA,031325.929,2825.758,N,07732.953,E,1,12,1.0,0.0,M,0.0,M,,*63
$GPGSA,A,3,01,02,03,04,05,06,07,08,09,10,11,12,1.0,1.0,1.0*30
$GPRMC,031325.929,A,2825.758,N,07732.953,E,019.4,257.5,010721,000.0,W*7B
$GPGGA,031326.929,2825.757,N,07732.947,E,1,12,1.0,0.0,M,0.0,M,,*6A
$GPGSA,A,3,01,02,03,04,05,06,07,08,09,10,11,12,1.0,1.0,1.0*30
$GPRMC,031326.929,A,2825.757,N,07732.947,E,019.4,257.5,010721,000.0,W*72
$GPGGA,031327.929,2825.755,N,07732.941,E,1,12,1.0,0.0,M,0.0,M,,*6F
$GPGSA,A,3,01,02,03,04,05,06,07,08,09,10,11,12,1.0,1.0,1.0*30
$GPRMC,031327.929,A,2825.755,N,07732.941,E,019.4,257.5,010721,000.0,W*77
$GPGGA,031328.929,2825.754,N,07732.935,E,1,12,1.0,0.0,M,0.0,M,,*62
$GPGSA,A,3,01,02,03,04,05,06,07,08,09,10,11,12,1.0,1.0,1.0*30
$GPRMC,031328.929,A,2825.754,N,07732.935,E,019.4,257.5,010721,000.0,W*7A
$GPGGA,031329.929,2825.753,N,07732.929,E,1,12,1.0,0.0,M,0.0,M,,*69
$GPGSA,A,3,01,02,03,04,05,06,07,08,09,10,11,12,1.0,1.0,1.0*30
$GPRMC,031329.929,A,2825.753,N,07732.929,E,019.4,257.5,010721,000.0,W*71
$GPGGA,031330.929,2825.751,N,07732.923,E,1,12,1.0,0.0,M,0.0,M,,*69
$GPGSA,A,3,01,02,03,04,05,06,07,08,09,10,11,12,1.0,1.0,1.0*30
$GPRMC,031330.929,A,2825.751,N,07732.923,E,019.4,257.5,010721,000.0,W*71
$GPGGA,031331.929,2825.750,N,07732.917,E,1,12,1.0,0.0,M,0.0,M,,*6E
$GPGSA,A,3,01,02,03,04,05,06,07,08,09,10,11,12,1.0,1.0,1.0*30
$GPRMC,031331.929,A,2825.750,N,07732.917,E,019.4,257.5,010721,000.0,W*76
$GPGGA,031332.929,2825.749,N,07732.911,E,1,12,1.0,0.0,M,0.0,M,,*63
$GPGSA,A,3,01,02,03,04,05,06,07,08,09,10,11,12,1.0,1.0,1.0*30
$GPRMC,031332.929,A,2825.749,N,07732.911,E,019.4,257.5,010721,000.0,W*7B
$GPGGA,031333.929,2825.747,N,07732.905,E,1,12,1.0,0.0,M,0.0,M,,*69
$GPGSA,A,3,01,02,03,04,05,06,07,08,09,10,11,12,1.0,1.0,1.0*30
$GPRMC,031333.929,A,2825.747,N,07732.905,E,019.4,257.5,010721,000.0,W*71
$GPGGA,031334.929,2825.746,N,07732.900,E,1,12,1.0,0.0,M,0.0,M,,*6A
$GPGSA,A,3,01,02,03,04,05,06,07,08,09,10,11,12,1.0,1.0,1.0*30
$GPRMC,031334.929,A,2825.746,N,07732.900,E,019.4,257.5,010721,000.0,W*72
$GPGGA,031335.929,2825.745,N,07732.894,E,1,12,1.0,0.0,M,0.0,M,,*64
$GPGSA,A,3,01,02,03,04,05,06,07,08,09,10,11,12,1.0,1.0,1.0*30
$GPRMC,031335.929,A,2825.745,N,07732.894,E,019.4,257.5,010721,000.0,W*7C
$GPGGA,031336.929,2825.743,N,07732.888,E,1,12,1.0,0.0,M,0.0,M,,*6C
$GPGSA,A,3,01,02,03,04,05,06,07,08,09,10,11,12,1.0,1.0,1.0*30
$GPRMC,031336.929,A,2825.743,N,07732.888,E,019.4,257.5,010721,000.0,W*74
$GPGGA,031337.929,2825.742,N,07732.882,E,1,12,1.0,0.0,M,0.0,M,,*66
$GPGSA,A,3,01,02,03,04,05,06,07,08,09,10,11,12,1.0,1.0,1.0*30
$GPRMC,031337.929,A,2825.742,N,07732.882,E,019.4,257.5,010721,000.0,W*7E
$GPGGA,031338.929,2825.741,N,07732.876,E,1,12,1.0,0.0,M,0.0,M,,*61
$GPGSA,A,3,01,02,03,04,05,06,07,08,09,10,11,12,1.0,1.0,1.0*30
$GPRMC,031338.929,A,2825.741,N,07732.876,E,019.4,257.5,010721,000.0,W*79
$GPGGA,031339.929,2825.739,N,07732.870,E,1,12,1.0,0.0,M,0.0,M,,*69
$GPGSA,A,3,01,02,03,04,05,06,07,08,09,10,11,12,1.0,1.0,1.0*30
$GPRMC,031339.929,A,2825.739,N,07732.870,E,019.4,257.5,010721,000.0,W*71
$GPGGA,031340.929,2825.738,N,07732.864,E,1,12,1.0,0.0,M,0.0,M,,*63
$GPGSA,A,3,01,02,03,04,05,06,07,08,09,10,11,12,1.0,1.0,1.0*30
$GPRMC,031340.929,A,2825.738,N,07732.864,E,019.4,257.5,010721,000.0,W*7B
$GPGGA,031341.929,2825.737,N,07732.858,E,1,12,1.0,0.0,M,0.0,M,,*62
$GPGSA,A,3,01,02,03,04,05,06,07,08,09,10,11,12,1.0,1.0,1.0*30
$GPRMC,031341.929,A,2825.737,N,07732.858,E,019.4,257.5,010721,000.0,W*7A
$GPGGA,031342.929,2825.736,N,07732.852,E,1,12,1.0,0.0,M,0.0,M,,*6A
$GPGSA,A,3,01,02,03,04,05,06,07,08,09,10,11,12,1.0,1.0,1.0*30
$GPRMC,031342.929,A,2825.736,N,07732.852,E,019.4,257.5,010721,000.0,W*72
$GPGGA,031343.929,2825.734,N,07732.846,E,1,12,1.0,0.0,M,0.0,M,,*6C
$GPGSA,A,3,01,02,03,04,05,06,07,08,09,10,11,12,1.0,1.0,1.0*30
$GPRMC,031343.929,A,2825.734,N,07732.846,E,019.4,257.5,010721,000.0,W*74
$GPGGA,031344.929,2825.733,N,07732.840,E,1,12,1.0,0.0,M,0.0,M,,*6A
$GPGSA,A,3,01,02,03,04,05,06,07,08,09,10,11,12,1.0,1.0,1.0*30
$GPRMC,031344.929,A,2825.733,N,07732.840,E,019.4,257.5,010721,000.0,W*72
$GPGGA,031345.929,2825.732,N,07732.834,E,1,12,1.0,0.0,M,0.0,M,,*69
$GPGSA,A,3,01,02,03,04,05,06,07,08,09,10,11,12,1.0,1.0,1.0*30
$GPRMC,031345.929,A,2825.732,N,07732.834,E,019.4,257.5,010721,000.0,W*71
$GPGGA,031346.929,2825.730,N,07732.828,E,1,12,1.0,0.0,M,0.0,M,,*65
$GPGSA,A,3,01,02,03,04,05,06,07,08,09,10,11,12,1.0,1.0,1.0*30
$GPRMC,031346.929,A,2825.730,N,07732.828,E,019.4,257.5,010721,000.0,W*7D
$GPGGA,031347.929,2825.729,N,07732.822,E,1,12,1.0,0.0,M,0.0,M,,*66
$GPGSA,A,3,01,02,03,04,05,06,07,08,09,10,11,12,1.0,1.0,1.0*30
$GPRMC,031347.929,A,2825.729,N,07732.822,E,019.4,257.5,010721,000.0,W*7E
$GPGGA,031348.929,2825.728,N,07732.816,E,1,12,1.0,0.0,M,0.0,M,,*6F
$GPGSA,A,3,01,02,03,04,05,06,07,08,09,10,11,12,1.0,1.0,1.0*30
$GPRMC,031348.929,A,2825.728,N,07732.816,E,019.4,257.5,010721,000.0,W*77
$GPGGA,031349.929,2825.726,N,07732.810,E,1,12,1.0,0.0,M,0.0,M,,*66
$GPGSA,A,3,01,02,03,04,05,06,07,08,09,10,11,12,1.0,1.0,1.0*30
$GPRMC,031349.929,A,2825.726,N,07732.810,E,019.4,257.5,010721,000.0,W*7E
$GPGGA,031350.929,2825.725,N,07732.804,E,1,12,1.0,0.0,M,0.0,M,,*68
$GPGSA,A,3,01,02,03,04,05,06,07,08,09,10,11,12,1.0,1.0,1.0*30
$GPRMC,031350.929,A,2825.725,N,07732.804,E,019.4,257.5,010721,000.0,W*70
$GPGGA,031351.929,2825.724,N,07732.798,E,1,12,1.0,0.0,M,0.0,M,,*62
$GPGSA,A,3,01,02,03,04,05,06,07,08,09,10,11,12,1.0,1.0,1.0*30
$GPRMC,031351.929,A,2825.724,N,07732.798,E,019.4,257.5,010721,000.0,W*7A
$GPGGA,031352.929,2825.722,N,07732.792,E,1,12,1.0,0.0,M,0.0,M,,*6D
$GPGSA,A,3,01,02,03,04,05,06,07,08,09,10,11,12,1.0,1.0,1.0*30
$GPRMC,031352.929,A,2825.722,N,07732.792,E,019.4,257.5,010721,000.0,W*75
$GPGGA,031353.929,2825.721,N,07732.786,E,1,12,1.0,0.0,M,0.0,M,,*6A
$GPGSA,A,3,01,02,03,04,05,06,07,08,09,10,11,12,1.0,1.0,1.0*30
$GPRMC,031353.929,A,2825.721,N,07732.786,E,019.4,257.5,010721,000.0,W*72
$GPGGA,031354.929,2825.720,N,07732.781,E,1,12,1.0,0.0,M,0.0,M,,*6B
$GPGSA,A,3,01,02,03,04,05,06,07,08,09,10,11,12,1.0,1.0,1.0*30
$GPRMC,031354.929,A,2825.720,N,07732.781,E,019.4,257.5,010721,000.0,W*73
$GPGGA,031355.929,2825.718,N,07732.775,E,1,12,1.0,0.0,M,0.0,M,,*6A
$GPGSA,A,3,01,02,03,04,05,06,07,08,09,10,11,12,1.0,1.0,1.0*30
$GPRMC,031355.929,A,2825.718,N,07732.775,E,019.4,257.5,010721,000.0,W*72
$GPGGA,031356.929,2825.717,N,07732.769,E,1,12,1.0,0.0,M,0.0,M,,*6B
$GPGSA,A,3,01,02,03,04,05,06,07,08,09,10,11,12,1.0,1.0,1.0*30
$GPRMC,031356.929,A,2825.717,N,07732.769,E,019.4,257.5,010721,000.0,W*73
$GPGGA,031357.929,2825.716,N,07732.763,E,1,12,1.0,0.0,M,0.0,M,,*61
$GPGSA,A,3,01,02,03,04,05,06,07,08,09,10,11,12,1.0,1.0,1.0*30
$GPRMC,031357.929,A,2825.716,N,07732.763,E,019.4,257.5,010721,000.0,W*79
$GPGGA,031358.929,2825.714,N,07732.757,E,1,12,1.0,0.0,M,0.0,M,,*6B
$GPGSA,A,3,01,02,03,04,05,06,07,08,09,10,11,12,1.0,1.0,1.0*30
$GPRMC,031358.929,A,2825.714,N,07732.757,E,019.4,257.5,010721,000.0,W*73
$GPGGA,031359.929,2825.713,N,07732.751,E,1,12,1.0,0.0,M,0.0,M,,*6B
$GPGSA,A,3,01,02,03,04,05,06,07,08,09,10,11,12,1.0,1.0,1.0*30
$GPRMC,031359.929,A,2825.713,N,07732.751,E,019.4,257.5,010721,000.0,W*73
$GPGGA,031400.929,2825.712,N,07732.745,E,1,12,1.0,0.0,M,0.0,M,,*64
$GPGSA,A,3,01,02,03,04,05,06,07,08,09,10,11,12,1.0,1.0,1.0*30
$GPRMC,031400.929,A,2825.712,N,07732.745,E,019.4,257.5,010721,000.0,W*7C
$GPGGA,031401.929,2825.711,N,07732.739,E,1,12,1.0,0.0,M,0.0,M,,*6D
$GPGSA,A,3,01,02,03,04,05,06,07,08,09,10,11,12,1.0,1.0,1.0*30
$GPRMC,031401.929,A,2825.711,N,07732.739,E,019.4,257.5,010721,000.0,W*75
$GPGGA,031402.929,2825.709,N,07732.733,E,1,12,1.0,0.0,M,0.0,M,,*6D
$GPGSA,A,3,01,02,03,04,05,06,07,08,09,10,11,12,1.0,1.0,1.0*30
$GPRMC,031402.929,A,2825.709,N,07732.733,E,019.4,257.5,010721,000.0,W*75
$GPGGA,031403.929,2825.708,N,07732.727,E,1,12,1.0,0.0,M,0.0,M,,*68
$GPGSA,A,3,01,02,03,04,05,06,07,08,09,10,11,12,1.0,1.0,1.0*30
$GPRMC,031403.929,A,2825.708,N,07732.727,E,019.4,257.5,010721,000.0,W*70
$GPGGA,031404.929,2825.707,N,07732.721,E,1,12,1.0,0.0,M,0.0,M,,*66
$GPGSA,A,3,01,02,03,04,05,06,07,08,09,10,11,12,1.0,1.0,1.0*30
$GPRMC,031404.929,A,2825.707,N,07732.721,E,019.4,257.5,010721,000.0,W*7E
$GPGGA,031405.929,2825.705,N,07732.715,E,1,12,1.0,0.0,M,0.0,M,,*62
$GPGSA,A,3,01,02,03,04,05,06,07,08,09,10,11,12,1.0,1.0,1.0*30
$GPRMC,031405.929,A,2825.705,N,07732.715,E,019.4,257.5,010721,000.0,W*7A
$GPGGA,031406.929,2825.704,N,07732.709,E,1,12,1.0,0.0,M,0.0,M,,*6D
$GPGSA,A,3,01,02,03,04,05,06,07,08,09,10,11,12,1.0,1.0,1.0*30
$GPRMC,031406.929,A,2825.704,N,07732.709,E,019.4,257.5,010721,000.0,W*75
$GPGGA,031407.929,2825.703,N,07732.703,E,1,12,1.0,0.0,M,0.0,M,,*61
$GPGSA,A,3,01,02,03,04,05,06,07,08,09,10,11,12,1.0,1.0,1.0*30
$GPRMC,031407.929,A,2825.703,N,07732.703,E,019.4,354.3,010721,000.0,W*7D
$GPGGA,031408.929,2825.708,N,07732.703,E,1,12,1.0,0.0,M,0.0,M,,*65
$GPGSA,A,3,01,02,03,04,05,06,07,08,09,10,11,12,1.0,1.0,1.0*30
$GPRMC,031408.929,A,2825.708,N,07732.703,E,019.4,354.3,010721,000.0,W*79
$GPGGA,031409.929,2825.713,N,07732.702,E,1,12,1.0,0.0,M,0.0,M,,*6F
$GPGSA,A,3,01,02,03,04,05,06,07,08,09,10,11,12,1.0,1.0,1.0*30
$GPRMC,031409.929,A,2825.713,N,07732.702,E,019.4,354.3,010721,000.0,W*73
$GPGGA,031410.929,2825.719,N,07732.702,E,1,12,1.0,0.0,M,0.0,M,,*6D
$GPGSA,A,3,01,02,03,04,05,06,07,08,09,10,11,12,1.0,1.0,1.0*30
$GPRMC,031410.929,A,2825.719,N,07732.702,E,019.4,354.3,010721,000.0,W*71
$GPGGA,031411.929,2825.724,N,07732.701,E,1,12,1.0,0.0,M,0.0,M,,*61
$GPGSA,A,3,01,02,03,04,05,06,07,08,09,10,11,12,1.0,1.0,1.0*30
$GPRMC,031411.929,A,2825.724,N,07732.701,E,019.4,354.3,010721,000.0,W*7D
$GPGGA,031412.929,2825.730,N,07732.700,E,1,12,1.0,0.0,M,0.0,M,,*66
$GPGSA,A,3,01,02,03,04,05,06,07,08,09,10,11,12,1.0,1.0,1.0*30
$GPRMC,031412.929,A,2825.730,N,07732.700,E,019.4,354.3,010721,000.0,W*7A
$GPGGA,031413.929,2825.735,N,07732.700,E,1,12,1.0,0.0,M,0.0,M,,*62
$GPGSA,A,3,01,02,03,04,05,06,07,08,09,10,11,12,1.0,1.0,1.0*30
$GPRMC,031413.929,A,2825.735,N,07732.700,E,019.4,354.3,010721,000.0,W*7E
$GPGGA,031414.929,2825.740,N,07732.699,E,1,12,1.0,0.0,M,0.0,M,,*66
$GPGSA,A,3,01,02,03,04,05,06,07,08,09,10,11,12,1.0,1.0,1.0*30
$GPRMC,031414.929,A,2825.740,N,07732.699,E,019.4,354.3,010721,000.0,W*7A
$GPGGA,031415.929,2825.746,N,07732.699,E,1,12,1.0,0.0,M,0.0,M,,*61
$GPGSA,A,3,01,02,03,04,05,06,07,08,09,10,11,12,1.0,1.0,1.0*30
$GPRMC,031415.929,A,2825.746,N,07732.699,E,019.4,354.3,010721,000.0,W*7D
$GPGGA,031416.929,2825.751,N,07732.698,E,1,12,1.0,0.0,M,0.0,M,,*65
$GPGSA,A,3,01,02,03,04,05,06,07,08,09,10,11,12,1.0,1.0,1.0*30
$GPRMC,031416.929,A,2825.751,N,07732.698,E,019.4,354.3,010721,000.0,W*79
$GPGGA,031417.929,2825.756,N,07732.698,E,1,12,1.0,0.0,M,0.0,M,,*63
$GPGSA,A,3,01,02,03,04,05,06,07,08,09,10,11,12,1.0,1.0,1.0*30
$GPRMC,031417.929,A,2825.756,N,07732.698,E,019.4,354.3,010721,000.0,W*7F
$GPGGA,031418.929,2825.762,N,07732.697,E,1,12,1.0,0.0,M,0.0,M,,*64
$GPGSA,A,3,01,02,03,04,05,06,07,08,09,10,11,12,1.0,1.0,1.0*30
$GPRMC,031418.929,A,2825.762,N,07732.697,E,019.4,354.3,010721,000.0,W*78
$GPGGA,031419.929,2825.767,N,07732.697,E,1,12,1.0,0.0,M,0.0,M,,*60
$GPGSA,A,3,01,02,03,04,05,06,07,08,09,10,11,12,1.0,1.0,1.0*30
$GPRMC,031419.929,A,2825.767,N,07732.697,E,019.4,354.3,010721,000.0,W*7C
$GPGGA,031420.929,2825.773,N,07732.696,E,1,12,1.0,0.0,M,0.0,M,,*6E
$GPGSA,A,3,01,02,03,04,05,06,07,08,09,10,11,12,1.0,1.0,1.0*30
$GPRMC,031420.929,A,2825.773,N,07732.696,E,019.4,354.3,010721,000.0,W*72
$GPGGA,031421.929,2825.778,N,07732.696,E,1,12,1.0,0.0,M,0.0,M,,*64
$GPGSA,A,3,01,02,03,04,05,06,07,08,09,10,11,12,1.0,1.0,1.0*30
$GPRMC,031421.929,A,2825.778,N,07732.696,E,019.4,354.3,010721,000.0,W*78
$GPGGA,031422.929,2825.783,N,07732.695,E,1,12,1.0,0.0,M,0.0,M,,*60
$GPGSA,A,3,01,02,03,04,05,06,07,08,09,10,11,12,1.0,1.0,1.0*30
$GPRMC,031422.929,A,2825.783,N,07732.695,E,019.4,354.3,010721,000.0,W*7C
$GPGGA,031423.929,2825.789,N,07732.694,E,1,12,1.0,0.0,M,0.0,M,,*6A
$GPGSA,A,3,01,02,03,04,05,06,07,08,09,10,11,12,1.0,1.0,1.0*30
$GPRMC,031423.929,A,2825.789,N,07732.694,E,019.4,354.3,010721,000.0,W*76
$GPGGA,031424.929,2825.794,N,07732.694,E,1,12,1.0,0.0,M,0.0,M,,*61
$GPGSA,A,3,01,02,03,04,05,06,07,08,09,10,11,12,1.0,1.0,1.0*30
$GPRMC,031424.929,A,2825.794,N,07732.694,E,019.4,354.3,010721,000.0,W*7D
$GPGGA,031425.929,2825.799,N,07732.693,E,1,12,1.0,0.0,M,0.0,M,,*6A
$GPGSA,A,3,01,02,03,04,05,06,07,08,09,10,11,12,1.0,1.0,1.0*30
$GPRMC,031425.929,A,2825.799,N,07732.693,E,019.4,354.3,010721,000.0,W*76
$GPGGA,031426.929,2825.805,N,07732.693,E,1,12,1.0,0.0,M,0.0,M,,*63
$GPGSA,A,3,01,02,03,04,05,06,07,08,09,10,11,12,1.0,1.0,1.0*30
$GPRMC,031426.929,A,2825.805,N,07732.693,E,019.4,354.3,010721,000.0,W*7F
$GPGGA,031427.929,2825.810,N,07732.692,E,1,12,1.0,0.0,M,0.0,M,,*67
$GPGSA,A,3,01,02,03,04,05,06,07,08,09,10,11,12,1.0,1.0,1.0*30
$GPRMC,031427.929,A,2825.810,N,07732.692,E,019.4,354.3,010721,000.0,W*7B
$GPGGA,031428.929,2825.816,N,07732.692,E,1,12,1.0,0.0,M,0.0,M,,*6E
$GPGSA,A,3,01,02,03,04,05,06,07,08,09,10,11,12,1.0,1.0,1.0*30
$GPRMC,031428.929,A,2825.816,N,07732.692,E,019.4,354.3,010721,000.0,W*72
$GPGGA,031429.929,2825.821,N,07732.691,E,1,12,1.0,0.0,M,0.0,M,,*68
$GPGSA,A,3,01,02,03,04,05,06,07,08,09,10,11,12,1.0,1.0,1.0*30
$GPRMC,031429.929,A,2825.821,N,07732.691,E,019.4,354.3,010721,000.0,W*74
$GPGGA,031430.929,2825.826,N,07732.691,E,1,12,1.0,0.0,M,0.0,M,,*67
$GPGSA,A,3,01,02,03,04,05,06,07,08,09,10,11,12,1.0,1.0,1.0*30
$GPRMC,031430.929,A,2825.826,N,07732.691,E,019.4,354.3,010721,000.0,W*7B
$GPGGA,031431.929,2825.832,N,07732.690,E,1,12,1.0,0.0,M,0.0,M,,*62
$GPGSA,A,3,01,02,03,04,05,06,07,08,09,10,11,12,1.0,1.0,1.0*30
$GPRMC,031431.929,A,2825.832,N,07732.690,E,019.4,354.3,010721,000.0,W*7E
$GPGGA,031432.929,2825.837,N,07732.690,E,1,12,1.0,0.0,M,0.0,M,,*64
$GPGSA,A,3,01,02,03,04,05,06,07,08,09,10,11,12,1.0,1.0,1.0*30
$GPRMC,031432.929,A,2825.837,N,07732.690,E,019.4,354.3,010721,000.0,W*78
$GPGGA,031433.929,2825.842,N,07732.689,E,1,12,1.0,0.0,M,0.0,M,,*6F
$GPGSA,A,3,01,02,03,04,05,06,07,08,09,10,11,12,1.0,1.0,1.0*30
$GPRMC,031433.929,A,2825.842,N,07732.689,E,019.4,354.3,010721,000.0,W*73
$GPGGA,031434.929,2825.848,N,07732.689,E,1,12,1.0,0.0,M,0.0,M,,*62
$GPGSA,A,3,01,02,03,04,05,06,07,08,09,10,11,12,1.0,1.0,1.0*30
$GPRMC,031434.929,A,2825.848,N,07732.689,E,019.4,354.3,010721,000.0,W*7E
$GPGGA,031435.929,2825.853,N,07732.688,E,1,12,1.0,0.0,M,0.0,M,,*68
$GPGSA,A,3,01,02,03,04,05,06,07,08,09,10,11,12,1.0,1.0,1.0*30
$GPRMC,031435.929,A,2825.853,N,07732.688,E,019.4,354.3,010721,000.0,W*74
$GPGGA,031436.929,2825.859,N,07732.687,E,1,12,1.0,0.0,M,0.0,M,,*6E
$GPGSA,A,3,01,02,03,04,05,06,07,08,09,10,11,12,1.0,1.0,1.0*30
$GPRMC,031436.929,A,2825.859,N,07732.687,E,019.4,354.3,010721,000.0,W*72
$GPGGA,031437.929,2825.864,N,07732.687,E,1,12,1.0,0.0,M,0.0,M,,*61
$GPGSA,A,3,01,02,03,04,05,06,07,08,09,10,11,12,1.0,1.0,1.0*30
$GPRMC,031437.929,A,2825.864,N,07732.687,E,019.4,354.3,010721,000.0,W*7D
$GPGGA,031438.929,2825.869,N,07732.686,E,1,12,1.0,0.0,M,0.0,M,,*62
$GPGSA,A,3,01,02,03,04,05,06,07,08,09,10,11,12,1.0,1.0,1.0*30
$GPRMC,031438.929,A,2825.869,N,07732.686,E,019.4,354.3,010721,000.0,W*7E
$GPGGA,031439.929,2825.875,N,07732.686,E,1,12,1.0,0.0,M,0.0,M,,*6E
$GPGSA,A,3,01,02,03,04,05,06,07,08,09,10,11,12,1.0,1.0,1.0*30
$GPRMC,031439.929,A,2825.875,N,07732.686,E,019.4,354.3,010721,000.0,W*72
$GPGGA,031440.929,2825.880,N,07732.685,E,1,12,1.0,0.0,M,0.0,M,,*69
$GPGSA,A,3,01,02,03,04,05,06,07,08,09,10,11,12,1.0,1.0,1.0*30
$GPRMC,031440.929,A,2825.880,N,07732.685,E,019.4,354.3,010721,000.0,W*75
$GPGGA,031441.929,2825.885,N,07732.685,E,1,12,1.0,0.0,M,0.0,M,,*6D
$GPGSA,A,3,01,02,03,04,05,06,07,08,09,10,11,12,1.0,1.0,1.0*30
$GPRMC,031441.929,A,2825.885,N,07732.685,E,019.4,354.3,010721,000.0,W*71
$GPGGA,031442.929,2825.891,N,07732.684,E,1,12,1.0,0.0,M,0.0,M,,*6A
$GPGSA,A,3,01,02,03,04,05,06,07,08,09,10,11,12,1.0,1.0,1.0*30
$GPRMC,031442.929,A,2825.891,N,07732.684,E,019.4,354.3,010721,000.0,W*76
$GPGGA,031443.929,2825.896,N,07732.684,E,1,12,1.0,0.0,M,0.0,M,,*6C
$GPGSA,A,3,01,02,03,04,05,06,07,08,09,10,11,12,1.0,1.0,1.0*30
$GPRMC,031443.929,A,2825.896,N,07732.684,E,019.4,354.3,010721,000.0,W*70
$GPGGA,031444.929,2825.902,N,07732.683,E,1,12,1.0,0.0,M,0.0,M,,*60
$GPGSA,A,3,01,02,03,04,05,06,07,08,09,10,11,12,1.0,1.0,1.0*30
$GPRMC,031444.929,A,2825.902,N,07732.683,E,019.4,354.3,010721,000.0,W*7C
$GPGGA,031445.929,2825.907,N,07732.683,E,1,12,1.0,0.0,M,0.0,M,,*64
$GPGSA,A,3,01,02,03,04,05,06,07,08,09,10,11,12,1.0,1.0,1.0*30
$GPRMC,031445.929,A,2825.907,N,07732.683,E,019.4,354.3,010721,000.0,W*78
$GPGGA,031446.929,2825.912,N,07732.682,E,1,12,1.0,0.0,M,0.0,M,,*62
$GPGSA,A,3,01,02,03,04,05,06,07,08,09,10,11,12,1.0,1.0,1.0*30
$GPRMC,031446.929,A,2825.912,N,07732.682,E,019.4,354.3,010721,000.0,W*7E
$GPGGA,031447.929,2825.918,N,07732.681,E,1,12,1.0,0.0,M,0.0,M,,*6A
$GPGSA,A,3,01,02,03,04,05,06,07,08,09,10,11,12,1.0,1.0,1.0*30
$GPRMC,031447.929,A,2825.918,N,07732.681,E,019.4,354.3,010721,000.0,W*76
$GPGGA,031448.929,2825.923,N,07732.681,E,1,12,1.0,0.0,M,0.0,M,,*6D
$GPGSA,A,3,01,02,03,04,05,06,07,08,09,10,11,12,1.0,1.0,1.0*30
$GPRMC,031448.929,A,2825.923,N,07732.681,E,019.4,354.3,010721,000.0,W*71
$GPGGA,031449.929,2825.928,N,07732.680,E,1,12,1.0,0.0,M,0.0,M,,*66
$GPGSA,A,3,01,02,03,04,05,06,07,08,09,10,11,12,1.0,1.0,1.0*30
$GPRMC,031449.929,A,2825.928,N,07732.680,E,019.4,354.3,010721,000.0,W*7A
$GPGGA,031450.929,2825.934,N,07732.680,E,1,12,1.0,0.0,M,0.0,M,,*63
$GPGSA,A,3,01,02,03,04,05,06,07,08,09,10,11,12,1.0,1.0,1.0*30
$GPRMC,031450.929,A,2825.934,N,07732.680,E,019.4,354.3,010721,000.0,W*7F
$GPGGA,031451.929,2825.939,N,07732.679,E,1,12,1.0,0.0,M,0.0,M,,*69
$GPGSA,A,3,01,02,03,04,05,06,07,08,09,10,11,12,1.0,1.0,1.0*30
$GPRMC,031451.929,A,2825.939,N,07732.679,E,019.4,354.3,010721,000.0,W*75
$GPGGA,031452.929,2825.945,N,07732.679,E,1,12,1.0,0.0,M,0.0,M,,*61
$GPGSA,A,3,01,02,03,04,05,06,07,08,09,10,11,12,1.0,1.0,1.0*30
$GPRMC,031452.929,A,2825.945,N,07732.679,E,019.4,354.3,010721,000.0,W*7D
$GPGGA,031453.929,2825.950,N,07732.678,E,1,12,1.0,0.0,M,0.0,M,,*65
$GPGSA,A,3,01,02,03,04,05,06,07,08,09,10,11,12,1.0,1.0,1.0*30
$GPRMC,031453.929,A,2825.950,N,07732.678,E,019.4,354.3,010721,000.0,W*79
$GPGGA,031454.929,2825.955,N,07732.678,E,1,12,1.0,0.0,M,0.0,M,,*67
$GPGSA,A,3,01,02,03,04,05,06,07,08,09,10,11,12,1.0,1.0,1.0*30
$GPRMC,031454.929,A,2825.955,N,07732.678,E,019.4,354.3,010721,000.0,W*7B
$GPGGA,031455.929,2825.961,N,07732.677,E,1,12,1.0,0.0,M,0.0,M,,*6E
$GPGSA,A,3,01,02,03,04,05,06,07,08,09,10,11,12,1.0,1.0,1.0*30
$GPRMC,031455.929,A,2825.961,N,07732.677,E,019.4,354.3,010721,000.0,W*72
$GPGGA,031456.929,2825.966,N,07732.677,E,1,12,1.0,0.0,M,0.0,M,,*6A
$GPGSA,A,3,01,02,03,04,05,06,07,08,09,10,11,12,1.0,1.0,1.0*30
$GPRMC,031456.929,A,2825.966,N,07732.677,E,019.4,354.3,010721,000.0,W*76
$GPGGA,031457.929,2825.971,N,07732.676,E,1,12,1.0,0.0,M,0.0,M,,*6C
$GPGSA,A,3,01,02,03,04,05,06,07,08,09,10,11,12,1.0,1.0,1.0*30
$GPRMC,031457.929,A,2825.971,N,07732.676,E,019.4,354.3,010721,000.0,W*70
$GPGGA,031458.929,2825.977,N,07732.676,E,1,12,1.0,0.0,M,0.0,M,,*65
$GPGSA,A,3,01,02,03,04,05,06,07,08,09,10,11,12,1.0,1.0,1.0*30
$GPRMC,031458.929,A,2825.977,N,07732.676,E,019.4,354.3,010721,000.0,W*79
$GPGGA,031459.929,2825.982,N,07732.675,E,1,12,1.0,0.0,M,0.0,M,,*6D
$GPGSA,A,3,01,02,03,04,05,06,07,08,09,10,11,12,1.0,1.0,1.0*30
$GPRMC,031459.929,A,2825.982,N,07732.675,E,019.4,354.3,010721,000.0,W*71
$GPGGA,031500.929,2825.988,N,07732.674,E,1,12,1.0,0.0,M,0.0,M,,*6B
$GPGSA,A,3,01,02,03,04,05,06,07,08,09,10,11,12,1.0,1.0,1.0*30
$GPRMC,031500.929,A,2825.988,N,07732.674,E,019.4,354.3,010721,000.0,W*77
$GPGGA,031501.929,2825.993,N,07732.674,E,1,12,1.0,0.0,M,0.0,M,,*60
$GPGSA,A,3,01,02,03,04,05,06,07,08,09,10,11,12,1.0,1.0,1.0*30
$GPRMC,031501.929,A,2825.993,N,07732.674,E,019.4,354.3,010721,000.0,W*7C
$GPGGA,031502.929,2825.998,N,07732.673,E,1,12,1.0,0.0,M,0.0,M,,*6F
$GPGSA,A,3,01,02,03,04,05,06,07,08,09,10,11,12,1.0,1.0,1.0*30
$GPRMC,031502.929,A,2825.998,N,07732.673,E,019.4,354.3,010721,000.0,W*73
$GPGGA,031503.929,2826.004,N,07732.673,E,1,12,1.0,0.0,M,0.0,M,,*61
$GPGSA,A,3,01,02,03,04,05,06,07,08,09,10,11,12,1.0,1.0,1.0*30
$GPRMC,031503.929,A,2826.004,N,07732.673,E,019.4,354.3,010721,000.0,W*7D
$GPGGA,031504.929,2826.009,N,07732.672,E,1,12,1.0,0.0,M,0.0,M,,*6A
$GPGSA,A,3,01,02,03,04,05,06,07,08,09,10,11,12,1.0,1.0,1.0*30
$GPRMC,031504.929,A,2826.009,N,07732.672,E,019.4,354.3,010721,000.0,W*76
$GPGGA,031505.929,2826.014,N,07732.672,E,1,12,1.0,0.0,M,0.0,M,,*67
$GPGSA,A,3,01,02,03,04,05,06,07,08,09,10,11,12,1.0,1.0,1.0*30
$GPRMC,031505.929,A,2826.014,N,07732.672,E,019.4,354.3,010721,000.0,W*7B
$GPGGA,031506.929,2826.020,N,07732.671,E,1,12,1.0,0.0,M,0.0,M,,*60
$GPGSA,A,3,01,02,03,04,05,06,07,08,09,10,11,12,1.0,1.0,1.0*30
$GPRMC,031506.929,A,2826.020,N,07732.671,E,019.4,354.3,010721,000.0,W*7C
$GPGGA,031507.929,2826.025,N,07732.671,E,1,12,1.0,0.0,M,0.0,M,,*64
$GPGSA,A,3,01,02,03,04,05,06,07,08,09,10,11,12,1.0,1.0,1.0*30
$GPRMC,031507.929,A,2826.025,N,07732.671,E,019.4,354.3,010721,000.0,W*78
$GPGGA,031508.929,2826.031,N,07732.670,E,1,12,1.0,0.0,M,0.0,M,,*6F
$GPGSA,A,3,01,02,03,04,05,06,07,08,09,10,11,12,1.0,1.0,1.0*30
$GPRMC,031508.929,A,2826.031,N,07732.670,E,019.4,354.3,010721,000.0,W*73
$GPGGA,031509.929,2826.036,N,07732.670,E,1,12,1.0,0.0,M,0.0,M,,*69
$GPGSA,A,3,01,02,03,04,05,06,07,08,09,10,11,12,1.0,1.0,1.0*30
$GPRMC,031509.929,A,2826.036,N,07732.670,E,019.4,354.3,010721,000.0,W*75
$GPGGA,031510.929,2826.041,N,07732.669,E,1,12,1.0,0.0,M,0.0,M,,*69
$GPGSA,A,3,01,02,03,04,05,06,07,08,09,10,11,12,1.0,1.0,1.0*30
$GPRMC,031510.929,A,2826.041,N,07732.669,E,019.4,354.3,010721,000.0,W*75
$GPGGA,031511.929,2826.047,N,07732.668,E,1,12,1.0,0.0,M,0.0,M,,*6F
$GPGSA,A,3,01,02,03,04,05,06,07,08,09,10,11,12,1.0,1.0,1.0*30
$GPRMC,031511.929,A,2826.047,N,07732.668,E,019.4,354.3,010721,000.0,W*73
$GPGGA,031512.929,2826.052,N,07732.668,E,1,12,1.0,0.0,M,0.0,M,,*68
$GPGSA,A,3,01,02,03,04,05,06,07,08,09,10,11,12,1.0,1.0,1.0*30
$GPRMC,031512.929,A,2826.052,N,07732.668,E,019.4,028.8,010721,000.0,W*77
$GPGGA,031513.929,2826.057,N,07732.671,E,1,12,1.0,0.0,M,0.0,M,,*64
$GPGSA,A,3,01,02,03,04,05,06,07,08,09,10,11,12,1.0,1.0,1.0*30
$GPRMC,031513.929,A,2826.057,N,07732.671,E,019.4,028.8,010721,000.0,W*7B
$GPGGA,031514.929,2826.062,N,07732.673,E,1,12,1.0,0.0,M,0.0,M,,*67
$GPGSA,A,3,01,02,03,04,05,06,07,08,09,10,11,12,1.0,1.0,1.0*30
$GPRMC,031514.929,A,2826.062,N,07732.673,E,019.4,028.8,010721,000.0,W*78
$GPGGA,031515.929,2826.067,N,07732.676,E,1,12,1.0,0.0,M,0.0,M,,*66
$GPGSA,A,3,01,02,03,04,05,06,07,08,09,10,11,12,1.0,1.0,1.0*30
$GPRMC,031515.929,A,2826.067,N,07732.676,E,019.4,028.8,010721,000.0,W*79
$GPGGA,031516.929,2826.071,N,07732.679,E,1,12,1.0,0.0,M,0.0,M,,*6D
$GPGSA,A,3,01,02,03,04,05,06,07,08,09,10,11,12,1.0,1.0,1.0*30
$GPRMC,031516.929,A,2826.071,N,07732.679,E,019.4,028.8,010721,000.0,W*72
$GPGGA,031517.929,2826.076,N,07732.681,E,1,12,1.0,0.0,M,0.0,M,,*6C
$GPGSA,A,3,01,02,03,04,05,06,07,08,09,10,11,12,1.0,1.0,1.0*30
$GPRMC,031517.929,A,2826.076,N,07732.681,E,019.4,028.8,010721,000.0,W*73
$GPGGA,031518.929,2826.081,N,07732.684,E,1,12,1.0,0.0,M,0.0,M,,*6E
$GPGSA,A,3,01,02,03,04,05,06,07,08,09,10,11,12,1.0,1.0,1.0*30
$GPRMC,031518.929,A,2826.081,N,07732.684,E,019.4,028.8,010721,000.0,W*71
$GPGGA,031519.929,2826.086,N,07732.687,E,1,12,1.0,0.0,M,0.0,M,,*6B
$GPGSA,A,3,01,02,03,04,05,06,07,08,09,10,11,12,1.0,1.0,1.0*30
$GPRMC,031519.929,A,2826.086,N,07732.687,E,019.4,028.8,010721,000.0,W*74
$GPGGA,031520.929,2826.091,N,07732.689,E,1,12,1.0,0.0,M,0.0,M,,*69
$GPGSA,A,3,01,02,03,04,05,06,07,08,09,10,11,12,1.0,1.0,1.0*30
$GPRMC,031520.929,A,2826.091,N,07732.689,E,019.4,028.8,010721,000.0,W*76
$GPGGA,031521.929,2826.096,N,07732.692,E,1,12,1.0,0.0,M,0.0,M,,*65
$GPGSA,A,3,01,02,03,04,05,06,07,08,09,10,11,12,1.0,1.0,1.0*30
$GPRMC,031521.929,A,2826.096,N,07732.692,E,019.4,028.8,010721,000.0,W*7A
$GPGGA,031522.929,2826.101,N,07732.695,E,1,12,1.0,0.0,M,0.0,M,,*6E
$GPGSA,A,3,01,02,03,04,05,06,07,08,09,10,11,12,1.0,1.0,1.0*30
$GPRMC,031522.929,A,2826.101,N,07732.695,E,019.4,028.8,010721,000.0,W*71
$GPGGA,031523.929,2826.105,N,07732.697,E,1,12,1.0,0.0,M,0.0,M,,*69
$GPGSA,A,3,01,02,03,04,05,06,07,08,09,10,11,12,1.0,1.0,1.0*30
$GPRMC,031523.929,A,2826.105,N,07732.697,E,019.4,028.8,010721,000.0,W*76
$GPGGA,031524.929,2826.110,N,07732.700,E,1,12,1.0,0.0,M,0.0,M,,*65
$GPGSA,A,3,01,02,03,04,05,06,07,08,09,10,11,12,1.0,1.0,1.0*30
$GPRMC,031524.929,A,2826.110,N,07732.700,E,019.4,028.8,010721,000.0,W*7A
$GPGGA,031525.929,2826.115,N,07732.703,E,1,12,1.0,0.0,M,0.0,M,,*62
$GPGSA,A,3,01,02,03,04,05,06,07,08,09,10,11,12,1.0,1.0,1.0*30
$GPRMC,031525.929,A,2826.115,N,07732.703,E,019.4,028.8,010721,000.0,W*7D
$GPGGA,031526.929,2826.120,N,07732.705,E,1,12,1.0,0.0,M,0.0,M,,*61
$GPGSA,A,3,01,02,03,04,05,06,07,08,09,10,11,12,1.0,1.0,1.0*30
$GPRMC,031526.929,A,2826.120,N,07732.705,E,019.4,028.8,010721,000.0,W*7E
$GPGGA,031527.929,2826.125,N,07732.708,E,1,12,1.0,0.0,M,0.0,M,,*68
$GPGSA,A,3,01,02,03,04,05,06,07,08,09,10,11,12,1.0,1.0,1.0*30
$GPRMC,031527.929,A,2826.125,N,07732.708,E,019.4,028.8,010721,000.0,W*77
$GPGGA,031528.929,2826.130,N,07732.711,E,1,12,1.0,0.0,M,0.0,M,,*6B
$GPGSA,A,3,01,02,03,04,05,06,07,08,09,10,11,12,1.0,1.0,1.0*30
$GPRMC,031528.929,A,2826.130,N,07732.711,E,019.4,028.8,010721,000.0,W*74
$GPGGA,031529.929,2826.135,N,07732.713,E,1,12,1.0,0.0,M,0.0,M,,*6D
$GPGSA,A,3,01,02,03,04,05,06,07,08,09,10,11,12,1.0,1.0,1.0*30
$GPRMC,031529.929,A,2826.135,N,07732.713,E,019.4,028.8,010721,000.0,W*72
$GPGGA,031530.929,2826.139,N,07732.716,E,1,12,1.0,0.0,M,0.0,M,,*6C
$GPGSA,A,3,01,02,03,04,05,06,07,08,09,10,11,12,1.0,1.0,1.0*30
$GPRMC,031530.929,A,2826.139,N,07732.716,E,019.4,028.8,010721,000.0,W*73
$GPGGA,031531.929,2826.144,N,07732.719,E,1,12,1.0,0.0,M,0.0,M,,*68
$GPGSA,A,3,01,02,03,04,05,06,07,08,09,10,11,12,1.0,1.0,1.0*30
$GPRMC,031531.929,A,2826.144,N,07732.719,E,019.4,028.8,010721,000.0,W*77
$GPGGA,031532.929,2826.149,N,07732.721,E,1,12,1.0,0.0,M,0.0,M,,*6D
$GPGSA,A,3,01,02,03,04,05,06,07,08,09,10,11,12,1.0,1.0,1.0*30
$GPRMC,031532.929,A,2826.149,N,07732.721,E,019.4,028.8,010721,000.0,W*72
$GPGGA,031533.929,2826.154,N,07732.724,E,1,12,1.0,0.0,M,0.0,M,,*65
$GPGSA,A,3,01,02,03,04,05,06,07,08,09,10,11,12,1.0,1.0,1.0*30
$GPRMC,031533.929,A,2826.154,N,07732.724,E,019.4,028.8,010721,000.0,W*7A
$GPGGA,031534.929,2826.159,N,07732.727,E,1,12,1.0,0.0,M,0.0,M,,*6C
$GPGSA,A,3,01,02,03,04,05,06,07,08,09,10,11,12,1.0,1.0,1.0*30
$GPRMC,031534.929,A,2826.159,N,07732.727,E,019.4,028.8,010721,000.0,W*73
$GPGGA,031535.929,2826.164,N,07732.729,E,1,12,1.0,0.0,M,0.0,M,,*6D
$GPGSA,A,3,01,02,03,04,05,06,07,08,09,10,11,12,1.0,1.0,1.0*30
$GPRMC,031535.929,A,2826.164,N,07732.729,E,019.4,028.8,010721,000.0,W*72
$GPGGA,031536.929,2826.169,N,07732.732,E,1,12,1.0,0.0,M,0.0,M,,*69
$GPGSA,A,3,01,02,03,04,05,06,07,08,09,10,11,12,1.0,1.0,1.0*30
$GPRMC,031536.929,A,2826.169,N,07732.732,E,019.4,028.8,010721,000.0,W*76
$GPGGA,031537.929,2826.173,N,07732.735,E,1,12,1.0,0.0,M,0.0,M,,*64
$GPGSA,A,3,01,02,03,04,05,06,07,08,09,10,11,12,1.0,1.0,1.0*30
$GPRMC,031537.929,A,2826.173,N,07732.735,E,019.4,028.8,010721,000.0,W*7B
$GPGGA,031538.929,2826.178,N,07732.737,E,1,12,1.0,0.0,M,0.0,M,,*62
$GPGSA,A,3,01,02,03,04,05,06,07,08,09,10,11,12,1.0,1.0,1.0*30
$GPRMC,031538.929,A,2826.178,N,07732.737,E,019.4,028.8,010721,000.0,W*7D
$GPGGA,031539.929,2826.183,N,07732.740,E,1,12,1.0,0.0,M,0.0,M,,*67
$GPGSA,A,3,01,02,03,04,05,06,07,08,09,10,11,12,1.0,1.0,1.0*30
$GPRMC,031539.929,A,2826.183,N,07732.740,E,019.4,028.8,010721,000.0,W*78
$GPGGA,031540.929,2826.188,N,07732.743,E,1,12,1.0,0.0,M,0.0,M,,*61
$GPGSA,A,3,01,02,03,04,05,06,07,08,09,10,11,12,1.0,1.0,1.0*30
$GPRMC,031540.929,A,2826.188,N,07732.743,E,019.4,028.8,010721,000.0,W*7E
$GPGGA,031541.929,2826.193,N,07732.745,E,1,12,1.0,0.0,M,0.0,M,,*6C
$GPGSA,A,3,01,02,03,04,05,06,07,08,09,10,11,12,1.0,1.0,1.0*30
$GPRMC,031541.929,A,2826.193,N,07732.745,E,019.4,299.8,010721,000.0,W*7B
$GPGGA,031542.929,2826.196,N,07732.740,E,1,12,1.0,0.0,M,0.0,M,,*6F
$GPGSA,A,3,01,02,03,04,05,06,07,08,09,10,11,12,1.0,1.0,1.0*30
$GPRMC,031542.929,A,2826.196,N,07732.740,E,019.4,299.8,010721,000.0,W*78
$GPGGA,031543.929,2826.199,N,07732.735,E,1,12,1.0,0.0,M,0.0,M,,*63
$GPGSA,A,3,01,02,03,04,05,06,07,08,09,10,11,12,1.0,1.0,1.0*30
$GPRMC,031543.929,A,2826.199,N,07732.735,E,019.4,299.8,010721,000.0,W*74
$GPGGA,031544.929,2826.202,N,07732.730,E,1,12,1.0,0.0,M,0.0,M,,*60
$GPGSA,A,3,01,02,03,04,05,06,07,08,09,10,11,12,1.0,1.0,1.0*30
$GPRMC,031544.929,A,2826.202,N,07732.730,E,019.4,299.8,010721,000.0,W*77
$GPGGA,031545.929,2826.205,N,07732.725,E,1,12,1.0,0.0,M,0.0,M,,*62
$GPGSA,A,3,01,02,03,04,05,06,07,08,09,10,11,12,1.0,1.0,1.0*30
$GPRMC,031545.929,A,2826.205,N,07732.725,E,019.4,299.8,010721,000.0,W*75
$GPGGA,031546.929,2826.208,N,07732.720,E,1,12,1.0,0.0,M,0.0,M,,*69
$GPGSA,A,3,01,02,03,04,05,06,07,08,09,10,11,12,1.0,1.0,1.0*30
$GPRMC,031546.929,A,2826.208,N,07732.720,E,019.4,299.8,010721,000.0,W*7E
$GPGGA,031547.929,2826.211,N,07732.715,E,1,12,1.0,0.0,M,0.0,M,,*66
$GPGSA,A,3,01,02,03,04,05,06,07,08,09,10,11,12,1.0,1.0,1.0*30
$GPRMC,031547.929,A,2826.211,N,07732.715,E,019.4,299.8,010721,000.0,W*71
$GPGGA,031548.929,2826.213,N,07732.709,E,1,12,1.0,0.0,M,0.0,M,,*66
$GPGSA,A,3,01,02,03,04,05,06,07,08,09,10,11,12,1.0,1.0,1.0*30
$GPRMC,031548.929,A,2826.213,N,07732.709,E,019.4,299.8,010721,000.0,W*71
$GPGGA,031549.929,2826.216,N,07732.704,E,1,12,1.0,0.0,M,0.0,M,,*6F
$GPGSA,A,3,01,02,03,04,05,06,07,08,09,10,11,12,1.0,1.0,1.0*30
$GPRMC,031549.929,A,2826.216,N,07732.704,E,019.4,299.8,010721,000.0,W*78
$GPGGA,031550.929,2826.219,N,07732.699,E,1,12,1.0,0.0,M,0.0,M,,*6D
$GPGSA,A,3,01,02,03,04,05,06,07,08,09,10,11,12,1.0,1.0,1.0*30
$GPRMC,031550.929,A,2826.219,N,07732.699,E,019.4,299.8,010721,000.0,W*7A
$GPGGA,031551.929,2826.222,N,07732.694,E,1,12,1.0,0.0,M,0.0,M,,*69
$GPGSA,A,3,01,02,03,04,05,06,07,08,09,10,11,12,1.0,1.0,1.0*30
$GPRMC,031551.929,A,2826.222,N,07732.694,E,019.4,299.8,010721,000.0,W*7E
$GPGGA,031552.929,2826.225,N,07732.689,E,1,12,1.0,0.0,M,0.0,M,,*61
$GPGSA,A,3,01,02,03,04,05,06,07,08,09,10,11,12,1.0,1.0,1.0*30
$GPRMC,031552.929,A,2826.225,N,07732.689,E,019.4,299.8,010721,000.0,W*76
$GPGGA,031553.929,2826.228,N,07732.684,E,1,12,1.0,0.0,M,0.0,M,,*60
$GPGSA,A,3,01,02,03,04,05,06,07,08,09,10,11,12,1.0,1.0,1.0*30
$GPRMC,031553.929,A,2826.228,N,07732.684,E,019.4,299.8,010721,000.0,W*77
$GPGGA,031554.929,2826.231,N,07732.678,E,1,12,1.0,0.0,M,0.0,M,,*6C
$GPGSA,A,3,01,02,03,04,05,06,07,08,09,10,11,12,1.0,1.0,1.0*30
$GPRMC,031554.929,A,2826.231,N,07732.678,E,019.4,299.8,010721,000.0,W*7B
$GPGGA,031555.929,2826.234,N,07732.673,E,1,12,1.0,0.0,M,0.0,M,,*63
$GPGSA,A,3,01,02,03,04,05,06,07,08,09,10,11,12,1.0,1.0,1.0*30
$GPRMC,031555.929,A,2826.234,N,07732.673,E,019.4,299.8,010721,000.0,W*74
$GPGGA,031556.929,2826.237,N,07732.668,E,1,12,1.0,0.0,M,0.0,M,,*69
$GPGSA,A,3,01,02,03,04,05,06,07,08,09,10,11,12,1.0,1.0,1.0*30
$GPRMC,031556.929,A,2826.237,N,07732.668,E,019.4,299.8,010721,000.0,W*7E
$GPGGA,031557.929,2826.240,N,07732.663,E,1,12,1.0,0.0,M,0.0,M,,*63
$GPGSA,A,3,01,02,03,04,05,06,07,08,09,10,11,12,1.0,1.0,1.0*30
$GPRMC,031557.929,A,2826.240,N,07732.663,E,019.4,299.8,010721,000.0,W*74
$GPGGA,031558.929,2826.243,N,07732.658,E,1,12,1.0,0.0,M,0.0,M,,*67
$GPGSA,A,3,01,02,03,04,05,06,07,08,09,10,11,12,1.0,1.0,1.0*30
$GPRMC,031558.929,A,2826.243,N,07732.658,E,019.4,299.8,010721,000.0,W*70
$GPGGA,031559.929,2826.246,N,07732.653,E,1,12,1.0,0.0,M,0.0,M,,*68
$GPGSA,A,3,01,02,03,04,05,06,07,08,09,10,11,12,1.0,1.0,1.0*30
$GPRMC,031559.929,A,2826.246,N,07732.653,E,019.4,299.8,010721,000.0,W*7F
$GPGGA,031600.929,2826.249,N,07732.648,E,1,12,1.0,0.0,M,0.0,M,,*62
$GPGSA,A,3,01,02,03,04,05,06,07,08,09,10,11,12,1.0,1.0,1.0*30
$GPRMC,031600.929,A,2826.249,N,07732.648,E,019.4,299.8,010721,000.0,W*75
$GPGGA,031601.929,2826.252,N,07732.642,E,1,12,1.0,0.0,M,0.0,M,,*63
$GPGSA,A,3,01,02,03,04,05,06,07,08,09,10,11,12,1.0,1.0,1.0*30
$GPRMC,031601.929,A,2826.252,N,07732.642,E,019.4,299.8,010721,000.0,W*74
$GPGGA,031602.929,2826.255,N,07732.637,E,1,12,1.0,0.0,M,0.0,M,,*65
$GPGSA,A,3,01,02,03,04,05,06,07,08,09,10,11,12,1.0,1.0,1.0*30
$GPRMC,031602.929,A,2826.255,N,07732.637,E,019.4,299.8,010721,000.0,W*72
$GPGGA,031603.929,2826.258,N,07732.632,E,1,12,1.0,0.0,M,0.0,M,,*6C
$GPGSA,A,3,01,02,03,04,05,06,07,08,09,10,11,12,1.0,1.0,1.0*30
$GPRMC,031603.929,A,2826.258,N,07732.632,E,019.4,299.8,010721,000.0,W*7B
$GPGGA,031604.929,2826.261,N,07732.627,E,1,12,1.0,0.0,M,0.0,M,,*65
$GPGSA,A,3,01,02,03,04,05,06,07,08,09,10,11,12,1.0,1.0,1.0*30
$GPRMC,031604.929,A,2826.261,N,07732.627,E,019.4,299.8,010721,000.0,W*72
$GPGGA,031605.929,2826.263,N,07732.622,E,1,12,1.0,0.0,M,0.0,M,,*63
$GPGSA,A,3,01,02,03,04,05,06,07,08,09,10,11,12,1.0,1.0,1.0*30
$GPRMC,031605.929,A,2826.263,N,07732.622,E,019.4,299.8,010721,000.0,W*74
$GPGGA,031606.929,2826.266,N,07732.617,E,1,12,1.0,0.0,M,0.0,M,,*63
$GPGSA,A,3,01,02,03,04,05,06,07,08,09,10,11,12,1.0,1.0,1.0*30
$GPRMC,031606.929,A,2826.266,N,07732.617,E,019.4,299.8,010721,000.0,W*74
$GPGGA,031607.929,2826.269,N,07732.612,E,1,12,1.0,0.0,M,0.0,M,,*68
$GPGSA,A,3,01,02,03,04,05,06,07,08,09,10,11,12,1.0,1.0,1.0*30
$GPRMC,031607.929,A,2826.269,N,07732.612,E,019.4,299.8,010721,000.0,W*7F
$GPGGA,031608.929,2826.272,N,07732.606,E,1,12,1.0,0.0,M,0.0,M,,*68
$GPGSA,A,3,01,02,03,04,05,06,07,08,09,10,11,12,1.0,1.0,1.0*30
$GPRMC,031608.929,A,2826.272,N,07732.606,E,019.4,299.8,010721,000.0,W*7F
$GPGGA,031609.929,2826.275,N,07732.601,E,1,12,1.0,0.0,M,0.0,M,,*69
$GPGSA,A,3,01,02,03,04,05,06,07,08,09,10,11,12,1.0,1.0,1.0*30
$GPRMC,031609.929,A,2826.275,N,07732.601,E,019.4,299.8,010721,000.0,W*7E
$GPGGA,031610.929,2826.278,N,07732.596,E,1,12,1.0,0.0,M,0.0,M,,*61
$GPGSA,A,3,01,02,03,04,05,06,07,08,09,10,11,12,1.0,1.0,1.0*30
$GPRMC,031610.929,A,2826.278,N,07732.596,E,019.4,299.8,010721,000.0,W*76
$GPGGA,031611.929,2826.281,N,07732.591,E,1,12,1.0,0.0,M,0.0,M,,*61
$GPGSA,A,3,01,02,03,04,05,06,07,08,09,10,11,12,1.0,1.0,1.0*30
$GPRMC,031611.929,A,2826.281,N,07732.591,E,019.4,299.8,010721,000.0,W*76
$GPGGA,031612.929,2826.284,N,07732.586,E,1,12,1.0,0.0,M,0.0,M,,*61
$GPGSA,A,3,01,02,03,04,05,06,07,08,09,10,11,12,1.0,1.0,1.0*30
$GPRMC,031612.929,A,2826.284,N,07732.586,E,019.4,299.8,010721,000.0,W*76
$GPGGA,031613.929,2826.287,N,07732.581,E,1,12,1.0,0.0,M,0.0,M,,*64
$GPGSA,A,3,01,02,03,04,05,06,07,08,09,10,11,12,1.0,1.0,1.0*30
$GPRMC,031613.929,A,2826.287,N,07732.581,E,019.4,299.8,010721,000.0,W*73
$GPGGA,031614.929,2826.290,N,07732.576,E,1,12,1.0,0.0,M,0.0,M,,*6D
$GPGSA,A,3,01,02,03,04,05,06,07,08,09,10,11,12,1.0,1.0,1.0*30
$GPRMC,031614.929,A,2826.290,N,07732.576,E,019.4,299.8,010721,000.0,W*7A
$GPGGA,031615.929,2826.293,N,07732.570,E,1,12,1.0,0.0,M,0.0,M,,*69
$GPGSA,A,3,01,02,03,04,05,06,07,08,09,10,11,12,1.0,1.0,1.0*30
$GPRMC,031615.929,A,2826.293,N,07732.570,E,019.4,299.8,010721,000.0,W*7E
$GPGGA,031616.929,2826.296,N,07732.565,E,1,12,1.0,0.0,M,0.0,M,,*6B
$GPGSA,A,3,01,02,03,04,05,06,07,08,09,10,11,12,1.0,1.0,1.0*30
$GPRMC,031616.929,A,2826.296,N,07732.565,E,019.4,299.8,010721,000.0,W*7C
$GPGGA,031617.929,2826.299,N,07732.560,E,1,12,1.0,0.0,M,0.0,M,,*60
$GPGSA,A,3,01,02,03,04,05,06,07,08,09,10,11,12,1.0,1.0,1.0*30
$GPRMC,031617.929,A,2826.299,N,07732.560,E,019.4,299.8,010721,000.0,W*77
$GPGGA,031618.929,2826.302,N,07732.555,E,1,12,1.0,0.0,M,0.0,M,,*6A
$GPGSA,A,3,01,02,03,04,05,06,07,08,09,10,11,12,1.0,1.0,1.0*30
$GPRMC,031618.929,A,2826.302,N,07732.555,E,019.4,299.8,010721,000.0,W*7D
$GPGGA,031619.929,2826.305,N,07732.550,E,1,12,1.0,0.0,M,0.0,M,,*69
$GPGSA,A,3,01,02,03,04,05,06,07,08,09,10,11,12,1.0,1.0,1.0*30
$GPRMC,031619.929,A,2826.305,N,07732.550,E,019.4,299.8,010721,000.0,W*7E
$GPGGA,031620.929,2826.308,N,07732.545,E,1,12,1.0,0.0,M,0.0,M,,*6A
$GPGSA,A,3,01,02,03,04,05,06,07,08,09,10,11,12,1.0,1.0,1.0*30
$GPRMC,031620.929,A,2826.308,N,07732.545,E,019.4,299.8,010721,000.0,W*7D
$GPGGA,031621.929,2826.310,N,07732.540,E,1,12,1.0,0.0,M,0.0,M,,*67
$GPGSA,A,3,01,02,03,04,05,06,07,08,09,10,11,12,1.0,1.0,1.0*30
$GPRMC,031621.929,A,2826.310,N,07732.540,E,019.4,299.8,010721,000.0,W*70
$GPGGA,031622.929,2826.313,N,07732.534,E,1,12,1.0,0.0,M,0.0,M,,*64
$GPGSA,A,3,01,02,03,04,05,06,07,08,09,10,11,12,1.0,1.0,1.0*30
$GPRMC,031622.929,A,2826.313,N,07732.534,E,019.4,299.8,010721,000.0,W*73
$GPGGA,031623.929,2826.316,N,07732.529,E,1,12,1.0,0.0,M,0.0,M,,*6C
$GPGSA,A,3,01,02,03,04,05,06,07,08,09,10,11,12,1.0,1.0,1.0*30
$GPRMC,031623.929,A,2826.316,N,07732.529,E,019.4,299.8,010721,000.0,W*7B
$GPGGA,031624.929,2826.319,N,07732.524,E,1,12,1.0,0.0,M,0.0,M,,*69
$GPGSA,A,3,01,02,03,04,05,06,07,08,09,10,11,12,1.0,1.0,1.0*30
$GPRMC,031624.929,A,2826.319,N,07732.524,E,019.4,299.8,010721,000.0,W*7E
$GPGGA,031625.929,2826.322,N,07732.519,E,1,12,1.0,0.0,M,0.0,M,,*6E
$GPGSA,A,3,01,02,03,04,05,06,07,08,09,10,11,12,1.0,1.0,1.0*30
$GPRMC,031625.929,A,2826.322,N,07732.519,E,019.4,299.8,010721,000.0,W*79
$GPGGA,031626.929,2826.325,N,07732.514,E,1,12,1.0,0.0,M,0.0,M,,*67
$GPGSA,A,3,01,02,03,04,05,06,07,08,09,10,11,12,1.0,1.0,1.0*30
$GPRMC,031626.929,A,2826.325,N,07732.514,E,019.4,299.8,010721,000.0,W*70
$GPGGA,031627.929,2826.328,N,07732.509,E,1,12,1.0,0.0,M,0.0,M,,*67
$GPGSA,A,3,01,02,03,04,05,06,07,08,09,10,11,12,1.0,1.0,1.0*30
$GPRMC,031627.929,A,2826.328,N,07732.509,E,019.4,299.8,010721,000.0,W*70
$GPGGA,031628.929,2826.331,N,07732.504,E,1,12,1.0,0.0,M,0.0,M,,*6D
$GPGSA,A,3,01,02,03,04,05,06,07,08,09,10,11,12,1.0,1.0,1.0*30
$GPRMC,031628.929,A,2826.331,N,07732.504,E,019.4,299.8,010721,000.0,W*7A
$GPGGA,031629.929,2826.334,N,07732.498,E,1,12,1.0,0.0,M,0.0,M,,*6D
$GPGSA,A,3,01,02,03,04,05,06,07,08,09,10,11,12,1.0,1.0,1.0*30
$GPRMC,031629.929,A,2826.334,N,07732.498,E,019.4,299.8,010721,000.0,W*7A
$GPGGA,031630.929,2826.337,N,07732.493,E,1,12,1.0,0.0,M,0.0,M,,*6D
$GPGSA,A,3,01,02,03,04,05,06,07,08,09,10,11,12,1.0,1.0,1.0*30
$GPRMC,031630.929,A,2826.337,N,07732.493,E,019.4,299.8,010721,000.0,W*7A
$GPGGA,031631.929,2826.340,N,07732.488,E,1,12,1.0,0.0,M,0.0,M,,*66
$GPGSA,A,3,01,02,03,04,05,06,07,08,09,10,11,12,1.0,1.0,1.0*30
$GPRMC,031631.929,A,2826.340,N,07732.488,E,019.4,299.8,010721,000.0,W*71
$GPGGA,031632.929,2826.343,N,07732.483,E,1,12,1.0,0.0,M,0.0,M,,*6D
$GPGSA,A,3,01,02,03,04,05,06,07,08,09,10,11,12,1.0,1.0,1.0*30
$GPRMC,031632.929,A,2826.343,N,07732.483,E,019.4,299.8,010721,000.0,W*7A
$GPGGA,031633.929,2826.346,N,07732.478,E,1,12,1.0,0.0,M,0.0,M,,*6D
$GPGSA,A,3,01,02,03,04,05,06,07,08,09,10,11,12,1.0,1.0,1.0*30
$GPRMC,031633.929,A,2826.346,N,07732.478,E,019.4,299.8,010721,000.0,W*7A
$GPGGA,031634.929,2826.349,N,07732.473,E,1,12,1.0,0.0,M,0.0,M,,*6E
$GPGSA,A,3,01,02,03,04,05,06,07,08,09,10,11,12,1.0,1.0,1.0*30
$GPRMC,031634.929,A,2826.349,N,07732.473,E,019.4,299.8,010721,000.0,W*79
$GPGGA,031635.929,2826.352,N,07732.468,E,1,12,1.0,0.0,M,0.0,M,,*6F
$GPGSA,A,3,01,02,03,04,05,06,07,08,09,10,11,12,1.0,1.0,1.0*30
$GPRMC,031635.929,A,2826.352,N,07732.468,E,019.4,299.8,010721,000.0,W*78
$GPGGA,031636.929,2826.355,N,07732.462,E,1,12,1.0,0.0,M,0.0,M,,*61
$GPGSA,A,3,01,02,03,04,05,06,07,08,09,10,11,12,1.0,1.0,1.0*30
$GPRMC,031636.929,A,2826.355,N,07732.462,E,019.4,299.8,010721,000.0,W*76
$GPGGA,031637.929,2826.358,N,07732.457,E,1,12,1.0,0.0,M,0.0,M,,*6B
$GPGSA,A,3,01,02,03,04,05,06,07,08,09,10,11,12,1.0,1.0,1.0*30
$GPRMC,031637.929,A,2826.358,N,07732.457,E,019.4,299.8,010721,000.0,W*7C
$GPGGA,031638.929,2826.360,N,07732.452,E,1,12,1.0,0.0,M,0.0,M,,*6A
$GPGSA,A,3,01,02,03,04,05,06,07,08,09,10,11,12,1.0,1.0,1.0*30
$GPRMC,031638.929,A,2826.360,N,07732.452,E,019.4,299.8,010721,000.0,W*7D
$GPGGA,031639.929,2826.363,N,07732.447,E,1,12,1.0,0.0,M,0.0,M,,*6C
$GPGSA,A,3,01,02,03,04,05,06,07,08,09,10,11,12,1.0,1.0,1.0*30
$GPRMC,031639.929,A,2826.363,N,07732.447,E,019.4,299.8,010721,000.0,W*7B
$GPGGA,031640.929,2826.366,N,07732.442,E,1,12,1.0,0.0,M,0.0,M,,*62
$GPGSA,A,3,01,02,03,04,05,06,07,08,09,10,11,12,1.0,1.0,1.0*30
$GPRMC,031640.929,A,2826.366,N,07732.442,E,019.4,299.8,010721,000.0,W*75
$GPGGA,031641.929,2826.369,N,07732.437,E,1,12,1.0,0.0,M,0.0,M,,*6E
$GPGSA,A,3,01,02,03,04,05,06,07,08,09,10,11,12,1.0,1.0,1.0*30
$GPRMC,031641.929,A,2826.369,N,07732.437,E,019.4,299.8,010721,000.0,W*79
$GPGGA,031642.929,2826.372,N,07732.431,E,1,12,1.0,0.0,M,0.0,M,,*61
$GPGSA,A,3,01,02,03,04,05,06,07,08,09,10,11,12,1.0,1.0,1.0*30
$GPRMC,031642.929,A,2826.372,N,07732.431,E,019.4,299.8,010721,000.0,W*76
$GPGGA,031643.929,2826.375,N,07732.426,E,1,12,1.0,0.0,M,0.0,M,,*61
$GPGSA,A,3,01,02,03,04,05,06,07,08,09,10,11,12,1.0,1.0,1.0*30
$GPRMC,031643.929,A,2826.375,N,07732.426,E,019.4,299.8,010721,000.0,W*76
$GPGGA,031644.929,2826.378,N,07732.421,E,1,12,1.0,0.0,M,0.0,M,,*6C
$GPGSA,A,3,01,02,03,04,05,06,07,08,09,10,11,12,1.0,1.0,1.0*30
$GPRMC,031644.929,A,2826.378,N,07732.421,E,019.4,299.8,010721,000.0,W*7B
$GPGGA,031645.929,2826.381,N,07732.416,E,1,12,1.0,0.0,M,0.0,M,,*6F
$GPGSA,A,3,01,02,03,04,05,06,07,08,09,10,11,12,1.0,1.0,1.0*30
$GPRMC,031645.929,A,2826.381,N,07732.416,E,019.4,299.8,010721,000.0,W*78
$GPGGA,031646.929,2826.384,N,07732.411,E,1,12,1.0,0.0,M,0.0,M,,*6E
$GPGSA,A,3,01,02,03,04,05,06,07,08,09,10,11,12,1.0,1.0,1.0*30
$GPRMC,031646.929,A,2826.384,N,07732.411,E,019.4,299.8,010721,000.0,W*79
$GPGGA,031647.929,2826.387,N,07732.406,E,1,12,1.0,0.0,M,0.0,M,,*6A
$GPGSA,A,3,01,02,03,04,05,06,07,08,09,10,11,12,1.0,1.0,1.0*30
$GPRMC,031647.929,A,2826.387,N,07732.406,E,019.4,299.8,010721,000.0,W*7D
$GPGGA,031648.929,2826.390,N,07732.401,E,1,12,1.0,0.0,M,0.0,M,,*64
$GPGSA,A,3,01,02,03,04,05,06,07,08,09,10,11,12,1.0,1.0,1.0*30
$GPRMC,031648.929,A,2826.390,N,07732.401,E,019.4,299.8,010721,000.0,W*73
$GPGGA,031649.929,2826.393,N,07732.395,E,1,12,1.0,0.0,M,0.0,M,,*6C
$GPGSA,A,3,01,02,03,04,05,06,07,08,09,10,11,12,1.0,1.0,1.0*30
$GPRMC,031649.929,A,2826.393,N,07732.395,E,019.4,299.8,010721,000.0,W*7B
$GPGGA,031650.929,2826.396,N,07732.390,E,1,12,1.0,0.0,M,0.0,M,,*64
$GPGSA,A,3,01,02,03,04,05,06,07,08,09,10,11,12,1.0,1.0,1.0*30
$GPRMC,031650.929,A,2826.396,N,07732.390,E,019.4,299.8,010721,000.0,W*73
$GPGGA,031651.929,2826.399,N,07732.385,E,1,12,1.0,0.0,M,0.0,M,,*6E
$GPGSA,A,3,01,02,03,04,05,06,07,08,09,10,11,12,1.0,1.0,1.0*30
$GPRMC,031651.929,A,2826.399,N,07732.385,E,019.4,299.8,010721,000.0,W*79
$GPGGA,031652.929,2826.402,N,07732.380,E,1,12,1.0,0.0,M,0.0,M,,*6D
$GPGSA,A,3,01,02,03,04,05,06,07,08,09,10,11,12,1.0,1.0,1.0*30
$GPRMC,031652.929,A,2826.402,N,07732.380,E,019.4,299.8,010721,000.0,W*7A
$GPGGA,031653.929,2826.405,N,07732.375,E,1,12,1.0,0.0,M,0.0,M,,*61
$GPGSA,A,3,01,02,03,04,05,06,07,08,09,10,11,12,1.0,1.0,1.0*30
$GPRMC,031653.929,A,2826.405,N,07732.375,E,019.4,299.8,010721,000.0,W*76
$GPGGA,031654.929,2826.407,N,07732.370,E,1,12,1.0,0.0,M,0.0,M,,*61
$GPGSA,A,3,01,02,03,04,05,06,07,08,09,10,11,12,1.0,1.0,1.0*30
$GPRMC,031654.929,A,2826.407,N,07732.370,E,019.4,299.8,010721,000.0,W*76
$GPGGA,031655.929,2826.410,N,07732.365,E,1,12,1.0,0.0,M,0.0,M,,*62
$GPGSA,A,3,01,02,03,04,05,06,07,08,09,10,11,12,1.0,1.0,1.0*30
$GPRMC,031655.929,A,2826.410,N,07732.365,E,019.4,299.8,010721,000.0,W*75
$GPGGA,031656.929,2826.413,N,07732.359,E,1,12,1.0,0.0,M,0.0,M,,*6D
$GPGSA,A,3,01,02,03,04,05,06,07,08,09,10,11,12,1.0,1.0,1.0*30
$GPRMC,031656.929,A,2826.413,N,07732.359,E,019.4,299.8,010721,000.0,W*7A
$GPGGA,031657.929,2826.416,N,07732.354,E,1,12,1.0,0.0,M,0.0,M,,*64
$GPGSA,A,3,01,02,03,04,05,06,07,08,09,10,11,12,1.0,1.0,1.0*30
$GPRMC,031657.929,A,2826.416,N,07732.354,E,019.4,299.8,010721,000.0,W*73
$GPGGA,031658.929,2826.419,N,07732.349,E,1,12,1.0,0.0,M,0.0,M,,*68
$GPGSA,A,3,01,02,03,04,05,06,07,08,09,10,11,12,1.0,1.0,1.0*30
$GPRMC,031658.929,A,2826.419,N,07732.349,E,019.4,299.8,010721,000.0,W*7F
$GPGGA,031659.929,2826.422,N,07732.344,E,1,12,1.0,0.0,M,0.0,M,,*6C
$GPGSA,A,3,01,02,03,04,05,06,07,08,09,10,11,12,1.0,1.0,1.0*30
$GPRMC,031659.929,A,2826.422,N,07732.344,E,019.4,299.8,010721,000.0,W*7B
$GPGGA,031700.929,2826.425,N,07732.339,E,1,12,1.0,0.0,M,0.0,M,,*6C
$GPGSA,A,3,01,02,03,04,05,06,07,08,09,10,11,12,1.0,1.0,1.0*30
$GPRMC,031700.929,A,2826.425,N,07732.339,E,019.4,299.8,010721,000.0,W*7B
$GPGGA,031701.929,2826.428,N,07732.334,E,1,12,1.0,0.0,M,0.0,M,,*6D
$GPGSA,A,3,01,02,03,04,05,06,07,08,09,10,11,12,1.0,1.0,1.0*30
$GPRMC,031701.929,A,2826.428,N,07732.334,E,019.4,299.8,010721,000.0,W*7A
$GPGGA,031702.929,2826.431,N,07732.329,E,1,12,1.0,0.0,M,0.0,M,,*6A
$GPGSA,A,3,01,02,03,04,05,06,07,08,09,10,11,12,1.0,1.0,1.0*30
$GPRMC,031702.929,A,2826.431,N,07732.329,E,019.4,299.8,010721,000.0,W*7D
$GPGGA,031703.929,2826.434,N,07732.323,E,1,12,1.0,0.0,M,0.0,M,,*64
$GPGSA,A,3,01,02,03,04,05,06,07,08,09,10,11,12,1.0,1.0,1.0*30
$GPRMC,031703.929,A,2826.434,N,07732.323,E,019.4,299.8,010721,000.0,W*73
$GPGGA,031704.929,2826.437,N,07732.318,E,1,12,1.0,0.0,M,0.0,M,,*68
$GPGSA,A,3,01,02,03,04,05,06,07,08,09,10,11,12,1.0,1.0,1.0*30
$GPRMC,031704.929,A,2826.437,N,07732.318,E,019.4,299.8,010721,000.0,W*7F
$GPGGA,031705.929,2826.440,N,07732.313,E,1,12,1.0,0.0,M,0.0,M,,*62
$GPGSA,A,3,01,02,03,04,05,06,07,08,09,10,11,12,1.0,1.0,1.0*30
$GPRMC,031705.929,A,2826.440,N,07732.313,E,019.4,299.8,010721,000.0,W*75
$GPGGA,031706.929,2826.443,N,07732.308,E,1,12,1.0,0.0,M,0.0,M,,*68
$GPGSA,A,3,01,02,03,04,05,06,07,08,09,10,11,12,1.0,1.0,1.0*30
$GPRMC,031706.929,A,2826.443,N,07732.308,E,019.4,299.8,010721,000.0,W*7F
$GPGGA,031707.929,2826.446,N,07732.303,E,1,12,1.0,0.0,M,0.0,M,,*67
$GPGSA,A,3,01,02,03,04,05,06,07,08,09,10,11,12,1.0,1.0,1.0*30
$GPRMC,031707.929,A,2826.446,N,07732.303,E,019.4,299.8,010721,000.0,W*70
$GPGGA,031708.929,2826.449,N,07732.298,E,1,12,1.0,0.0,M,0.0,M,,*64
$GPGSA,A,3,01,02,03,04,05,06,07,08,09,10,11,12,1.0,1.0,1.0*30
$GPRMC,031708.929,A,2826.449,N,07732.298,E,019.4,299.8,010721,000.0,W*73
$GPGGA,031709.929,2826.452,N,07732.293,E,1,12,1.0,0.0,M,0.0,M,,*64
$GPGSA,A,3,01,02,03,04,05,06,07,08,09,10,11,12,1.0,1.0,1.0*30
$GPRMC,031709.929,A,2826.452,N,07732.293,E,019.4,299.8,010721,000.0,W*73
$GPGGA,031710.929,2826.455,N,07732.287,E,1,12,1.0,0.0,M,0.0,M,,*6E
$GPGSA,A,3,01,02,03,04,05,06,07,08,09,10,11,12,1.0,1.0,1.0*30
$GPRMC,031710.929,A,2826.455,N,07732.287,E,019.4,299.8,010721,000.0,W*79
$GPGGA,031711.929,2826.457,N,07732.282,E,1,12,1.0,0.0,M,0.0,M,,*68
$GPGSA,A,3,01,02,03,04,05,06,07,08,09,10,11,12,1.0,1.0,1.0*30
$GPRMC,031711.929,A,2826.457,N,07732.282,E,019.4,299.8,010721,000.0,W*7F
$GPGGA,031712.929,2826.460,N,07732.277,E,1,12,1.0,0.0,M,0.0,M,,*65
$GPGSA,A,3,01,02,03,04,05,06,07,08,09,10,11,12,1.0,1.0,1.0*30
$GPRMC,031712.929,A,2826.460,N,07732.277,E,019.4,299.8,010721,000.0,W*72
$GPGGA,031713.929,2826.463,N,07732.272,E,1,12,1.0,0.0,M,0.0,M,,*62
$GPGSA,A,3,01,02,03,04,05,06,07,08,09,10,11,12,1.0,1.0,1.0*30
$GPRMC,031713.929,A,2826.463,N,07732.272,E,019.4,299.8,010721,000.0,W*75
$GPGGA,031714.929,2826.466,N,07732.267,E,1,12,1.0,0.0,M,0.0,M,,*64
$GPGSA,A,3,01,02,03,04,05,06,07,08,09,10,11,12,1.0,1.0,1.0*30
$GPRMC,031714.929,A,2826.466,N,07732.267,E,019.4,299.8,010721,000.0,W*73
$GPGGA,031715.929,2826.469,N,07732.262,E,1,12,1.0,0.0,M,0.0,M,,*6F
$GPGSA,A,3,01,02,03,04,05,06,07,08,09,10,11,12,1.0,1.0,1.0*30
$GPRMC,031715.929,A,2826.469,N,07732.262,E,019.4,299.8,010721,000.0,W*78
$GPGGA,031716.929,2826.472,N,07732.257,E,1,12,1.0,0.0,M,0.0,M,,*60
$GPGSA,A,3,01,02,03,04,05,06,07,08,09,10,11,12,1.0,1.0,1.0*30
$GPRMC,031716.929,A,2826.472,N,07732.257,E,019.4,299.8,010721,000.0,W*77
$GPGGA,031717.929,2826.475,N,07732.251,E,1,12,1.0,0.0,M,0.0,M,,*60
$GPGSA,A,3,01,02,03,04,05,06,07,08,09,10,11,12,1.0,1.0,1.0*30
$GPRMC,031717.929,A,2826.475,N,07732.251,E,019.4,299.8,010721,000.0,W*77
$GPGGA,031718.929,2826.478,N,07732.246,E,1,12,1.0,0.0,M,0.0,M,,*64
$GPGSA,A,3,01,02,03,04,05,06,07,08,09,10,11,12,1.0,1.0,1.0*30
$GPRMC,031718.929,A,2826.478,N,07732.246,E,019.4,299.8,010721,000.0,W*73
$GPGGA,031719.929,2826.481,N,07732.241,E,1,12,1.0,0.0,M,0.0,M,,*64
$GPGSA,A,3,01,02,03,04,05,06,07,08,09,10,11,12,1.0,1.0,1.0*30
$GPRMC,031719.929,A,2826.481,N,07732.241,E,019.4,299.8,010721,000.0,W*73
$GPGGA,031720.929,2826.484,N,07732.236,E,1,12,1.0,0.0,M,0.0,M,,*6B
$GPGSA,A,3,01,02,03,04,05,06,07,08,09,10,11,12,1.0,1.0,1.0*30
$GPRMC,031720.929,A,2826.484,N,07732.236,E,019.4,299.8,010721,000.0,W*7C
$GPGGA,031721.929,2826.487,N,07732.231,E,1,12,1.0,0.0,M,0.0,M,,*6E
$GPGSA,A,3,01,02,03,04,05,06,07,08,09,10,11,12,1.0,1.0,1.0*30
$GPRMC,031721.929,A,2826.487,N,07732.231,E,019.4,299.8,010721,000.0,W*79
$GPGGA,031722.929,2826.490,N,07732.226,E,1,12,1.0,0.0,M,0.0,M,,*6D
$GPGSA,A,3,01,02,03,04,05,06,07,08,09,10,11,12,1.0,1.0,1.0*30
$GPRMC,031722.929,A,2826.490,N,07732.226,E,019.4,299.8,010721,000.0,W*7A
$GPGGA,031723.929,2826.493,N,07732.220,E,1,12,1.0,0.0,M,0.0,M,,*69
$GPGSA,A,3,01,02,03,04,05,06,07,08,09,10,11,12,1.0,1.0,1.0*30
$GPRMC,031723.929,A,2826.493,N,07732.220,E,019.4,299.8,010721,000.0,W*7E
$GPGGA,031724.929,2826.496,N,07732.215,E,1,12,1.0,0.0,M,0.0,M,,*6D
$GPGSA,A,3,01,02,03,04,05,06,07,08,09,10,11,12,1.0,1.0,1.0*30
$GPRMC,031724.929,A,2826.496,N,07732.215,E,019.4,299.8,010721,000.0,W*7A
$GPGGA,031725.929,2826.499,N,07732.210,E,1,12,1.0,0.0,M,0.0,M,,*66
$GPGSA,A,3,01,02,03,04,05,06,07,08,09,10,11,12,1.0,1.0,1.0*30
$GPRMC,031725.929,A,2826.499,N,07732.210,E,019.4,299.8,010721,000.0,W*71
$GPGGA,031726.929,2826.502,N,07732.205,E,1,12,1.0,0.0,M,0.0,M,,*62
$GPGSA,A,3,01,02,03,04,05,06,07,08,09,10,11,12,1.0,1.0,1.0*30
$GPRMC,031726.929,A,2826.502,N,07732.205,E,019.4,299.8,010721,000.0,W*75
$GPGGA,031727.929,2826.505,N,07732.200,E,1,12,1.0,0.0,M,0.0,M,,*61
$GPGSA,A,3,01,02,03,04,05,06,07,08,09,10,11,12,1.0,1.0,1.0*30
$GPRMC,031727.929,A,2826.505,N,07732.200,E,019.4,299.8,010721,000.0,W*76
$GPGGA,031728.929,2826.507,N,07732.195,E,1,12,1.0,0.0,M,0.0,M,,*63
$GPGSA,A,3,01,02,03,04,05,06,07,08,09,10,11,12,1.0,1.0,1.0*30
$GPRMC,031728.929,A,2826.507,N,07732.195,E,019.4,299.8,010721,000.0,W*74
$GPGGA,031729.929,2826.510,N,07732.190,E,1,12,1.0,0.0,M,0.0,M,,*61
$GPGSA,A,3,01,02,03,04,05,06,07,08,09,10,11,12,1.0,1.0,1.0*30
$GPRMC,031729.929,A,2826.510,N,07732.190,E,019.4,299.8,010721,000.0,W*76
$GPGGA,031730.929,2826.513,N,07732.184,E,1,12,1.0,0.0,M,0.0,M,,*6F
$GPGSA,A,3,01,02,03,04,05,06,07,08,09,10,11,12,1.0,1.0,1.0*30
$GPRMC,031730.929,A,2826.513,N,07732.184,E,019.4,299.8,010721,000.0,W*78
$GPGGA,031731.929,2826.516,N,07732.179,E,1,12,1.0,0.0,M,0.0,M,,*69
$GPGSA,A,3,01,02,03,04,05,06,07,08,09,10,11,12,1.0,1.0,1.0*30
$GPRMC,031731.929,A,2826.516,N,07732.179,E,019.4,299.8,010721,000.0,W*7E
$GPGGA,031732.929,2826.519,N,07732.174,E,1,12,1.0,0.0,M,0.0,M,,*68
$GPGSA,A,3,01,02,03,04,05,06,07,08,09,10,11,12,1.0,1.0,1.0*30
$GPRMC,031732.929,A,2826.519,N,07732.174,E,019.4,299.8,010721,000.0,W*7F
$GPGGA,031733.929,2826.522,N,07732.169,E,1,12,1.0,0.0,M,0.0,M,,*6D
$GPGSA,A,3,01,02,03,04,05,06,07,08,09,10,11,12,1.0,1.0,1.0*30
$GPRMC,031733.929,A,2826.522,N,07732.169,E,019.4,299.8,010721,000.0,W*7A
$GPGGA,031734.929,2826.525,N,07732.164,E,1,12,1.0,0.0,M,0.0,M,,*60
$GPGSA,A,3,01,02,03,04,05,06,07,08,09,10,11,12,1.0,1.0,1.0*30
$GPRMC,031734.929,A,2826.525,N,07732.164,E,019.4,299.8,010721,000.0,W*77
$GPGGA,031735.929,2826.528,N,07732.159,E,1,12,1.0,0.0,M,0.0,M,,*62
$GPGSA,A,3,01,02,03,04,05,06,07,08,09,10,11,12,1.0,1.0,1.0*30
$GPRMC,031735.929,A,2826.528,N,07732.159,E,019.4,299.8,010721,000.0,W*75
$GPGGA,031736.929,2826.531,N,07732.154,E,1,12,1.0,0.0,M,0.0,M,,*64
$GPGSA,A,3,01,02,03,04,05,06,07,08,09,10,11,12,1.0,1.0,1.0*30
$GPRMC,031736.929,A,2826.531,N,07732.154,E,019.4,299.8,010721,000.0,W*73
$GPGGA,031737.929,2826.534,N,07732.148,E,1,12,1.0,0.0,M,0.0,M,,*6D
$GPGSA,A,3,01,02,03,04,05,06,07,08,09,10,11,12,1.0,1.0,1.0*30
$GPRMC,031737.929,A,2826.534,N,07732.148,E,019.4,299.8,010721,000.0,W*7A
$GPGGA,031738.929,2826.537,N,07732.143,E,1,12,1.0,0.0,M,0.0,M,,*6A
$GPGSA,A,3,01,02,03,04,05,06,07,08,09,10,11,12,1.0,1.0,1.0*30
$GPRMC,031738.929,A,2826.537,N,07732.143,E,019.4,299.8,010721,000.0,W*7D
$GPGGA,031739.929,2826.540,N,07732.138,E,1,12,1.0,0.0,M,0.0,M,,*67
$GPGSA,A,3,01,02,03,04,05,06,07,08,09,10,11,12,1.0,1.0,1.0*30
$GPRMC,031739.929,A,2826.540,N,07732.138,E,019.4,299.8,010721,000.0,W*70
$GPGGA,031740.929,2826.543,N,07732.133,E,1,12,1.0,0.0,M,0.0,M,,*61
$GPGSA,A,3,01,02,03,04,05,06,07,08,09,10,11,12,1.0,1.0,1.0*30
$GPRMC,031740.929,A,2826.543,N,07732.133,E,019.4,299.8,010721,000.0,W*76
$GPGGA,031741.929,2826.546,N,07732.128,E,1,12,1.0,0.0,M,0.0,M,,*6F
$GPGSA,A,3,01,02,03,04,05,06,07,08,09,10,11,12,1.0,1.0,1.0*30
$GPRMC,031741.929,A,2826.546,N,07732.128,E,019.4,299.8,010721,000.0,W*78
$GPGGA,031742.929,2826.549,N,07732.123,E,1,12,1.0,0.0,M,0.0,M,,*68
$GPGSA,A,3,01,02,03,04,05,06,07,08,09,10,11,12,1.0,1.0,1.0*30
$GPRMC,031742.929,A,2826.549,N,07732.123,E,019.4,299.8,010721,000.0,W*7F
$GPGGA,031743.929,2826.552,N,07732.118,E,1,12,1.0,0.0,M,0.0,M,,*6B
$GPGSA,A,3,01,02,03,04,05,06,07,08,09,10,11,12,1.0,1.0,1.0*30
$GPRMC,031743.929,A,2826.552,N,07732.118,E,019.4,299.8,010721,000.0,W*7C
$GPGGA,031744.929,2826.554,N,07732.112,E,1,12,1.0,0.0,M,0.0,M,,*60
$GPGSA,A,3,01,02,03,04,05,06,07,08,09,10,11,12,1.0,1.0,1.0*30
$GPRMC,031744.929,A,2826.554,N,07732.112,E,019.4,299.8,010721,000.0,W*77
$GPGGA,031745.929,2826.557,N,07732.107,E,1,12,1.0,0.0,M,0.0,M,,*66
$GPGSA,A,3,01,02,03,04,05,06,07,08,09,10,11,12,1.0,1.0,1.0*30
$GPRMC,031745.929,A,2826.557,N,07732.107,E,019.4,299.8,010721,000.0,W*71
$GPGGA,031746.929,2826.560,N,07732.102,E,1,12,1.0,0.0,M,0.0,M,,*64
$GPGSA,A,3,01,02,03,04,05,06,07,08,09,10,11,12,1.0,1.0,1.0*30
$GPRMC,031746.929,A,2826.560,N,07732.102,E,019.4,299.8,010721,000.0,W*73
$GPGGA,031747.929,2826.563,N,07732.097,E,1,12,1.0,0.0,M,0.0,M,,*6B
$GPGSA,A,3,01,02,03,04,05,06,07,08,09,10,11,12,1.0,1.0,1.0*30
$GPRMC,031747.929,A,2826.563,N,07732.097,E,019.4,299.8,010721,000.0,W*7C
$GPGGA,031748.929,2826.566,N,07732.092,E,1,12,1.0,0.0,M,0.0,M,,*64
$GPGSA,A,3,01,02,03,04,05,06,07,08,09,10,11,12,1.0,1.0,1.0*30
$GPRMC,031748.929,A,2826.566,N,07732.092,E,019.4,299.8,010721,000.0,W*73
$GPGGA,031749.929,2826.569,N,07732.087,E,1,12,1.0,0.0,M,0.0,M,,*6E
$GPGSA,A,3,01,02,03,04,05,06,07,08,09,10,11,12,1.0,1.0,1.0*30
$GPRMC,031749.929,A,2826.569,N,07732.087,E,019.4,299.8,010721,000.0,W*79
$GPGGA,031750.929,2826.572,N,07732.082,E,1,12,1.0,0.0,M,0.0,M,,*69
$GPGSA,A,3,01,02,03,04,05,06,07,08,09,10,11,12,1.0,1.0,1.0*30
$GPRMC,031750.929,A,2826.572,N,07732.082,E,019.4,299.8,010721,000.0,W*7E
$GPGGA,031751.929,2826.575,N,07732.076,E,1,12,1.0,0.0,M,0.0,M,,*64
$GPGSA,A,3,01,02,03,04,05,06,07,08,09,10,11,12,1.0,1.0,1.0*30
$GPRMC,031751.929,A,2826.575,N,07732.076,E,019.4,299.8,010721,000.0,W*73
$GPGGA,031752.929,2826.578,N,07732.071,E,1,12,1.0,0.0,M,0.0,M,,*6D
$GPGSA,A,3,01,02,03,04,05,06,07,08,09,10,11,12,1.0,1.0,1.0*30
$GPRMC,031752.929,A,2826.578,N,07732.071,E,019.4,299.8,010721,000.0,W*7A
$GPGGA,031753.929,2826.581,N,07732.066,E,1,12,1.0,0.0,M,0.0,M,,*6C
$GPGSA,A,3,01,02,03,04,05,06,07,08,09,10,11,12,1.0,1.0,1.0*30
$GPRMC,031753.929,A,2826.581,N,07732.066,E,019.4,299.8,010721,000.0,W*7B
$GPGGA,031754.929,2826.584,N,07732.061,E,1,12,1.0,0.0,M,0.0,M,,*69
$GPGSA,A,3,01,02,03,04,05,06,07,08,09,10,11,12,1.0,1.0,1.0*30
$GPRMC,031754.929,A,2826.584,N,07732.061,E,019.4,299.8,010721,000.0,W*7E
$GPGGA,031755.929,2826.587,N,07732.056,E,1,12,1.0,0.0,M,0.0,M,,*6F
$GPGSA,A,3,01,02,03,04,05,06,07,08,09,10,11,12,1.0,1.0,1.0*30
$GPRMC,031755.929,A,2826.587,N,07732.056,E,019.4,299.8,010721,000.0,W*78
$GPGGA,031756.929,2826.590,N,07732.051,E,1,12,1.0,0.0,M,0.0,M,,*6D
$GPGSA,A,3,01,02,03,04,05,06,07,08,09,10,11,12,1.0,1.0,1.0*30
$GPRMC,031756.929,A,2826.590,N,07732.051,E,019.4,299.8,010721,000.0,W*7A
$GPGGA,031757.929,2826.593,N,07732.046,E,1,12,1.0,0.0,M,0.0,M,,*69
$GPGSA,A,3,01,02,03,04,05,06,07,08,09,10,11,12,1.0,1.0,1.0*30
$GPRMC,031757.929,A,2826.593,N,07732.046,E,019.4,299.8,010721,000.0,W*7E
$GPGGA,031758.929,2826.596,N,07732.040,E,1,12,1.0,0.0,M,0.0,M,,*65
$GPGSA,A,3,01,02,03,04,05,06,07,08,09,10,11,12,1.0,1.0,1.0*30
$GPRMC,031758.929,A,2826.596,N,07732.040,E,019.4,299.8,010721,000.0,W*72
$GPGGA,031759.929,2826.599,N,07732.035,E,1,12,1.0,0.0,M,0.0,M,,*69
$GPGSA,A,3,01,02,03,04,05,06,07,08,09,10,11,12,1.0,1.0,1.0*30
$GPRMC,031759.929,A,2826.599,N,07732.035,E,019.4,299.8,010721,000.0,W*7E
$GPGGA,031800.929,2826.602,N,07732.030,E,1,12,1.0,0.0,M,0.0,M,,*6E
$GPGSA,A,3,01,02,03,04,05,06,07,08,09,10,11,12,1.0,1.0,1.0*30
$GPRMC,031800.929,A,2826.602,N,07732.030,E,019.4,299.8,010721,000.0,W*79
$GPGGA,031801.929,2826.604,N,07732.025,E,1,12,1.0,0.0,M,0.0,M,,*6D
$GPGSA,A,3,01,02,03,04,05,06,07,08,09,10,11,12,1.0,1.0,1.0*30
$GPRMC,031801.929,A,2826.604,N,07732.025,E,019.4,299.8,010721,000.0,W*7A
$GPGGA,031802.929,2826.607,N,07732.020,E,1,12,1.0,0.0,M,0.0,M,,*68
$GPGSA,A,3,01,02,03,04,05,06,07,08,09,10,11,12,1.0,1.0,1.0*30
$GPRMC,031802.929,A,2826.607,N,07732.020,E,019.4,299.8,010721,000.0,W*7F
$GPGGA,031803.929,2826.610,N,07732.015,E,1,12,1.0,0.0,M,0.0,M,,*69
$GPGSA,A,3,01,02,03,04,05,06,07,08,09,10,11,12,1.0,1.0,1.0*30
$GPRMC,031803.929,A,2826.610,N,07732.015,E,019.4,299.8,010721,000.0,W*7E
$GPGGA,031804.929,2826.613,N,07732.010,E,1,12,1.0,0.0,M,0.0,M,,*68
$GPGSA,A,3,01,02,03,04,05,06,07,08,09,10,11,12,1.0,1.0,1.0*30
$GPRMC,031804.929,A,2826.613,N,07732.010,E,019.4,299.8,010721,000.0,W*7F
$GPGGA,031805.929,2826.616,N,07732.004,E,1,12,1.0,0.0,M,0.0,M,,*69
$GPGSA,A,3,01,02,03,04,05,06,07,08,09,10,11,12,1.0,1.0,1.0*30
$GPRMC,031805.929,A,2826.616,N,07732.004,E,019.4,299.8,010721,000.0,W*7E
$GPGGA,031806.929,2826.619,N,07731.999,E,1,12,1.0,0.0,M,0.0,M,,*6B
$GPGSA,A,3,01,02,03,04,05,06,07,08,09,10,11,12,1.0,1.0,1.0*30
$GPRMC,031806.929,A,2826.619,N,07731.999,E,019.4,299.8,010721,000.0,W*7C
$GPGGA,031807.929,2826.622,N,07731.994,E,1,12,1.0,0.0,M,0.0,M,,*6F
$GPGSA,A,3,01,02,03,04,05,06,07,08,09,10,11,12,1.0,1.0,1.0*30
$GPRMC,031807.929,A,2826.622,N,07731.994,E,019.4,299.8,010721,000.0,W*78
$GPGGA,031808.929,2826.625,N,07731.989,E,1,12,1.0,0.0,M,0.0,M,,*6B
$GPGSA,A,3,01,02,03,04,05,06,07,08,09,10,11,12,1.0,1.0,1.0*30
$GPRMC,031808.929,A,2826.625,N,07731.989,E,019.4,299.8,010721,000.0,W*7C
$GPGGA,031809.929,2826.628,N,07731.984,E,1,12,1.0,0.0,M,0.0,M,,*6A
$GPGSA,A,3,01,02,03,04,05,06,07,08,09,10,11,12,1.0,1.0,1.0*30
$GPRMC,031809.929,A,2826.628,N,07731.984,E,019.4,299.8,010721,000.0,W*7D
$GPGGA,031810.929,2826.631,N,07731.979,E,1,12,1.0,0.0,M,0.0,M,,*68
$GPGSA,A,3,01,02,03,04,05,06,07,08,09,10,11,12,1.0,1.0,1.0*30
$GPRMC,031810.929,A,2826.631,N,07731.979,E,019.4,299.8,010721,000.0,W*7F
$GPGGA,031811.929,2826.634,N,07731.973,E,1,12,1.0,0.0,M,0.0,M,,*66
$GPGSA,A,3,01,02,03,04,05,06,07,08,09,10,11,12,1.0,1.0,1.0*30
$GPRMC,031811.929,A,2826.634,N,07731.973,E,019.4,299.8,010721,000.0,W*71
$GPGGA,031812.929,2826.637,N,07731.968,E,1,12,1.0,0.0,M,0.0,M,,*6C
$GPGSA,A,3,01,02,03,04,05,06,07,08,09,10,11,12,1.0,1.0,1.0*30
$GPRMC,031812.929,A,2826.637,N,07731.968,E,019.4,299.8,010721,000.0,W*7B
$GPGGA,031813.929,2826.640,N,07731.963,E,1,12,1.0,0.0,M,0.0,M,,*66
$GPGSA,A,3,01,02,03,04,05,06,07,08,09,10,11,12,1.0,1.0,1.0*30
$GPRMC,031813.929,A,2826.640,N,07731.963,E,019.4,299.8,010721,000.0,W*71
$GPGGA,031814.929,2826.643,N,07731.958,E,1,12,1.0,0.0,M,0.0,M,,*6A
$GPGSA,A,3,01,02,03,04,05,06,07,08,09,10,11,12,1.0,1.0,1.0*30
$GPRMC,031814.929,A,2826.643,N,07731.958,E,019.4,299.8,010721,000.0,W*7D
$GPGGA,031815.929,2826.646,N,07731.953,E,1,12,1.0,0.0,M,0.0,M,,*65
$GPGSA,A,3,01,02,03,04,05,06,07,08,09,10,11,12,1.0,1.0,1.0*30
$GPRMC,031815.929,A,2826.646,N,07731.953,E,019.4,299.8,010721,000.0,W*72
$GPGGA,031816.929,2826.649,N,07731.948,E,1,12,1.0,0.0,M,0.0,M,,*63
$GPGSA,A,3,01,02,03,04,05,06,07,08,09,10,11,12,1.0,1.0,1.0*30
$GPRMC,031816.929,A,2826.649,N,07731.948,E,019.4,299.8,010721,000.0,W*74
$GPGGA,031817.929,2826.651,N,07731.943,E,1,12,1.0,0.0,M,0.0,M,,*60
$GPGSA,A,3,01,02,03,04,05,06,07,08,09,10,11,12,1.0,1.0,1.0*30
$GPRMC,031817.929,A,2826.651,N,07731.943,E,019.4,299.8,010721,000.0,W*77
$GPGGA,031818.929,2826.654,N,07731.937,E,1,12,1.0,0.0,M,0.0,M,,*69
$GPGSA,A,3,01,02,03,04,05,06,07,08,09,10,11,12,1.0,1.0,1.0*30
$GPRMC,031818.929,A,2826.654,N,07731.937,E,019.4,299.8,010721,000.0,W*7E
$GPGGA,031819.929,2826.657,N,07731.932,E,1,12,1.0,0.0,M,0.0,M,,*6E
$GPGSA,A,3,01,02,03,04,05,06,07,08,09,10,11,12,1.0,1.0,1.0*30
$GPRMC,031819.929,A,2826.657,N,07731.932,E,019.4,299.8,010721,000.0,W*79
$GPGGA,031820.929,2826.660,N,07731.927,E,1,12,1.0,0.0,M,0.0,M,,*64
$GPGSA,A,3,01,02,03,04,05,06,07,08,09,10,11,12,1.0,1.0,1.0*30
$GPRMC,031820.929,A,2826.660,N,07731.927,E,019.4,299.8,010721,000.0,W*73
$GPGGA,031821.929,2826.663,N,07731.922,E,1,12,1.0,0.0,M,0.0,M,,*63
$GPGSA,A,3,01,02,03,04,05,06,07,08,09,10,11,12,1.0,1.0,1.0*30
$GPRMC,031821.929,A,2826.663,N,07731.922,E,019.4,299.8,010721,000.0,W*74
